#version,serial,flight,call,time,state,state_name,acceleration,pressure,altitude,height,speed,temperature,drogue_voltage,main_voltage,battery_voltage,accel_x,accel_y,accel_z,gyro_roll,gyro_pitch,gyro_yaw,mag_x,mag_y,mag_z,tilt,pyro,igniter_a,igniter_b,igniter_c,igniter_d,connected,locked,nsat,latitude,longitude,altitude,year,month,day,hour,minute,second,pad_dist,pad_range,pad_az,pad_el,pdop,hdop,vdop,sat01,sat02,sat03,sat04,sat05,sat06,sat07,sat08,sat09,sat10,sat11,sat12,sat13,sat14,sat15,sat16,sat17,sat18,sat19,sat20,sat21,sat22,sat23,sat24,sat25,sat26,sat27,sat28,sat29,sat30,sat31,sat32
6, 11115, 2,N0CALL,    -0.30, 3,   boost,   -0.00,  98670.00,  223.39,    1.02,    0.00,  5.0, 4.01, 4.01, 4.02,  -9.71,  -0.21,   0.32,  -0.11,  -0.24,   0.00,  -0.66,   0.45,   0.29,   2.51, 4.03, 0.00, 0.00, 0.00, 0.00, 1, 1, 11,  42.6264601, -88.1615351,   248.0, 2025,  2,  8, 17, 30, 54,        0,        0,   0,   0,   1.9,   0.7,   1.7, 25, 28,  0,  0,  0,  0, 13,  0, 30,  0,  0,  0, 29, 29,  0,  0, 25,  0,  0,  0,  0, 20,  0,  0,  0,  0, 33,  0,  0, 33,  0,  0
6, 11115, 2,N0CALL,    -0.29, 3,   boost,   -0.00,  98674.00,  223.05,    0.68,    0.00,  5.0, 4.01, 4.01, 4.02,  -9.90,  -0.64,   0.27,   0.38,  -0.24,   0.37,  -0.66,   0.45,   0.29,   2.51, 4.03, 0.00, 0.00, 0.00, 0.00, 1, 1, 11,  42.6264601, -88.1615351,   248.0, 2025,  2,  8, 17, 30, 54,        0,        0,   0,   0,   1.9,   0.7,   1.7, 25, 28,  0,  0,  0,  0, 13,  0, 30,  0,  0,  0, 29, 29,  0,  0, 25,  0,  0,  0,  0, 20,  0,  0,  0,  0, 33,  0,  0, 33,  0,  0
6, 11115, 2,N0CALL,    -0.28, 3,   boost,   -0.98,  98674.00,  223.05,    0.68,    0.00,  5.0, 4.01, 4.01, 4.02,  -9.79,  -0.49,   0.24,   0.81,  -0.30,   0.00,  -0.66,   0.45,   0.29,   2.51, 4.03, 0.00, 0.00, 0.00, 0.00, 1, 1, 11,  42.6264601, -88.1615351,   248.0, 2025,  2,  8, 17, 30, 54,        0,        0,   0,   0,   1.9,   0.7,   1.7, 25, 28,  0,  0,  0,  0, 13,  0, 30,  0,  0,  0, 29, 29,  0,  0, 25,  0,  0,  0,  0, 20,  0,  0,  0,  0, 33,  0,  0, 33,  0,  0
6, 11115, 2,N0CALL,    -0.27, 3,   boost,    0.49,  98668.00,  223.56,    1.19,    0.00,  5.0, 4.01, 4.01, 4.02,  -9.81,  -0.37,   0.21,   0.69,  -0.48,   0.19,  -0.66,   0.45,   0.29,   2.51, 4.03, 0.00, 0.00, 0.00, 0.00, 1, 1, 11,  42.6264601, -88.1615351,   248.0, 2025,  2,  8, 17, 30, 54,        0,        0,   0,   0,   1.9,   0.7,   1.7, 25, 28,  0,  0,  0,  0, 13,  0, 30,  0,  0,  0, 29, 29,  0,  0, 25,  0,  0,  0,  0, 20,  0,  0,  0,  0, 33,  0,  0, 33,  0,  0
6, 11115, 2,N0CALL,    -0.26, 3,   boost,   -1.47,  98668.00,  223.56,    1.19,    0.00,  5.0, 4.01, 4.01, 4.02,  -9.86,  -0.50,   0.24,   0.75,  -0.18,  -0.06,  -0.66,   0.45,   0.29,   2.51, 4.03, 0.00, 0.00, 0.00, 0.00, 1, 1, 11,  42.6264601, -88.1615351,   248.0, 2025,  2,  8, 17, 30, 54,        0,        0,   0,   0,   1.9,   0.7,   1.7, 25, 28,  0,  0,  0,  0, 13,  0, 30,  0,  0,  0, 29, 29,  0,  0, 25,  0,  0,  0,  0, 20,  0,  0,  0,  0, 33,  0,  0, 33,  0,  0
6, 11115, 2,N0CALL,    -0.25, 3,   boost,    0.98,  98666.00,  223.73,    1.36,    0.00,  5.0, 4.01, 4.01, 4.02,  -9.74,  -0.50,   0.19,   0.56,  -0.12,   0.13,  -0.66,   0.45,   0.29,   2.51, 4.03, 0.00, 0.00, 0.00, 0.00, 1, 1, 11,  42.6264601, -88.1615351,   248.0, 2025,  2,  8, 17, 30, 54,        0,        0,   0,   0,   1.9,   0.7,   1.7, 25, 28,  0,  0,  0,  0, 13,  0, 30,  0,  0,  0, 29, 29,  0,  0, 25,  0,  0,  0,  0, 20,  0,  0,  0,  0, 33,  0,  0, 33,  0,  0
6, 11115, 2,N0CALL,    -0.24, 3,   boost,   -0.49,  98666.00,  223.73,    1.36,    0.00,  5.0, 4.01, 4.01, 4.02,  -9.90,  -0.37,   0.19,   0.32,  -0.30,  -0.24,  -0.66,   0.45,   0.29,   2.51, 4.03, 0.00, 0.00, 0.00, 0.00, 1, 1, 11,  42.6264601, -88.1615351,   248.0, 2025,  2,  8, 17, 30, 54,        0,        0,   0,   0,   1.9,   0.7,   1.7, 25, 28,  0,  0,  0,  0, 13,  0, 30,  0,  0,  0, 29, 29,  0,  0, 25,  0,  0,  0,  0, 20,  0,  0,  0,  0, 33,  0,  0, 33,  0,  0
6, 11115, 2,N0CALL,    -0.23, 3,   boost,   -0.49,  98670.00,  223.39,    1.02,    0.01,  5.0, 4.01, 4.01, 4.02,  -9.82,  -0.29,   0.15,  -0.17,  -0.30,   0.00,  -0.66,   0.45,   0.29,   2.51, 4.03, 0.00, 0.00, 0.00, 0.00, 1, 1, 11,  42.6264601, -88.1615351,   248.0, 2025,  2,  8, 17, 30, 54,        0,        0,   0,   0,   1.9,   0.7,   1.7, 25, 28,  0,  0,  0,  0, 13,  0, 30,  0,  0,  0, 29, 29,  0,  0, 25,  0,  0,  0,  0, 20,  0,  0,  0,  0, 33,  0,  0, 33,  0,  0
6, 11115, 2,N0CALL,    -0.22, 3,   boost,    0.49,  98670.00,  223.39,    1.02,    0.02,  5.0, 4.01, 4.01, 4.02,  -9.87,  -0.46,   0.14,  -0.53,  -0.48,   0.00,  -0.66,   0.45,   0.29,   2.51, 4.03, 0.00, 0.00, 0.00, 0.00, 1, 1, 11,  42.6264601, -88.1615351,   248.0, 2025,  2,  8, 17, 30, 54,        0,        0,   0,   0,   1.9,   0.7,   1.7, 25, 28,  0,  0,  0,  0, 13,  0, 30,  0,  0,  0, 29, 29,  0,  0, 25,  0,  0,  0,  0, 20,  0,  0,  0,  0, 33,  0,  0, 33,  0,  0
6, 11115, 2,N0CALL,    -0.21, 3,   boost,    2.45,  98678.00,  222.71,    0.34,    0.06,  5.0, 4.01, 4.01, 4.02,  -9.80,  -0.29,   0.15,  -0.35,  -0.06,   0.13,  -0.66,   0.45,   0.29,   2.51, 4.03, 0.00, 0.00, 0.00, 0.00, 1, 1, 11,  42.6264601, -88.1615351,   248.0, 2025,  2,  8, 17, 30, 54,        0,        0,   0,   0,   1.9,   0.7,   1.7, 25, 28,  0,  0,  0,  0, 13,  0, 30,  0,  0,  0, 29, 29,  0,  0, 25,  0,  0,  0,  0, 20,  0,  0,  0,  0, 33,  0,  0, 33,  0,  0
6, 11115, 2,N0CALL,    -0.20, 3,   boost,    5.39,  98678.00,  222.71,    0.34,    0.13,  5.0, 4.01, 4.01, 4.02,  -9.86,  -0.35,   0.19,   0.01,   0.00,  -0.24,  -0.66,   0.45,   0.29,   2.51, 4.03, 0.00, 0.00, 0.00, 0.00, 1, 1, 11,  42.6264601, -88.1615351,   248.0, 2025,  2,  8, 17, 30, 54,        0,        0,   0,   0,   1.9,   0.7,   1.7, 25, 28,  0,  0,  0,  0, 13,  0, 30,  0,  0,  0, 29, 29,  0,  0, 25,  0,  0,  0,  0, 20,  0,  0,  0,  0, 33,  0,  0, 33,  0,  0
6, 11115, 2,N0CALL,    -0.19, 3,   boost,   19.12,  98678.00,  222.71,    0.34,    0.25,  5.0, 4.01, 4.01, 4.02, -11.49,  -0.06,   0.14,   0.20,  -0.06,   0.13,  -0.66,   0.45,   0.29,   2.51, 4.03, 0.00, 0.00, 0.00, 0.00, 1, 1, 11,  42.6264601, -88.1615351,   248.0, 2025,  2,  8, 17, 30, 54,        0,        0,   0,   0,   1.9,   0.7,   1.7, 25, 28,  0,  0,  0,  0, 13,  0, 30,  0,  0,  0, 29, 29,  0,  0, 25,  0,  0,  0,  0, 20,  0,  0,  0,  0, 33,  0,  0, 33,  0,  0
6, 11115, 2,N0CALL,    -0.18, 3,   boost,   20.10,  98678.00,  222.71,    0.34,    0.41,  5.0, 4.01, 4.01, 4.02, -24.23,   1.11,  -0.14,   0.81,  -0.67,   0.31,  -0.66,   0.45,   0.29,   2.51, 4.03, 0.00, 0.00, 0.00, 0.00, 1, 1, 11,  42.6264601, -88.1615351,   248.0, 2025,  2,  8, 17, 30, 54,        0,        0,   0,   0,   1.9,   0.7,   1.7, 25, 28,  0,  0,  0,  0, 13,  0, 30,  0,  0,  0, 29, 29,  0,  0, 25,  0,  0,  0,  0, 20,  0,  0,  0,  0, 33,  0,  0, 33,  0,  0
6, 11115, 2,N0CALL,    -0.17, 3,   boost,   21.08,  98682.00,  222.37,    0.00,    0.61,  5.0, 4.01, 4.01, 4.02, -26.81,  -0.13,   0.59,   4.16,  -0.97,   1.71,  -0.66,   0.45,   0.29,   2.51, 4.03, 0.00, 0.00, 0.00, 0.00, 1, 1, 11,  42.6264601, -88.1615351,   248.0, 2025,  2,  8, 17, 30, 54,        0,        0,   0,   0,   1.9,   0.7,   1.7, 25, 28,  0,  0,  0,  0, 13,  0, 30,  0,  0,  0, 29, 29,  0,  0, 25,  0,  0,  0,  0, 20,  0,  0,  0,  0, 33,  0,  0, 33,  0,  0
6, 11115, 2,N0CALL,    -0.16, 3,   boost,   25.99,  98682.00,  222.37,    0.00,    0.87,  5.0, 4.01, 4.01, 4.02, -30.38,  -0.11,   1.32,   2.27,   0.37,   0.67,  -0.66,   0.45,   0.29,   2.51, 4.03, 0.00, 0.00, 0.00, 0.00, 1, 1, 11,  42.6264601, -88.1615351,   248.0, 2025,  2,  8, 17, 30, 54,        0,        0,   0,   0,   1.9,   0.7,   1.7, 25, 28,  0,  0,  0,  0, 13,  0, 30,  0,  0,  0, 29, 29,  0,  0, 25,  0,  0,  0,  0, 20,  0,  0,  0,  0, 33,  0,  0, 33,  0,  0
6, 11115, 2,N0CALL,    -0.15, 3,   boost,   29.42,  98663.00,  223.99,    1.62,    1.16,  5.0, 4.01, 4.01, 4.02, -32.83,  -0.70,   1.79,  27.48,   1.10,   1.10,  -0.66,   0.46,   0.29,   2.51, 4.03, 0.00, 0.00, 0.00, 0.00, 1, 1, 11,  42.6264601, -88.1615351,   248.0, 2025,  2,  8, 17, 30, 54,        0,        0,   0,   0,   1.9,   0.7,   1.7, 25, 28,  0,  0,  0,  0, 13,  0, 30,  0,  0,  0, 29, 29,  0,  0, 25,  0,  0,  0,  0, 20,  0,  0,  0,  0, 33,  0,  0, 33,  0,  0
6, 11115, 2,N0CALL,    -0.14, 3,   boost,   39.23,  98663.00,  223.99,    1.62,    1.51,  5.0, 4.01, 4.01, 4.02, -36.83,  -0.29,   0.34,  33.40,   0.80,   1.77,  -0.66,   0.46,   0.29,   2.51, 4.03, 0.00, 0.00, 0.00, 0.00, 1, 1, 11,  42.6264601, -88.1615351,   248.0, 2025,  2,  8, 17, 30, 54,        0,        0,   0,   0,   1.9,   0.7,   1.7, 25, 28,  0,  0,  0,  0, 13,  0, 30,  0,  0,  0, 29, 29,  0,  0, 25,  0,  0,  0,  0, 20,  0,  0,  0,  0, 33,  0,  0, 33,  0,  0
6, 11115, 2,N0CALL,    -0.13, 3,   boost,   44.62,  98675.00,  222.97,    0.60,    1.90,  5.0, 4.01, 4.01, 4.02, -42.93,  -2.53,   0.97,  31.08,   2.69,   1.35,  -0.66,   0.46,   0.29,   2.51, 4.03, 0.00, 0.00, 0.00, 0.00, 1, 1, 11,  42.6264601, -88.1615351,   248.0, 2025,  2,  8, 17, 30, 54,        0,        0,   0,   0,   1.9,   0.7,   1.7, 25, 28,  0,  0,  0,  0, 13,  0, 30,  0,  0,  0, 29, 29,  0,  0, 25,  0,  0,  0,  0, 20,  0,  0,  0,  0, 33,  0,  0, 33,  0,  0
6, 11115, 2,N0CALL,    -0.12, 3,   boost,   48.54,  98675.00,  222.97,    0.60,    2.32,  5.0, 4.01, 4.01, 4.02, -52.97,  -5.06,  -0.32,  28.27,   2.44,   2.44,  -0.66,   0.46,   0.29,   2.51, 4.03, 0.00, 0.00, 0.00, 0.00, 1, 1, 11,  42.6264601, -88.1615351,   248.0, 2025,  2,  8, 17, 30, 54,        0,        0,   0,   0,   1.9,   0.7,   1.7, 25, 28,  0,  0,  0,  0, 13,  0, 30,  0,  0,  0, 29, 29,  0,  0, 25,  0,  0,  0,  0, 20,  0,  0,  0,  0, 33,  0,  0, 33,  0,  0
6, 11115, 2,N0CALL,    -0.11, 3,   boost,   47.56,  98678.00,  222.71,    0.34,    2.77,  5.0, 4.01, 4.01, 4.02, -56.48,  -0.60,   0.66,  26.02,   3.36,   0.92,  -0.66,   0.46,   0.29,   2.51, 4.03, 0.00, 0.00, 0.00, 0.00, 1, 1, 11,  42.6264601, -88.1615351,   248.0, 2025,  2,  8, 17, 30, 54,        0,        0,   0,   0,   1.9,   0.7,   1.7, 25, 28,  0,  0,  0,  0, 13,  0, 30,  0,  0,  0, 29, 29,  0,  0, 25,  0,  0,  0,  0, 20,  0,  0,  0,  0, 33,  0,  0, 33,  0,  0
6, 11115, 2,N0CALL,    -0.10, 3,   boost,   45.11,  98678.00,  222.71,    0.34,    3.22,  5.0, 4.01, 4.01, 4.02, -56.35,  -0.04,   2.17,  25.71,   4.95,   1.04,  -0.66,   0.46,   0.29,   2.51, 4.03, 0.00, 0.00, 0.00, 0.00, 1, 1, 11,  42.6264601, -88.1615351,   248.0, 2025,  2,  8, 17, 30, 54,        0,        0,   0,   0,   1.9,   0.7,   1.7, 25, 28,  0,  0,  0,  0, 13,  0, 30,  0,  0,  0, 29, 29,  0,  0, 25,  0,  0,  0,  0, 20,  0,  0,  0,  0, 33,  0,  0, 33,  0,  0
6, 11115, 2,N0CALL,    -0.09, 3,   boost,   43.15,  98665.00,  223.82,    1.45,    3.66,  5.0, 4.01, 4.01, 4.02, -55.64,  -0.13,  -0.28,  27.48,   5.74,  -0.18,  -0.66,   0.46,   0.29,   2.51, 4.03, 0.00, 0.00, 0.00, 0.00, 1, 1, 11,  42.6264601, -88.1615351,   248.0, 2025,  2,  8, 17, 30, 54,        0,        0,   0,   0,   1.9,   0.7,   1.7, 25, 28,  0,  0,  0,  0, 13,  0, 30,  0,  0,  0, 29, 29,  0,  0, 25,  0,  0,  0,  0, 20,  0,  0,  0,  0, 33,  0,  0, 33,  0,  0
6, 11115, 2,N0CALL,    -0.08, 3,   boost,   42.17,  98665.00,  223.82,    1.45,    4.11,  5.0, 4.01, 4.01, 4.02, -54.95,  -5.43,  -0.94,  34.38,   1.71,   0.37,  -0.65,   0.46,   0.29,   2.51, 4.03, 0.00, 0.00, 0.00, 0.00, 1, 1, 11,  42.6264601, -88.1615351,   248.0, 2025,  2,  8, 17, 30, 54,        0,        0,   0,   0,   1.9,   0.7,   1.7, 25, 28,  0,  0,  0,  0, 13,  0, 30,  0,  0,  0, 29, 29,  0,  0, 25,  0,  0,  0,  0, 20,  0,  0,  0,  0, 33,  0,  0, 33,  0,  0
6, 11115, 2,N0CALL,    -0.07, 3,   boost,   43.15,  98681.00,  222.45,    0.09,    4.54,  5.0, 4.01, 4.01, 4.02, -54.14,  -2.56,   2.56,  39.26,   3.91,   0.61,  -0.65,   0.46,   0.29,   2.51, 4.03, 0.00, 0.00, 0.00, 0.00, 1, 1, 11,  42.6264601, -88.1615351,   248.0, 2025,  2,  8, 17, 30, 54,        0,        0,   0,   0,   1.9,   0.7,   1.7, 25, 28,  0,  0,  0,  0, 13,  0, 30,  0,  0,  0, 29, 29,  0,  0, 25,  0,  0,  0,  0, 20,  0,  0,  0,  0, 33,  0,  0, 33,  0,  0
6, 11115, 2,N0CALL,    -0.06, 3,   boost,   45.11,  98681.00,  222.45,    0.09,    4.98,  5.0, 4.01, 4.01, 4.02, -53.34,  -2.94,  -0.29,  28.46,   2.93,   0.49,  -0.65,   0.46,   0.29,   2.51, 4.03, 0.00, 0.00, 0.00, 0.00, 1, 1, 11,  42.6264601, -88.1615351,   248.0, 2025,  2,  8, 17, 30, 54,        0,        0,   0,   0,   1.9,   0.7,   1.7, 25, 28,  0,  0,  0,  0, 13,  0, 30,  0,  0,  0, 29, 29,  0,  0, 25,  0,  0,  0,  0, 20,  0,  0,  0,  0, 33,  0,  0, 33,  0,  0
6, 11115, 2,N0CALL,    -0.05, 3,   boost,   45.11,  98680.00,  222.54,    0.17,    5.42,  5.0, 4.01, 4.01, 4.02, -53.42,  -3.53,  -1.31,  13.20,   1.77,   0.92,  -0.65,   0.46,   0.29,   2.51, 4.03, 0.00, 0.00, 0.00, 0.00, 1, 1, 11,  42.6264601, -88.1615351,   248.0, 2025,  2,  8, 17, 30, 54,        0,        0,   0,   0,   1.9,   0.7,   1.7, 25, 28,  0,  0,  0,  0, 13,  0, 30,  0,  0,  0, 29, 29,  0,  0, 25,  0,  0,  0,  0, 20,  0,  0,  0,  0, 33,  0,  0, 33,  0,  0
6, 11115, 2,N0CALL,    -0.04, 3,   boost,   43.15,  98680.00,  222.54,    0.17,    5.86,  5.0, 4.01, 4.01, 4.02, -53.16,  -1.84,  -0.15,  11.18,   2.08,   0.43,  -0.65,   0.47,   0.29,   2.51, 4.03, 0.00, 0.00, 0.00, 0.00, 1, 1, 11,  42.6264601, -88.1615351,   248.0, 2025,  2,  8, 17, 30, 54,        0,        0,   0,   0,   1.9,   0.7,   1.7, 25, 28,  0,  0,  0,  0, 13,  0, 30,  0,  0,  0, 29, 29,  0,  0, 25,  0,  0,  0,  0, 20,  0,  0,  0,  0, 33,  0,  0, 33,  0,  0
6, 11115, 2,N0CALL,    -0.03, 3,   boost,   45.11,  98667.00,  223.65,    1.28,    6.31,  5.0, 4.01, 4.01, 4.02, -53.85,   2.66,   2.09,   2.94,  -0.06,  -0.67,  -0.65,   0.47,   0.29,   2.51, 4.03, 0.00, 0.00, 0.00, 0.00, 1, 1, 11,  42.6264601, -88.1615351,   248.0, 2025,  2,  8, 17, 30, 54,        0,        0,   0,   0,   1.9,   0.7,   1.7, 25, 28,  0,  0,  0,  0, 13,  0, 30,  0,  0,  0, 29, 29,  0,  0, 25,  0,  0,  0,  0, 20,  0,  0,  0,  0, 33,  0,  0, 33,  0,  0
6, 11115, 2,N0CALL,    -0.02, 3,   boost,   43.64,  98667.00,  223.65,    1.28,    6.75,  5.0, 4.01, 4.01, 4.02, -53.44,  -6.19,   0.63,  -8.47,  -1.77,   0.37,  -0.65,   0.47,   0.29,   2.51, 4.03, 0.00, 0.00, 0.00, 0.00, 1, 1, 11,  42.6264601, -88.1615351,   248.0, 2025,  2,  8, 17, 30, 54,        0,        0,   0,   0,   1.9,   0.7,   1.7, 25, 28,  0,  0,  0,  0, 13,  0, 30,  0,  0,  0, 29, 29,  0,  0, 25,  0,  0,  0,  0, 20,  0,  0,  0,  0, 33,  0,  0, 33,  0,  0
6, 11115, 2,N0CALL,    -0.01, 3,   boost,   45.11,  98670.00,  223.39,    1.02,    7.20,  5.0, 4.01, 4.01, 4.02, -54.21,  -2.58,   0.63,  -8.16,  -2.01,  -1.46,  -0.65,   0.46,   0.29,   2.51, 4.03, 0.00, 0.00, 0.00, 0.00, 1, 1, 11,  42.6264601, -88.1615351,   248.0, 2025,  2,  8, 17, 30, 54,        0,        0,   0,   0,   1.9,   0.7,   1.7, 25, 28,  0,  0,  0,  0, 13,  0, 30,  0,  0,  0, 29, 29,  0,  0, 25,  0,  0,  0,  0, 20,  0,  0,  0,  0, 33,  0,  0, 33,  0,  0
6, 11115, 2,N0CALL,     0.00, 3,   boost,   46.09,  98670.00,  223.39,    1.02,    7.66,  5.0, 4.01, 4.01, 4.02, -54.50,  -1.43,   3.59, -18.85,  -0.06,  -2.01,  -0.65,   0.46,   0.29,   2.51, 4.03, 0.00, 0.00, 0.00, 0.00, 1, 1, 11,  42.6264601, -88.1615351,   248.0, 2025,  2,  8, 17, 30, 54,        0,        0,   0,   0,   1.9,   0.7,   1.7, 25, 28,  0,  0,  0,  0, 13,  0, 30,  0,  0,  0, 29, 29,  0,  0, 25,  0,  0,  0,  0, 20,  0,  0,  0,  0, 33,  0,  0, 33,  0,  0
6, 11115, 2,N0CALL,     0.00, 3,   boost,   46.09,  98670.00,  223.39,    1.02,    7.66,  5.0, 4.01, 4.01, 4.02, -54.50,  -1.43,   3.59, -18.85,  -0.06,  -2.01,  -0.65,   0.46,   0.29,   2.51, 4.03, 0.00, 0.00, 0.00, 0.00, 1, 1, 11,  42.6264601, -88.1615351,   248.0, 2025,  2,  8, 17, 30, 54,        0,        0,   0,   0,   1.9,   0.7,   1.7, 25, 28,  0,  0,  0,  0, 13,  0, 30,  0,  0,  0, 29, 29,  0,  0, 25,  0,  0,  0,  0, 20,  0,  0,  0,  0, 33,  0,  0, 33,  0,  0
6, 11115, 2,N0CALL,     0.00, 3,   boost,   46.09,  98670.00,  223.39,    1.02,    7.66,  5.0, 4.01, 4.01, 4.02, -54.50,  -1.43,   3.59, -18.85,  -0.06,  -2.01,  -0.65,   0.46,   0.29,   2.51, 4.03, 0.00, 0.00, 0.00, 0.00, 1, 1, 11,  42.6264601, -88.1615351,   248.0, 2025,  2,  8, 17, 30, 54,        0,        0,   0,   0,   1.9,   0.7,   1.7, 25, 28,  0,  0,  0,  0, 13,  0, 30,  0,  0,  0, 29, 29,  0,  0, 25,  0,  0,  0,  0, 20,  0,  0,  0,  0, 33,  0,  0, 33,  0,  0
6, 11115, 2,N0CALL,     0.00, 3,   boost,   46.09,  98670.00,  223.39,    1.02,    7.66,  5.0, 4.01, 4.01, 4.02, -54.50,  -1.43,   3.59, -18.85,  -0.06,  -2.01,  -0.65,   0.46,   0.29,   2.51, 4.03, 0.00, 0.00, 0.00, 0.00, 1, 1, 11,  42.6264601, -88.1615351,   248.0, 2025,  2,  8, 17, 30, 54,        0,        0,   0,   0,   1.9,   0.7,   1.7, 25, 28,  0,  0,  0,  0, 13,  0, 30,  0,  0,  0, 29, 29,  0,  0, 25,  0,  0,  0,  0, 20,  0,  0,  0,  0, 33,  0,  0, 33,  0,  0
6, 11115, 2,N0CALL,     0.00, 3,   boost,   46.09,  98670.00,  223.39,    1.02,    7.66,  5.0, 4.01, 4.01, 4.02, -54.50,  -1.43,   3.59, -18.85,  -0.06,  -2.01,  -0.65,   0.46,   0.29,   2.51, 4.03, 0.00, 0.00, 0.00, 0.00, 1, 1, 11,  42.6264601, -88.1615351,   248.0, 2025,  2,  8, 17, 30, 54,        0,        0,   0,   0,   1.9,   0.7,   1.7, 25, 28,  0,  0,  0,  0, 13,  0, 30,  0,  0,  0, 29, 29,  0,  0, 25,  0,  0,  0,  0, 20,  0,  0,  0,  0, 33,  0,  0, 33,  0,  0
6, 11115, 2,N0CALL,     0.00, 3,   boost,   46.09,  98670.00,  223.39,    1.02,    7.66,  5.0, 4.01, 4.01, 4.02, -54.50,  -1.43,   3.59, -18.85,  -0.06,  -2.01,  -0.65,   0.46,   0.29,   2.51, 4.03, 0.00, 0.00, 0.00, 0.00, 1, 1, 11,  42.6264601, -88.1615351,   248.0, 2025,  2,  8, 17, 30, 54,        0,        0,   0,   0,   1.9,   0.7,   1.7, 25, 28,  0,  0,  0,  0, 13,  0, 30,  0,  0,  0, 29, 29,  0,  0, 25,  0,  0,  0,  0, 20,  0,  0,  0,  0, 33,  0,  0, 33,  0,  0
6, 11115, 2,N0CALL,     0.00, 3,   boost,   46.09,  98670.00,  223.39,    1.02,    7.66,  5.0, 4.01, 4.01, 4.02, -54.50,  -1.43,   3.59, -18.85,  -0.06,  -2.01,  -0.65,   0.46,   0.29,   2.51, 4.03, 0.00, 0.00, 0.00, 0.00, 1, 1, 11,  42.6264601, -88.1615351,   248.0, 2025,  2,  8, 17, 30, 54,        0,        0,   0,   0,   1.9,   0.7,   1.7, 25, 28,  0,  0,  0,  0, 13,  0, 30,  0,  0,  0, 29, 29,  0,  0, 25,  0,  0,  0,  0, 20,  0,  0,  0,  0, 33,  0,  0, 33,  0,  0
6, 11115, 2,N0CALL,     0.00, 3,   boost,   46.09,  98670.00,  223.39,    1.02,    7.66,  5.0, 4.01, 4.01, 4.02, -54.50,  -1.43,   3.59, -18.85,  -0.06,  -2.01,  -0.65,   0.46,   0.29,   2.51, 4.03, 0.00, 0.00, 0.00, 0.00, 1, 1, 11,  42.6264601, -88.1615351,   248.0, 2025,  2,  8, 17, 30, 54,        0,        0,   0,   0,   1.9,   0.7,   1.7, 25, 28,  0,  0,  0,  0, 13,  0, 30,  0,  0,  0, 29, 29,  0,  0, 25,  0,  0,  0,  0, 20,  0,  0,  0,  0, 33,  0,  0, 33,  0,  0
6, 11115, 2,N0CALL,     0.00, 3,   boost,   46.09,  98670.00,  223.39,    1.02,    7.66,  5.0, 4.01, 4.01, 4.02, -54.50,  -1.43,   3.59, -18.85,  -0.06,  -2.01,  -0.65,   0.46,   0.29,   2.51, 4.03, 0.00, 0.00, 0.00, 0.00, 1, 1, 11,  42.6264601, -88.1615351,   248.0, 2025,  2,  8, 17, 30, 54,        0,        0,   0,   0,   1.9,   0.7,   1.7, 25, 28,  0,  0,  0,  0, 13,  0, 30,  0,  0,  0, 29, 29,  0,  0, 25,  0,  0,  0,  0, 20,  0,  0,  0,  0, 33,  0,  0, 33,  0,  0
6, 11115, 2,N0CALL,     0.00, 3,   boost,   46.09,  98670.00,  223.39,    1.02,    7.66,  5.0, 4.01, 4.01, 4.02, -54.50,  -1.43,   3.59, -18.85,  -0.06,  -2.01,  -0.65,   0.46,   0.29,   2.51, 4.03, 0.00, 0.00, 0.00, 0.00, 1, 1, 11,  42.6264601, -88.1615351,   248.0, 2025,  2,  8, 17, 30, 54,        0,        0,   0,   0,   1.9,   0.7,   1.7, 25, 28,  0,  0,  0,  0, 13,  0, 30,  0,  0,  0, 29, 29,  0,  0, 25,  0,  0,  0,  0, 20,  0,  0,  0,  0, 33,  0,  0, 33,  0,  0
6, 11115, 2,N0CALL,     0.00, 3,   boost,   46.09,  98670.00,  223.39,    1.02,    7.66,  5.0, 4.01, 4.01, 4.02, -54.50,  -1.43,   3.59, -18.85,  -0.06,  -2.01,  -0.65,   0.46,   0.29,   2.50, 4.03, 0.00, 0.00, 0.00, 0.00, 1, 1, 11,  42.6264601, -88.1615351,   248.0, 2025,  2,  8, 17, 30, 54,        0,        0,   0,   0,   1.9,   0.7,   1.7, 25, 28,  0,  0,  0,  0, 13,  0, 30,  0,  0,  0, 29, 29,  0,  0, 25,  0,  0,  0,  0, 20,  0,  0,  0,  0, 33,  0,  0, 33,  0,  0
6, 11115, 2,N0CALL,     0.00, 3,   boost,   46.09,  98670.00,  223.39,    1.02,    7.66,  5.0, 4.01, 4.01, 4.02, -54.50,  -1.43,   3.59, -18.85,  -0.06,  -2.01,  -0.65,   0.46,   0.29,   2.50, 4.03, 0.00, 0.00, 0.00, 0.00, 1, 1, 11,  42.6264601, -88.1615351,   248.0, 2025,  2,  8, 17, 30, 54,        0,        0,   0,   0,   1.9,   0.7,   1.7, 25, 28,  0,  0,  0,  0, 13,  0, 30,  0,  0,  0, 29, 29,  0,  0, 25,  0,  0,  0,  0, 20,  0,  0,  0,  0, 33,  0,  0, 33,  0,  0
6, 11115, 2,N0CALL,     0.00, 3,   boost,   46.09,  98670.00,  223.39,    1.02,    7.66,  5.0, 4.01, 4.01, 4.02, -54.50,  -1.43,   3.59, -18.85,  -0.06,  -2.01,  -0.65,   0.46,   0.29,   2.50, 4.03, 0.00, 0.00, 0.00, 0.00, 1, 1, 11,  42.6264601, -88.1615351,   248.0, 2025,  2,  8, 17, 30, 54,        0,        0,   0,   0,   1.9,   0.7,   1.7, 25, 28,  0,  0,  0,  0, 13,  0, 30,  0,  0,  0, 29, 29,  0,  0, 25,  0,  0,  0,  0, 20,  0,  0,  0,  0, 33,  0,  0, 33,  0,  0
6, 11115, 2,N0CALL,     0.00, 3,   boost,   46.09,  98670.00,  223.39,    1.02,    7.66,  5.0, 4.01, 4.01, 4.02, -54.50,  -1.43,   3.59, -18.85,  -0.06,  -2.01,  -0.65,   0.46,   0.29,   2.50, 4.03, 0.00, 0.00, 0.00, 0.00, 1, 1, 11,  42.6264601, -88.1615351,   248.0, 2025,  2,  8, 17, 30, 54,        0,        0,   0,   0,   1.9,   0.7,   1.7, 25, 28,  0,  0,  0,  0, 13,  0, 30,  0,  0,  0, 29, 29,  0,  0, 25,  0,  0,  0,  0, 20,  0,  0,  0,  0, 33,  0,  0, 33,  0,  0
6, 11115, 2,N0CALL,     0.00, 3,   boost,   46.09,  98670.00,  223.39,    1.02,    7.66,  5.0, 4.01, 4.01, 4.02, -54.50,  -1.43,   3.59, -18.85,  -0.06,  -2.01,  -0.65,   0.46,   0.29,   2.50, 4.03, 0.00, 0.00, 0.00, 0.00, 1, 1, 11,  42.6264601, -88.1615351,   248.0, 2025,  2,  8, 17, 30, 54,        0,        0,   0,   0,   1.9,   0.7,   1.7, 25, 28,  0,  0,  0,  0, 13,  0, 30,  0,  0,  0, 29, 29,  0,  0, 25,  0,  0,  0,  0, 20,  0,  0,  0,  0, 33,  0,  0, 33,  0,  0
6, 11115, 2,N0CALL,     0.00, 3,   boost,   46.09,  98670.00,  223.39,    1.02,    7.66,  5.0, 4.01, 4.01, 4.02, -54.50,  -1.43,   3.59, -18.85,  -0.06,  -2.01,  -0.65,   0.46,   0.29,   2.50, 4.03, 0.00, 0.00, 0.00, 0.00, 1, 1, 11,  42.6264601, -88.1615351,   248.0, 2025,  2,  8, 17, 30, 54,        0,        0,   0,   0,   1.9,   0.7,   1.7, 25, 28,  0,  0,  0,  0, 13,  0, 30,  0,  0,  0, 29, 29,  0,  0, 25,  0,  0,  0,  0, 20,  0,  0,  0,  0, 33,  0,  0, 33,  0,  0
6, 11115, 2,N0CALL,     0.00, 3,   boost,   46.09,  98670.00,  223.39,    1.02,    7.66,  5.0, 4.01, 4.01, 4.02, -54.50,  -1.43,   3.59, -18.85,  -0.06,  -2.01,  -0.65,   0.46,   0.29,   2.50, 4.03, 0.00, 0.00, 0.00, 0.00, 1, 1, 11,  42.6264601, -88.1615351,   248.0, 2025,  2,  8, 17, 30, 54,        0,        0,   0,   0,   1.9,   0.7,   1.7, 25, 28,  0,  0,  0,  0, 13,  0, 30,  0,  0,  0, 29, 29,  0,  0, 25,  0,  0,  0,  0, 20,  0,  0,  0,  0, 33,  0,  0, 33,  0,  0
6, 11115, 2,N0CALL,     0.00, 3,   boost,   46.09,  98670.00,  223.39,    1.02,    7.66,  5.0, 4.01, 4.01, 4.02, -54.50,  -1.43,   3.59, -18.85,  -0.06,  -2.01,  -0.65,   0.46,   0.29,   2.51, 4.03, 0.00, 0.00, 0.00, 0.00, 1, 1, 11,  42.6264601, -88.1615351,   248.0, 2025,  2,  8, 17, 30, 54,        0,        0,   0,   0,   1.9,   0.7,   1.7, 25, 28,  0,  0,  0,  0, 13,  0, 30,  0,  0,  0, 29, 29,  0,  0, 25,  0,  0,  0,  0, 20,  0,  0,  0,  0, 33,  0,  0, 33,  0,  0
6, 11115, 2,N0CALL,     0.00, 3,   boost,   46.09,  98670.00,  223.39,    1.02,    7.66,  5.0, 4.01, 4.01, 4.02, -54.50,  -1.43,   3.59, -18.85,  -0.06,  -2.01,  -0.65,   0.46,   0.29,   2.52, 4.03, 0.00, 0.00, 0.00, 0.00, 1, 1, 11,  42.6264601, -88.1615351,   248.0, 2025,  2,  8, 17, 30, 54,        0,        0,   0,   0,   1.9,   0.7,   1.7, 25, 28,  0,  0,  0,  0, 13,  0, 30,  0,  0,  0, 29, 29,  0,  0, 25,  0,  0,  0,  0, 20,  0,  0,  0,  0, 33,  0,  0, 33,  0,  0
6, 11115, 2,N0CALL,     0.00, 3,   boost,   46.09,  98670.00,  223.39,    1.02,    7.66,  5.0, 4.01, 4.01, 4.02, -54.50,  -1.43,   3.59, -18.85,  -0.06,  -2.01,  -0.65,   0.46,   0.29,   2.53, 4.03, 0.00, 0.00, 0.00, 0.00, 1, 1, 11,  42.6264601, -88.1615351,   248.0, 2025,  2,  8, 17, 30, 54,        0,        0,   0,   0,   1.9,   0.7,   1.7, 25, 28,  0,  0,  0,  0, 13,  0, 30,  0,  0,  0, 29, 29,  0,  0, 25,  0,  0,  0,  0, 20,  0,  0,  0,  0, 33,  0,  0, 33,  0,  0
6, 11115, 2,N0CALL,     0.00, 3,   boost,   46.09,  98670.00,  223.39,    1.02,    7.66,  5.0, 4.01, 4.01, 4.02, -54.50,  -1.43,   3.59, -18.85,  -0.06,  -2.01,  -0.65,   0.46,   0.29,   2.55, 4.03, 0.00, 0.00, 0.00, 0.00, 1, 1, 11,  42.6264601, -88.1615351,   248.0, 2025,  2,  8, 17, 30, 54,        0,        0,   0,   0,   1.9,   0.7,   1.7, 25, 28,  0,  0,  0,  0, 13,  0, 30,  0,  0,  0, 29, 29,  0,  0, 25,  0,  0,  0,  0, 20,  0,  0,  0,  0, 33,  0,  0, 33,  0,  0
6, 11115, 2,N0CALL,     0.00, 3,   boost,   46.09,  98670.00,  223.39,    1.02,    7.66,  5.0, 4.01, 4.01, 4.02, -54.50,  -1.43,   3.59, -18.85,  -0.06,  -2.01,  -0.65,   0.46,   0.29,   2.58, 4.03, 0.00, 0.00, 0.00, 0.00, 1, 1, 11,  42.6264601, -88.1615351,   248.0, 2025,  2,  8, 17, 30, 54,        0,        0,   0,   0,   1.9,   0.7,   1.7, 25, 28,  0,  0,  0,  0, 13,  0, 30,  0,  0,  0, 29, 29,  0,  0, 25,  0,  0,  0,  0, 20,  0,  0,  0,  0, 33,  0,  0, 33,  0,  0
6, 11115, 2,N0CALL,     0.00, 3,   boost,   46.09,  98670.00,  223.39,    1.02,    7.66,  5.0, 4.01, 4.01, 4.02, -54.50,  -1.43,   3.59, -18.85,  -0.06,  -2.01,  -0.65,   0.46,   0.29,   2.61, 4.03, 0.00, 0.00, 0.00, 0.00, 1, 1, 11,  42.6264601, -88.1615351,   248.0, 2025,  2,  8, 17, 30, 54,        0,        0,   0,   0,   1.9,   0.7,   1.7, 25, 28,  0,  0,  0,  0, 13,  0, 30,  0,  0,  0, 29, 29,  0,  0, 25,  0,  0,  0,  0, 20,  0,  0,  0,  0, 33,  0,  0, 33,  0,  0
6, 11115, 2,N0CALL,     0.00, 3,   boost,   46.09,  98670.00,  223.39,    1.02,    7.66,  5.0, 4.01, 4.01, 4.02, -54.50,  -1.43,   3.59, -18.85,  -0.06,  -2.01,  -0.65,   0.46,   0.29,   2.63, 4.03, 0.00, 0.00, 0.00, 0.00, 1, 1, 11,  42.6264601, -88.1615351,   248.0, 2025,  2,  8, 17, 30, 54,        0,        0,   0,   0,   1.9,   0.7,   1.7, 25, 28,  0,  0,  0,  0, 13,  0, 30,  0,  0,  0, 29, 29,  0,  0, 25,  0,  0,  0,  0, 20,  0,  0,  0,  0, 33,  0,  0, 33,  0,  0
6, 11115, 2,N0CALL,     0.00, 3,   boost,   46.09,  98670.00,  223.39,    1.02,    7.66,  5.0, 4.01, 4.01, 4.02, -54.50,  -1.43,   3.59, -18.85,  -0.06,  -2.01,  -0.65,   0.46,   0.29,   2.66, 4.03, 0.00, 0.00, 0.00, 0.00, 1, 1, 11,  42.6264601, -88.1615351,   248.0, 2025,  2,  8, 17, 30, 54,        0,        0,   0,   0,   1.9,   0.7,   1.7, 25, 28,  0,  0,  0,  0, 13,  0, 30,  0,  0,  0, 29, 29,  0,  0, 25,  0,  0,  0,  0, 20,  0,  0,  0,  0, 33,  0,  0, 33,  0,  0
6, 11115, 2,N0CALL,     0.00, 3,   boost,   46.09,  98670.00,  223.39,    1.02,    7.66,  5.0, 4.01, 4.01, 4.02, -54.50,  -1.43,   3.59, -18.85,  -0.06,  -2.01,  -0.65,   0.46,   0.29,   2.68, 4.03, 0.00, 0.00, 0.00, 0.00, 1, 1, 11,  42.6264601, -88.1615351,   248.0, 2025,  2,  8, 17, 30, 54,        0,        0,   0,   0,   1.9,   0.7,   1.7, 25, 28,  0,  0,  0,  0, 13,  0, 30,  0,  0,  0, 29, 29,  0,  0, 25,  0,  0,  0,  0, 20,  0,  0,  0,  0, 33,  0,  0, 33,  0,  0
6, 11115, 2,N0CALL,     0.00, 3,   boost,   46.09,  98670.00,  223.39,    1.02,    7.66,  5.0, 4.01, 4.01, 4.02, -54.50,  -1.43,   3.59, -18.85,  -0.06,  -2.01,  -0.65,   0.46,   0.29,   2.69, 4.03, 0.00, 0.00, 0.00, 0.00, 1, 1, 11,  42.6264601, -88.1615351,   248.0, 2025,  2,  8, 17, 30, 54,        0,        0,   0,   0,   1.9,   0.7,   1.7, 25, 28,  0,  0,  0,  0, 13,  0, 30,  0,  0,  0, 29, 29,  0,  0, 25,  0,  0,  0,  0, 20,  0,  0,  0,  0, 33,  0,  0, 33,  0,  0
6, 11115, 2,N0CALL,     0.00, 3,   boost,   46.09,  98670.00,  223.39,    1.02,    7.66,  5.0, 4.01, 4.01, 4.02, -54.50,  -1.43,   3.59, -18.85,  -0.06,  -2.01,  -0.65,   0.46,   0.29,   2.71, 4.03, 0.00, 0.00, 0.00, 0.00, 1, 1, 11,  42.6264601, -88.1615351,   248.0, 2025,  2,  8, 17, 30, 54,        0,        0,   0,   0,   1.9,   0.7,   1.7, 25, 28,  0,  0,  0,  0, 13,  0, 30,  0,  0,  0, 29, 29,  0,  0, 25,  0,  0,  0,  0, 20,  0,  0,  0,  0, 33,  0,  0, 33,  0,  0
6, 11115, 2,N0CALL,     0.00, 3,   boost,   46.09,  98670.00,  223.39,    1.02,    7.66,  5.0, 4.01, 4.01, 4.02, -54.50,  -1.43,   3.59, -18.85,  -0.06,  -2.01,  -0.65,   0.46,   0.29,   2.73, 4.03, 0.00, 0.00, 0.00, 0.00, 1, 1, 11,  42.6264601, -88.1615351,   248.0, 2025,  2,  8, 17, 30, 54,        0,        0,   0,   0,   1.9,   0.7,   1.7, 25, 28,  0,  0,  0,  0, 13,  0, 30,  0,  0,  0, 29, 29,  0,  0, 25,  0,  0,  0,  0, 20,  0,  0,  0,  0, 33,  0,  0, 33,  0,  0
6, 11115, 2,N0CALL,     0.00, 3,   boost,   46.09,  98670.00,  223.39,    1.02,    7.66,  5.0, 4.01, 4.01, 4.02, -54.50,  -1.43,   3.59, -18.85,  -0.06,  -2.01,  -0.65,   0.46,   0.29,   2.74, 4.03, 0.00, 0.00, 0.00, 0.00, 1, 1, 11,  42.6264601, -88.1615351,   248.0, 2025,  2,  8, 17, 30, 54,        0,        0,   0,   0,   1.9,   0.7,   1.7, 25, 28,  0,  0,  0,  0, 13,  0, 30,  0,  0,  0, 29, 29,  0,  0, 25,  0,  0,  0,  0, 20,  0,  0,  0,  0, 33,  0,  0, 33,  0,  0
6, 11115, 2,N0CALL,     0.00, 3,   boost,   46.09,  98670.00,  223.39,    1.02,    7.66,  5.0, 4.01, 4.01, 4.02, -54.50,  -1.43,   3.59, -18.85,  -0.06,  -2.01,  -0.65,   0.46,   0.29,   2.76, 4.03, 0.00, 0.00, 0.00, 0.00, 1, 1, 11,  42.6264601, -88.1615351,   248.0, 2025,  2,  8, 17, 30, 54,        0,        0,   0,   0,   1.9,   0.7,   1.7, 25, 28,  0,  0,  0,  0, 13,  0, 30,  0,  0,  0, 29, 29,  0,  0, 25,  0,  0,  0,  0, 20,  0,  0,  0,  0, 33,  0,  0, 33,  0,  0
6, 11115, 2,N0CALL,     0.00, 3,   boost,   46.09,  98670.00,  223.39,    1.02,    7.66,  5.0, 4.01, 4.01, 4.02, -54.50,  -1.43,   3.59, -18.85,  -0.06,  -2.01,  -0.65,   0.46,   0.29,   2.75, 4.03, 0.00, 0.00, 0.00, 0.00, 1, 1, 11,  42.6264601, -88.1615351,   248.0, 2025,  2,  8, 17, 30, 54,        0,        0,   0,   0,   1.9,   0.7,   1.7, 25, 28,  0,  0,  0,  0, 13,  0, 30,  0,  0,  0, 29, 29,  0,  0, 25,  0,  0,  0,  0, 20,  0,  0,  0,  0, 33,  0,  0, 33,  0,  0
6, 11115, 2,N0CALL,     0.00, 3,   boost,   46.09,  98670.00,  223.39,    1.02,    7.66,  5.0, 4.01, 4.01, 4.02, -54.50,  -1.43,   3.59, -18.85,  -0.06,  -2.01,  -0.65,   0.46,   0.29,   2.75, 4.03, 0.00, 0.00, 0.00, 0.00, 1, 1, 11,  42.6264601, -88.1615351,   248.0, 2025,  2,  8, 17, 30, 54,        0,        0,   0,   0,   1.9,   0.7,   1.7, 25, 28,  0,  0,  0,  0, 13,  0, 30,  0,  0,  0, 29, 29,  0,  0, 25,  0,  0,  0,  0, 20,  0,  0,  0,  0, 33,  0,  0, 33,  0,  0
6, 11115, 2,N0CALL,     0.00, 3,   boost,   46.09,  98670.00,  223.39,    1.02,    7.66,  5.0, 4.01, 4.01, 4.02, -54.50,  -1.43,   3.59, -18.85,  -0.06,  -2.01,  -0.65,   0.46,   0.29,   2.72, 4.03, 0.00, 0.00, 0.00, 0.00, 1, 1, 11,  42.6264601, -88.1615351,   248.0, 2025,  2,  8, 17, 30, 54,        0,        0,   0,   0,   1.9,   0.7,   1.7, 25, 28,  0,  0,  0,  0, 13,  0, 30,  0,  0,  0, 29, 29,  0,  0, 25,  0,  0,  0,  0, 20,  0,  0,  0,  0, 33,  0,  0, 33,  0,  0
6, 11115, 2,N0CALL,     0.00, 3,   boost,   46.09,  98670.00,  223.39,    1.02,    7.66,  5.0, 4.01, 4.01, 4.02, -54.50,  -1.43,   3.59, -18.85,  -0.06,  -2.01,  -0.65,   0.46,   0.29,   2.71, 4.03, 0.00, 0.00, 0.00, 0.00, 1, 1, 11,  42.6264601, -88.1615351,   248.0, 2025,  2,  8, 17, 30, 54,        0,        0,   0,   0,   1.9,   0.7,   1.7, 25, 28,  0,  0,  0,  0, 13,  0, 30,  0,  0,  0, 29, 29,  0,  0, 25,  0,  0,  0,  0, 20,  0,  0,  0,  0, 33,  0,  0, 33,  0,  0
6, 11115, 2,N0CALL,     0.01, 3,   boost,   45.60,  98662.00,  224.07,    1.70,    8.11,  5.0, 4.01, 4.01, 4.02, -54.58,  -0.77,   1.08, -25.74,  -2.56,  -1.22,  -0.65,   0.46,   0.29,   2.68, 4.03, 0.00, 0.00, 0.00, 0.00, 1, 1, 11,  42.6264601, -88.1615351,   248.0, 2025,  2,  8, 17, 30, 54,        0,        0,   0,   0,   1.9,   0.7,   1.7, 25, 28,  0,  0,  0,  0, 13,  0, 30,  0,  0,  0, 29, 29,  0,  0, 25,  0,  0,  0,  0, 20,  0,  0,  0,  0, 33,  0,  0, 33,  0,  0
6, 11115, 2,N0CALL,     0.01, 3,   boost,   45.60,  98662.00,  224.07,    1.70,    8.11,  5.0, 4.01, 4.01, 4.02, -54.58,  -0.77,   1.08, -25.74,  -2.56,  -1.22,  -0.65,   0.46,   0.29,   2.68, 4.03, 0.00, 0.00, 0.00, 0.00, 1, 1, 11,  42.6264601, -88.1615351,   248.0, 2025,  2,  8, 17, 30, 54,        0,        0,   0,   0,   1.9,   0.7,   1.7, 25, 28,  0,  0,  0,  0, 13,  0, 30,  0,  0,  0, 29, 29,  0,  0, 25,  0,  0,  0,  0, 20,  0,  0,  0,  0, 33,  0,  0, 33,  0,  0
6, 11115, 2,N0CALL,     0.02, 3,   boost,   46.58,  98662.00,  224.07,    1.70,    8.58,  5.0, 3.99, 4.00, 4.00, -55.44,  -1.65,  -0.65, -28.43,  -2.93,  -1.22,  -0.65,   0.46,   0.29,   2.66, 4.03, 0.00, 0.00, 0.00, 0.00, 1, 1, 11,  42.6264601, -88.1615351,   248.0, 2025,  2,  8, 17, 30, 54,        0,        0,   0,   0,   1.9,   0.7,   1.7, 25, 28,  0,  0,  0,  0, 13,  0, 30,  0,  0,  0, 29, 29,  0,  0, 25,  0,  0,  0,  0, 20,  0,  0,  0,  0, 33,  0,  0, 33,  0,  0
6, 11115, 2,N0CALL,     0.02, 3,   boost,   46.58,  98662.00,  224.07,    1.70,    8.58,  5.0, 3.99, 4.00, 4.00, -55.44,  -1.65,  -0.65, -28.43,  -2.93,  -1.22,  -0.65,   0.46,   0.29,   2.66, 4.03, 0.00, 0.00, 0.00, 0.00, 1, 1, 11,  42.6264601, -88.1615351,   248.0, 2025,  2,  8, 17, 30, 54,        0,        0,   0,   0,   1.9,   0.7,   1.7, 25, 28,  0,  0,  0,  0, 13,  0, 30,  0,  0,  0, 29, 29,  0,  0, 25,  0,  0,  0,  0, 20,  0,  0,  0,  0, 33,  0,  0, 33,  0,  0
6, 11115, 2,N0CALL,     0.03, 3,   boost,   47.56,  98672.00,  223.22,    0.85,    9.05,  5.0, 3.99, 4.00, 4.00, -55.60,  -4.18,  -0.22, -25.01,  -0.79,  -1.46,  -0.65,   0.46,   0.29,   2.64, 4.03, 0.00, 0.00, 0.00, 0.00, 1, 1, 11,  42.6264601, -88.1615351,   248.0, 2025,  2,  8, 17, 30, 54,        0,        0,   0,   0,   1.9,   0.7,   1.7, 25, 28,  0,  0,  0,  0, 13,  0, 30,  0,  0,  0, 29, 29,  0,  0, 25,  0,  0,  0,  0, 20,  0,  0,  0,  0, 33,  0,  0, 33,  0,  0
6, 11115, 2,N0CALL,     0.04, 3,   boost,   50.50,  98672.00,  223.22,    0.85,    9.53,  5.0, 3.99, 4.00, 4.00, -55.58,  -1.32,   1.73, -26.17,  -2.07,  -1.03,  -0.65,   0.46,   0.29,   2.63, 4.03, 0.00, 0.00, 0.00, 0.00, 1, 1, 11,  42.6264601, -88.1615351,   248.0, 2025,  2,  8, 17, 30, 54,        0,        0,   0,   0,   1.9,   0.7,   1.7, 25, 28,  0,  0,  0,  0, 13,  0, 30,  0,  0,  0, 29, 29,  0,  0, 25,  0,  0,  0,  0, 20,  0,  0,  0,  0, 33,  0,  0, 33,  0,  0
6, 11115, 2,N0CALL,     0.05, 3,   boost,   47.56,  98665.00,  223.82,    1.45,   10.01,  5.0, 3.99, 4.00, 4.00, -57.28,  -0.84,  -0.66, -33.86,  -0.61,  -1.03,  -0.65,   0.46,   0.29,   2.61, 4.03, 0.00, 0.00, 0.00, 0.00, 1, 1, 11,  42.6264601, -88.1615351,   248.0, 2025,  2,  8, 17, 30, 54,        0,        0,   0,   0,   1.9,   0.7,   1.7, 25, 28,  0,  0,  0,  0, 13,  0, 30,  0,  0,  0, 29, 29,  0,  0, 25,  0,  0,  0,  0, 20,  0,  0,  0,  0, 33,  0,  0, 33,  0,  0
6, 11115, 2,N0CALL,     0.06, 3,   boost,   48.05,  98665.00,  223.82,    1.45,   10.50,  5.0, 3.99, 4.00, 4.00, -57.58,  -1.19,   0.38, -30.01,  -1.03,  -0.97,  -0.65,   0.46,   0.29,   2.60, 4.03, 0.00, 0.00, 0.00, 0.00, 1, 1, 11,  42.6264601, -88.1615351,   248.0, 2025,  2,  8, 17, 30, 54,        0,        0,   0,   0,   1.9,   0.7,   1.7, 25, 28,  0,  0,  0,  0, 13,  0, 30,  0,  0,  0, 29, 29,  0,  0, 25,  0,  0,  0,  0, 20,  0,  0,  0,  0, 33,  0,  0, 33,  0,  0
6, 11115, 2,N0CALL,     0.07, 3,   boost,   49.52,  98663.00,  223.99,    1.62,   10.98,  5.0, 3.99, 4.00, 4.00, -57.65,  -3.25,   2.14, -28.12,  -0.85,   1.16,  -0.65,   0.46,   0.29,   2.61, 4.03, 0.00, 0.00, 0.00, 0.00, 1, 1, 11,  42.6264601, -88.1615351,   248.0, 2025,  2,  8, 17, 30, 54,        0,        0,   0,   0,   1.9,   0.7,   1.7, 25, 28,  0,  0,  0,  0, 13,  0, 30,  0,  0,  0, 29, 29,  0,  0, 25,  0,  0,  0,  0, 20,  0,  0,  0,  0, 33,  0,  0, 33,  0,  0
6, 11115, 2,N0CALL,     0.08, 3,   boost,   47.56,  98663.00,  223.99,    1.62,   11.47,  5.0, 3.99, 4.00, 4.00, -58.25,  -2.80,   2.11, -27.39,  -0.67,   0.74,  -0.65,   0.45,   0.29,   2.61, 4.03, 0.00, 0.00, 0.00, 0.00, 1, 1, 11,  42.6264601, -88.1615351,   248.0, 2025,  2,  8, 17, 30, 54,        0,        0,   0,   0,   1.9,   0.7,   1.7, 25, 28,  0,  0,  0,  0, 13,  0, 30,  0,  0,  0, 29, 29,  0,  0, 25,  0,  0,  0,  0, 20,  0,  0,  0,  0, 33,  0,  0, 33,  0,  0
6, 11115, 2,N0CALL,     0.08, 3,   boost,   47.56,  98663.00,  223.99,    1.62,   11.47,  5.0, 3.99, 4.00, 4.00, -58.25,  -2.80,   2.11, -27.39,  -0.67,   0.74,  -0.65,   0.45,   0.29,   2.61, 4.03, 0.00, 0.00, 0.00, 0.00, 1, 1, 11,  42.6264601, -88.1615351,   248.0, 2025,  2,  8, 17, 30, 54,        0,        0,   0,   0,   1.9,   0.7,   1.7, 25, 28,  0,  0,  0,  0, 13,  0, 30,  0,  0,  0, 29, 29,  0,  0, 25,  0,  0,  0,  0, 20,  0,  0,  0,  0, 33,  0,  0, 33,  0,  0
6, 11115, 2,N0CALL,     0.08, 3,   boost,   47.56,  98663.00,  223.99,    1.62,   11.47,  5.0, 3.99, 4.00, 4.00, -58.25,  -2.80,   2.11, -27.39,  -0.67,   0.74,  -0.65,   0.45,   0.29,   2.61, 4.03, 0.00, 0.00, 0.00, 0.00, 1, 1, 11,  42.6264601, -88.1615351,   248.0, 2025,  2,  8, 17, 30, 54,        0,        0,   0,   0,   1.9,   0.7,   1.7, 25, 28,  0,  0,  0,  0, 13,  0, 30,  0,  0,  0, 29, 29,  0,  0, 25,  0,  0,  0,  0, 20,  0,  0,  0,  0, 33,  0,  0, 33,  0,  0
6, 11115, 2,N0CALL,     0.09, 3,   boost,   50.50,  98659.00,  224.33,    1.96,   11.95,  5.0, 3.99, 4.00, 4.00, -58.69,  -4.96,  -0.10, -31.66,  -1.46,  -0.18,  -0.65,   0.45,   0.29,   2.60, 4.03, 0.00, 0.00, 0.00, 0.00, 1, 1, 11,  42.6264657, -88.1615442,   247.0, 2025,  2,  8, 17, 30, 55,        1,        1, 310, -46,   1.9,   0.7,   1.7, 26, 28,  0,  0,  0,  0, 13,  0, 30,  0,  0,  0, 29, 28,  0,  0, 26,  0,  0,  0,  0, 20,  0,  0,  0,  0, 34,  0,  0, 28,  0,  0
6, 11115, 2,N0CALL,     0.10, 3,   boost,   45.11,  98659.00,  224.33,    1.96,   12.44,  5.0, 3.99, 4.00, 4.00, -58.60,   3.20,   3.41, -16.83,  -0.24,   0.74,  -0.65,   0.45,   0.29,   2.61, 4.03, 0.00, 0.00, 0.00, 0.00, 1, 1, 11,  42.6264657, -88.1615442,   247.0, 2025,  2,  8, 17, 30, 55,        1,        1, 310, -46,   1.9,   0.7,   1.7, 26, 28,  0,  0,  0,  0, 13,  0, 30,  0,  0,  0, 29, 28,  0,  0, 26,  0,  0,  0,  0, 20,  0,  0,  0,  0, 34,  0,  0, 28,  0,  0
6, 11115, 2,N0CALL,     0.11, 3,   boost,   53.45,  98661.00,  224.16,    1.79,   12.94,  5.0, 3.99, 4.00, 4.00, -59.52,   7.58,   4.78, -20.25,  -2.38,  -1.52,  -0.65,   0.45,   0.29,   2.59, 4.03, 0.00, 0.00, 0.00, 0.00, 1, 1, 11,  42.6264657, -88.1615442,   247.0, 2025,  2,  8, 17, 30, 55,        1,        1, 310, -46,   1.9,   0.7,   1.7, 26, 28,  0,  0,  0,  0, 13,  0, 30,  0,  0,  0, 29, 28,  0,  0, 26,  0,  0,  0,  0, 20,  0,  0,  0,  0, 34,  0,  0, 28,  0,  0
6, 11115, 2,N0CALL,     0.12, 3,   boost,   49.52,  98661.00,  224.16,    1.79,   13.44,  5.0, 3.99, 4.00, 4.00, -58.38,  -7.57,  -1.68,   3.68,   1.16,  -1.89,  -0.65,   0.45,   0.29,   2.57, 4.03, 0.00, 0.00, 0.00, 0.00, 1, 1, 11,  42.6264657, -88.1615442,   247.0, 2025,  2,  8, 17, 30, 55,        1,        1, 310, -46,   1.9,   0.7,   1.7, 26, 28,  0,  0,  0,  0, 13,  0, 30,  0,  0,  0, 29, 28,  0,  0, 26,  0,  0,  0,  0, 20,  0,  0,  0,  0, 34,  0,  0, 28,  0,  0
6, 11115, 2,N0CALL,     0.13, 3,   boost,   50.01,  98634.00,  226.45,    4.08,   13.94,  5.0, 3.99, 4.00, 4.00, -60.35,   0.63,   4.77,   7.03,   0.55,  -0.49,  -0.65,   0.45,   0.29,   2.57, 4.03, 0.00, 0.00, 0.00, 0.00, 1, 1, 11,  42.6264657, -88.1615442,   247.0, 2025,  2,  8, 17, 30, 55,        1,        1, 310, -46,   1.9,   0.7,   1.7, 26, 28,  0,  0,  0,  0, 13,  0, 30,  0,  0,  0, 29, 28,  0,  0, 26,  0,  0,  0,  0, 20,  0,  0,  0,  0, 34,  0,  0, 28,  0,  0
6, 11115, 2,N0CALL,     0.14, 3,   boost,   51.48,  98634.00,  226.45,    4.08,   14.46,  5.0, 3.99, 4.00, 4.00, -59.03, -21.00,  -2.12,  18.63,   1.53,   3.12,  -0.65,   0.45,   0.29,   2.61, 4.03, 0.00, 0.00, 0.00, 0.00, 1, 1, 11,  42.6264657, -88.1615442,   247.0, 2025,  2,  8, 17, 30, 55,        1,        1, 310, -46,   1.9,   0.7,   1.7, 26, 28,  0,  0,  0,  0, 13,  0, 30,  0,  0,  0, 29, 28,  0,  0, 26,  0,  0,  0,  0, 20,  0,  0,  0,  0, 34,  0,  0, 28,  0,  0
6, 11115, 2,N0CALL,     0.15, 3,   boost,   52.96,  98645.00,  225.52,    3.15,   14.97,  5.0, 3.99, 4.00, 4.00, -61.28,   0.50,  -8.53,  35.60,   2.44,  -5.43,  -0.65,   0.46,   0.29,   2.57, 4.03, 0.00, 0.00, 0.00, 0.00, 1, 1, 11,  42.6264657, -88.1615442,   247.0, 2025,  2,  8, 17, 30, 55,        1,        1, 310, -46,   1.9,   0.7,   1.7, 26, 28,  0,  0,  0,  0, 13,  0, 30,  0,  0,  0, 29, 28,  0,  0, 26,  0,  0,  0,  0, 20,  0,  0,  0,  0, 34,  0,  0, 28,  0,  0
6, 11115, 2,N0CALL,     0.16, 3,   boost,   51.48,  98645.00,  225.52,    3.15,   15.50,  5.0, 3.99, 4.00, 4.00, -62.53,   4.77,   4.73,  27.05,   2.93,  -0.61,  -0.65,   0.46,   0.29,   2.58, 4.03, 0.00, 0.00, 0.00, 0.00, 1, 1, 11,  42.6264657, -88.1615442,   247.0, 2025,  2,  8, 17, 30, 55,        1,        1, 310, -46,   1.9,   0.7,   1.7, 26, 28,  0,  0,  0,  0, 13,  0, 30,  0,  0,  0, 29, 28,  0,  0, 26,  0,  0,  0,  0, 20,  0,  0,  0,  0, 34,  0,  0, 28,  0,  0
6, 11115, 2,N0CALL,     0.17, 3,   boost,   54.92,  98637.00,  226.20,    3.83,   16.03,  5.0, 3.99, 4.00, 4.00, -62.60,   5.97,   2.77,  36.21,   0.98,  -2.44,  -0.65,   0.46,   0.29,   2.56, 4.03, 0.00, 0.00, 0.00, 0.00, 1, 1, 11,  42.6264657, -88.1615442,   247.0, 2025,  2,  8, 17, 30, 55,        1,        1, 310, -46,   1.9,   0.7,   1.7, 26, 28,  0,  0,  0,  0, 13,  0, 30,  0,  0,  0, 29, 28,  0,  0, 26,  0,  0,  0,  0, 20,  0,  0,  0,  0, 34,  0,  0, 28,  0,  0
6, 11115, 2,N0CALL,     0.18, 3,   boost,   54.43,  98637.00,  226.20,    3.83,   16.57,  5.0, 3.99, 4.00, 4.00, -63.34,  -3.78,   0.55,  36.70,   1.41,  -2.80,  -0.65,   0.46,   0.29,   2.54, 4.03, 0.00, 0.00, 0.00, 0.00, 1, 1, 11,  42.6264657, -88.1615442,   247.0, 2025,  2,  8, 17, 30, 55,        1,        1, 310, -46,   1.9,   0.7,   1.7, 26, 28,  0,  0,  0,  0, 13,  0, 30,  0,  0,  0, 29, 28,  0,  0, 26,  0,  0,  0,  0, 20,  0,  0,  0,  0, 34,  0,  0, 28,  0,  0
6, 11115, 2,N0CALL,     0.19, 3,   boost,   54.43,  98644.00,  225.60,    3.23,   17.11,  5.0, 3.99, 4.00, 4.00, -63.91,  -2.62,  -0.06,  30.29,   1.59,   0.25,  -0.65,   0.46,   0.29,   2.55, 4.03, 0.00, 0.00, 0.00, 0.00, 1, 1, 11,  42.6264657, -88.1615442,   247.0, 2025,  2,  8, 17, 30, 55,        1,        1, 310, -46,   1.9,   0.7,   1.7, 26, 28,  0,  0,  0,  0, 13,  0, 30,  0,  0,  0, 29, 28,  0,  0, 26,  0,  0,  0,  0, 20,  0,  0,  0,  0, 34,  0,  0, 28,  0,  0
6, 11115, 2,N0CALL,     0.20, 3,   boost,   54.43,  98644.00,  225.60,    3.23,   17.66,  5.0, 3.99, 4.00, 4.00, -63.80,  -2.77,   2.66,  29.74,   4.15,  -2.56,  -0.65,   0.46,   0.29,   2.55, 4.03, 0.00, 0.00, 0.00, 0.00, 1, 1, 11,  42.6264657, -88.1615442,   247.0, 2025,  2,  8, 17, 30, 55,        1,        1, 310, -46,   1.9,   0.7,   1.7, 26, 28,  0,  0,  0,  0, 13,  0, 30,  0,  0,  0, 29, 28,  0,  0, 26,  0,  0,  0,  0, 20,  0,  0,  0,  0, 34,  0,  0, 28,  0,  0
6, 11115, 2,N0CALL,     0.21, 3,   boost,   56.88,  98627.00,  227.05,    4.68,   18.21,  5.0, 3.99, 4.00, 4.00, -64.47,  -3.87,   2.74,  30.84,   3.73,   0.19,  -0.65,   0.46,   0.29,   2.57, 4.03, 0.00, 0.00, 0.00, 0.00, 1, 1, 11,  42.6264657, -88.1615442,   247.0, 2025,  2,  8, 17, 30, 55,        1,        1, 310, -46,   1.9,   0.7,   1.7, 26, 28,  0,  0,  0,  0, 13,  0, 30,  0,  0,  0, 29, 28,  0,  0, 26,  0,  0,  0,  0, 20,  0,  0,  0,  0, 34,  0,  0, 28,  0,  0
6, 11115, 2,N0CALL,     0.22, 3,   boost,   55.90,  98627.00,  227.05,    4.68,   18.77,  5.0, 3.99, 4.00, 4.00, -65.16,  -0.09,   2.00,  31.26,   4.70,  -4.21,  -0.65,   0.46,   0.29,   2.55, 4.03, 0.00, 0.00, 0.00, 0.00, 1, 1, 11,  42.6264657, -88.1615442,   247.0, 2025,  2,  8, 17, 30, 55,        1,        1, 310, -46,   1.9,   0.7,   1.7, 26, 28,  0,  0,  0,  0, 13,  0, 30,  0,  0,  0, 29, 28,  0,  0, 26,  0,  0,  0,  0, 20,  0,  0,  0,  0, 34,  0,  0, 28,  0,  0
6, 11115, 2,N0CALL,     0.23, 3,   boost,   56.39,  98620.00,  227.64,    5.27,   19.33,  5.0, 3.99, 4.00, 4.00, -65.29,   0.79,   0.50,  31.02,   3.73,   0.06,  -0.65,   0.46,   0.29,   2.57, 4.03, 0.00, 0.00, 0.00, 0.00, 1, 1, 11,  42.6264657, -88.1615442,   247.0, 2025,  2,  8, 17, 30, 55,        1,        1, 310, -46,   1.9,   0.7,   1.7, 26, 28,  0,  0,  0,  0, 13,  0, 30,  0,  0,  0, 29, 28,  0,  0, 26,  0,  0,  0,  0, 20,  0,  0,  0,  0, 34,  0,  0, 28,  0,  0
6, 11115, 2,N0CALL,     0.24, 3,   boost,   55.90,  98620.00,  227.64,    5.27,   19.89,  5.0, 3.99, 4.00, 4.00, -65.62,   1.77,   0.02,  29.74,   3.79,  -1.71,  -0.65,   0.46,   0.29,   2.57, 4.03, 0.00, 0.00, 0.00, 0.00, 1, 1, 11,  42.6264657, -88.1615442,   247.0, 2025,  2,  8, 17, 30, 55,        1,        1, 310, -46,   1.9,   0.7,   1.7, 26, 28,  0,  0,  0,  0, 13,  0, 30,  0,  0,  0, 29, 28,  0,  0, 26,  0,  0,  0,  0, 20,  0,  0,  0,  0, 34,  0,  0, 28,  0,  0
6, 11115, 2,N0CALL,     0.25, 3,   boost,   56.39,  98617.00,  227.90,    5.53,   20.46,  5.0, 3.99, 4.00, 4.00, -65.60,  -1.56,   0.60,  28.95,   4.64,  -1.77,  -0.65,   0.46,   0.29,   2.58, 4.03, 0.00, 0.00, 0.00, 0.00, 1, 1, 11,  42.6264657, -88.1615442,   247.0, 2025,  2,  8, 17, 30, 55,        1,        1, 310, -46,   1.9,   0.7,   1.7, 26, 28,  0,  0,  0,  0, 13,  0, 30,  0,  0,  0, 29, 28,  0,  0, 26,  0,  0,  0,  0, 20,  0,  0,  0,  0, 34,  0,  0, 28,  0,  0
6, 11115, 2,N0CALL,     0.26, 3,   boost,   56.88,  98617.00,  227.90,    5.53,   21.02,  5.0, 3.99, 4.00, 4.00, -65.91,  -3.23,   0.54,  27.30,   4.95,  -0.42,  -0.64,   0.47,   0.29,   2.60, 4.03, 0.00, 0.00, 0.00, 0.00, 1, 1, 11,  42.6264657, -88.1615442,   247.0, 2025,  2,  8, 17, 30, 55,        1,        1, 310, -46,   1.9,   0.7,   1.7, 26, 28,  0,  0,  0,  0, 13,  0, 30,  0,  0,  0, 29, 28,  0,  0, 26,  0,  0,  0,  0, 20,  0,  0,  0,  0, 34,  0,  0, 28,  0,  0
6, 11115, 2,N0CALL,     0.27, 3,   boost,   56.88,  98620.00,  227.64,    5.27,   21.60,  5.0, 3.99, 4.00, 4.00, -66.25,  -2.25,   1.01,  25.83,   5.56,  -1.52,  -0.65,   0.47,   0.29,   2.62, 4.03, 0.00, 0.00, 0.00, 0.00, 1, 1, 11,  42.6264657, -88.1615442,   247.0, 2025,  2,  8, 17, 30, 55,        1,        1, 310, -46,   1.9,   0.7,   1.7, 26, 28,  0,  0,  0,  0, 13,  0, 30,  0,  0,  0, 29, 28,  0,  0, 26,  0,  0,  0,  0, 20,  0,  0,  0,  0, 34,  0,  0, 28,  0,  0
6, 11115, 2,N0CALL,     0.28, 3,   boost,   58.35,  98620.00,  227.64,    5.27,   22.17,  5.0, 3.99, 4.00, 4.00, -66.48,  -1.31,   1.45,  23.94,   6.96,  -2.07,  -0.65,   0.47,   0.29,   2.64, 4.03, 0.00, 0.00, 0.00, 0.00, 1, 1, 11,  42.6264657, -88.1615442,   247.0, 2025,  2,  8, 17, 30, 55,        1,        1, 310, -46,   1.9,   0.7,   1.7, 26, 28,  0,  0,  0,  0, 13,  0, 30,  0,  0,  0, 29, 28,  0,  0, 26,  0,  0,  0,  0, 20,  0,  0,  0,  0, 34,  0,  0, 28,  0,  0
6, 11115, 2,N0CALL,     0.29, 3,   boost,   58.84,  98618.00,  227.81,    5.44,   22.75,  5.0, 3.99, 4.00, 4.00, -66.74,   0.73,   1.50,  22.29,   7.27,  -1.52,  -0.64,   0.47,   0.29,   2.67, 4.03, 0.00, 0.00, 0.00, 0.00, 1, 1, 11,  42.6264657, -88.1615442,   247.0, 2025,  2,  8, 17, 30, 55,        1,        1, 310, -46,   1.9,   0.7,   1.7, 26, 28,  0,  0,  0,  0, 13,  0, 30,  0,  0,  0, 29, 28,  0,  0, 26,  0,  0,  0,  0, 20,  0,  0,  0,  0, 34,  0,  0, 28,  0,  0
6, 11115, 2,N0CALL,     0.30, 3,   boost,   58.35,  98618.00,  227.81,    5.44,   23.33,  5.0, 3.99, 4.00, 4.00, -67.00,   0.70,   1.20,  19.55,   7.57,  -1.83,  -0.64,   0.47,   0.29,   2.70, 4.03, 0.00, 0.00, 0.00, 0.00, 1, 1, 11,  42.6264657, -88.1615442,   247.0, 2025,  2,  8, 17, 30, 55,        1,        1, 310, -46,   1.9,   0.7,   1.7, 26, 28,  0,  0,  0,  0, 13,  0, 30,  0,  0,  0, 29, 28,  0,  0, 26,  0,  0,  0,  0, 20,  0,  0,  0,  0, 34,  0,  0, 28,  0,  0
6, 11115, 2,N0CALL,     0.31, 3,   boost,   58.35,  98613.00,  228.24,    5.87,   23.92,  5.0, 3.99, 4.00, 4.00, -67.06,  -0.98,   1.32,  18.39,   7.82,  -1.64,  -0.64,   0.47,   0.29,   2.73, 4.03, 0.00, 0.00, 0.00, 0.00, 1, 1, 11,  42.6264657, -88.1615442,   247.0, 2025,  2,  8, 17, 30, 55,        1,        1, 310, -46,   1.9,   0.7,   1.7, 26, 28,  0,  0,  0,  0, 13,  0, 30,  0,  0,  0, 29, 28,  0,  0, 26,  0,  0,  0,  0, 20,  0,  0,  0,  0, 34,  0,  0, 28,  0,  0
6, 11115, 2,N0CALL,     0.32, 3,   boost,   58.84,  98613.00,  228.24,    5.87,   24.50,  5.0, 3.99, 4.00, 4.00, -67.21,  -2.11,   1.16,  17.65,   8.55,  -1.64,  -0.65,   0.47,   0.29,   2.77, 4.03, 0.00, 0.00, 0.00, 0.00, 1, 1, 11,  42.6264657, -88.1615442,   247.0, 2025,  2,  8, 17, 30, 55,        1,        1, 310, -46,   1.9,   0.7,   1.7, 26, 28,  0,  0,  0,  0, 13,  0, 30,  0,  0,  0, 29, 28,  0,  0, 26,  0,  0,  0,  0, 20,  0,  0,  0,  0, 34,  0,  0, 28,  0,  0
6, 11115, 2,N0CALL,     0.33, 3,   boost,   59.33,  98603.00,  229.09,    6.72,   25.08,  5.0, 3.99, 4.00, 4.00, -67.40,  -1.37,   1.02,  17.17,   9.10,  -1.71,  -0.65,   0.47,   0.29,   2.82, 4.03, 0.00, 0.00, 0.00, 0.00, 1, 1, 11,  42.6264657, -88.1615442,   247.0, 2025,  2,  8, 17, 30, 55,        1,        1, 310, -46,   1.9,   0.7,   1.7, 26, 28,  0,  0,  0,  0, 13,  0, 30,  0,  0,  0, 29, 28,  0,  0, 26,  0,  0,  0,  0, 20,  0,  0,  0,  0, 34,  0,  0, 28,  0,  0
6, 11115, 2,N0CALL,     0.34, 3,   boost,   57.37,  98603.00,  229.09,    6.72,   25.66,  5.0, 4.00, 4.00, 4.00, -67.78,  -0.29,   1.19,  15.58,  10.50,  -1.77,  -0.64,   0.47,   0.29,   2.88, 4.00, 0.00, 0.00, 0.00, 0.00, 1, 1, 11,  42.6264657, -88.1615442,   247.0, 2025,  2,  8, 17, 30, 55,        1,        1, 310, -46,   1.9,   0.7,   1.7, 26, 28,  0,  0,  0,  0, 13,  0, 30,  0,  0,  0, 29, 28,  0,  0, 26,  0,  0,  0,  0, 20,  0,  0,  0,  0, 34,  0,  0, 28,  0,  0
6, 11115, 2,N0CALL,     0.34, 3,   boost,   57.37,  98603.00,  229.09,    6.72,   25.66,  5.0, 4.00, 4.00, 4.00, -67.78,  -0.29,   1.19,  15.58,  10.50,  -1.77,  -0.64,   0.47,   0.29,   2.88, 4.00, 0.00, 0.00, 0.00, 0.00, 1, 1, 11,  42.6264657, -88.1615442,   247.0, 2025,  2,  8, 17, 30, 55,        1,        1, 310, -46,   1.9,   0.7,   1.7, 26, 28,  0,  0,  0,  0, 13,  0, 30,  0,  0,  0, 29, 28,  0,  0, 26,  0,  0,  0,  0, 20,  0,  0,  0,  0, 34,  0,  0, 28,  0,  0
6, 11115, 2,N0CALL,     0.35, 3,   boost,   57.37,  98596.00,  229.69,    7.32,   26.24,  5.0, 4.00, 4.00, 4.00, -67.74,  -0.52,   1.18,  14.42,  10.81,  -1.77,  -0.64,   0.47,   0.29,   2.94, 4.00, 0.00, 0.00, 0.00, 0.00, 1, 1, 11,  42.6264657, -88.1615442,   247.0, 2025,  2,  8, 17, 30, 55,        1,        1, 310, -46,   1.9,   0.7,   1.7, 26, 28,  0,  0,  0,  0, 13,  0, 30,  0,  0,  0, 29, 28,  0,  0, 26,  0,  0,  0,  0, 20,  0,  0,  0,  0, 34,  0,  0, 28,  0,  0
6, 11115, 2,N0CALL,     0.36, 3,   boost,   57.37,  98596.00,  229.69,    7.32,   26.82,  5.0, 4.00, 4.00, 4.00, -67.71,  -1.19,   1.01,  13.20,  11.36,  -1.64,  -0.64,   0.47,   0.29,   3.00, 4.00, 0.00, 0.00, 0.00, 0.00, 1, 1, 11,  42.6264657, -88.1615442,   247.0, 2025,  2,  8, 17, 30, 55,        1,        1, 310, -46,   1.9,   0.7,   1.7, 26, 28,  0,  0,  0,  0, 13,  0, 30,  0,  0,  0, 29, 28,  0,  0, 26,  0,  0,  0,  0, 20,  0,  0,  0,  0, 34,  0,  0, 28,  0,  0
6, 11115, 2,N0CALL,     0.37, 3,   boost,   57.37,  98591.00,  230.11,    7.74,   27.40,  5.0, 4.00, 4.00, 4.00, -67.83,  -1.22,   0.92,  12.28,  11.91,  -1.89,  -0.64,   0.47,   0.29,   3.08, 4.00, 0.00, 0.00, 0.00, 0.00, 1, 1, 11,  42.6264657, -88.1615442,   247.0, 2025,  2,  8, 17, 30, 55,        1,        1, 310, -46,   1.9,   0.7,   1.7, 26, 28,  0,  0,  0,  0, 13,  0, 30,  0,  0,  0, 29, 28,  0,  0, 26,  0,  0,  0,  0, 20,  0,  0,  0,  0, 34,  0,  0, 28,  0,  0
6, 11115, 2,N0CALL,     0.38, 3,   boost,   58.84,  98591.00,  230.11,    7.74,   27.98,  5.0, 4.00, 4.00, 4.00, -68.01,  -0.76,   1.19,  10.09,  12.76,  -1.64,  -0.64,   0.47,   0.30,   3.16, 4.00, 0.00, 0.00, 0.00, 0.00, 1, 1, 11,  42.6264657, -88.1615442,   247.0, 2025,  2,  8, 17, 30, 55,        1,        1, 310, -46,   1.9,   0.7,   1.7, 26, 28,  0,  0,  0,  0, 13,  0, 30,  0,  0,  0, 29, 28,  0,  0, 26,  0,  0,  0,  0, 20,  0,  0,  0,  0, 34,  0,  0, 28,  0,  0
6, 11115, 2,N0CALL,     0.39, 3,   boost,   58.84,  98575.00,  231.47,    9.10,   28.56,  5.0, 4.00, 4.00, 4.00, -68.08,  -0.57,   1.26,   8.80,  13.98,  -1.77,  -0.64,   0.47,   0.30,   3.26, 4.00, 0.00, 0.00, 0.00, 0.00, 1, 1, 11,  42.6264657, -88.1615442,   247.0, 2025,  2,  8, 17, 30, 55,        1,        1, 310, -46,   1.9,   0.7,   1.7, 26, 28,  0,  0,  0,  0, 13,  0, 30,  0,  0,  0, 29, 28,  0,  0, 26,  0,  0,  0,  0, 20,  0,  0,  0,  0, 34,  0,  0, 28,  0,  0
6, 11115, 2,N0CALL,     0.40, 3,   boost,   57.86,  98575.00,  231.47,    9.10,   29.14,  5.0, 4.00, 4.00, 4.00, -68.24,  -0.88,   1.02,   6.42,  14.53,  -1.83,  -0.64,   0.47,   0.30,   3.36, 4.00, 0.00, 0.00, 0.00, 0.00, 1, 1, 11,  42.6264657, -88.1615442,   247.0, 2025,  2,  8, 17, 30, 55,        1,        1, 310, -46,   1.9,   0.7,   1.7, 26, 28,  0,  0,  0,  0, 13,  0, 30,  0,  0,  0, 29, 28,  0,  0, 26,  0,  0,  0,  0, 20,  0,  0,  0,  0, 34,  0,  0, 28,  0,  0
6, 11115, 2,N0CALL,     0.41, 3,   boost,   59.33,  98577.00,  231.30,    8.93,   29.73,  5.0, 4.00, 4.00, 4.00, -68.47,  -0.86,   1.02,   3.74,  14.71,  -1.89,  -0.64,   0.47,   0.30,   3.47, 4.00, 0.00, 0.00, 0.00, 0.00, 1, 1, 11,  42.6264657, -88.1615442,   247.0, 2025,  2,  8, 17, 30, 55,        1,        1, 310, -46,   1.9,   0.7,   1.7, 26, 28,  0,  0,  0,  0, 13,  0, 30,  0,  0,  0, 29, 28,  0,  0, 26,  0,  0,  0,  0, 20,  0,  0,  0,  0, 34,  0,  0, 28,  0,  0
6, 11115, 2,N0CALL,     0.42, 3,   boost,   59.82,  98577.00,  231.30,    8.93,   30.32,  5.0, 4.00, 4.00, 4.00, -68.74,  -0.60,   1.07,   0.75,  15.75,  -1.64,  -0.64,   0.47,   0.30,   3.59, 4.00, 0.00, 0.00, 0.00, 0.00, 1, 1, 11,  42.6264657, -88.1615442,   247.0, 2025,  2,  8, 17, 30, 55,        1,        1, 310, -46,   1.9,   0.7,   1.7, 26, 28,  0,  0,  0,  0, 13,  0, 30,  0,  0,  0, 29, 28,  0,  0, 26,  0,  0,  0,  0, 20,  0,  0,  0,  0, 34,  0,  0, 28,  0,  0
6, 11115, 2,N0CALL,     0.43, 3,   boost,   57.86,  98562.00,  232.58,   10.21,   30.90,  5.0, 4.00, 4.00, 4.00, -68.91,  -0.50,   1.31,  -1.33,  17.15,  -2.19,  -0.64,   0.47,   0.30,   3.72, 4.00, 0.00, 0.00, 0.00, 0.00, 1, 1, 11,  42.6264657, -88.1615442,   247.0, 2025,  2,  8, 17, 30, 55,        1,        1, 310, -46,   1.9,   0.7,   1.7, 26, 28,  0,  0,  0,  0, 13,  0, 30,  0,  0,  0, 29, 28,  0,  0, 26,  0,  0,  0,  0, 20,  0,  0,  0,  0, 34,  0,  0, 28,  0,  0
6, 11115, 2,N0CALL,     0.44, 3,   boost,   59.33,  98562.00,  232.58,   10.21,   31.49,  5.0, 4.00, 4.00, 4.00, -69.28,  -0.73,   1.19,  -3.34,  17.40,  -2.26,  -0.64,   0.47,   0.30,   3.85, 4.00, 0.00, 0.00, 0.00, 0.00, 1, 1, 11,  42.6264657, -88.1615442,   247.0, 2025,  2,  8, 17, 30, 55,        1,        1, 310, -46,   1.9,   0.7,   1.7, 26, 28,  0,  0,  0,  0, 13,  0, 30,  0,  0,  0, 29, 28,  0,  0, 26,  0,  0,  0,  0, 20,  0,  0,  0,  0, 34,  0,  0, 28,  0,  0
6, 11115, 2,N0CALL,     0.45, 3,   boost,   58.35,  98567.00,  232.15,    9.78,   32.08,  5.0, 4.00, 4.00, 4.00, -69.41,  -0.82,   1.27,  -7.37,  18.31,  -2.50,  -0.64,   0.47,   0.31,   4.00, 4.00, 0.00, 0.00, 0.00, 0.00, 1, 1, 11,  42.6264657, -88.1615442,   247.0, 2025,  2,  8, 17, 30, 55,        1,        1, 310, -46,   1.9,   0.7,   1.7, 26, 28,  0,  0,  0,  0, 13,  0, 30,  0,  0,  0, 29, 28,  0,  0, 26,  0,  0,  0,  0, 20,  0,  0,  0,  0, 34,  0,  0, 28,  0,  0
6, 11115, 2,N0CALL,     0.46, 3,   boost,   59.82,  98567.00,  232.15,    9.78,   32.68,  5.0, 4.00, 4.00, 4.00, -69.63,  -0.78,   1.55, -10.42,  19.41,  -2.74,  -0.64,   0.47,   0.31,   4.16, 4.00, 0.00, 0.00, 0.00, 0.00, 1, 1, 11,  42.6264657, -88.1615442,   247.0, 2025,  2,  8, 17, 30, 55,        1,        1, 310, -46,   1.9,   0.7,   1.7, 26, 28,  0,  0,  0,  0, 13,  0, 30,  0,  0,  0, 29, 28,  0,  0, 26,  0,  0,  0,  0, 20,  0,  0,  0,  0, 34,  0,  0, 28,  0,  0
6, 11115, 2,N0CALL,     0.47, 3,   boost,   60.31,  98565.00,  232.32,    9.95,   33.27,  5.0, 4.00, 4.00, 4.00, -70.28,  -0.72,   1.35, -14.76,  20.15,  -2.80,  -0.64,   0.47,   0.31,   4.33, 4.00, 0.00, 0.00, 0.00, 0.00, 1, 1, 11,  42.6264657, -88.1615442,   247.0, 2025,  2,  8, 17, 30, 55,        1,        1, 310, -46,   1.9,   0.7,   1.7, 26, 28,  0,  0,  0,  0, 13,  0, 30,  0,  0,  0, 29, 28,  0,  0, 26,  0,  0,  0,  0, 20,  0,  0,  0,  0, 34,  0,  0, 28,  0,  0
6, 11115, 2,N0CALL,     0.48, 3,   boost,   60.31,  98565.00,  232.32,    9.95,   33.87,  5.0, 4.00, 4.00, 4.00, -69.98,  -0.65,   0.91, -17.87,  20.57,  -2.87,  -0.63,   0.47,   0.31,   4.50, 4.00, 0.00, 0.00, 0.00, 0.00, 1, 1, 11,  42.6264657, -88.1615442,   247.0, 2025,  2,  8, 17, 30, 55,        1,        1, 310, -46,   1.9,   0.7,   1.7, 26, 28,  0,  0,  0,  0, 13,  0, 30,  0,  0,  0, 29, 28,  0,  0, 26,  0,  0,  0,  0, 20,  0,  0,  0,  0, 34,  0,  0, 28,  0,  0
6, 11115, 2,N0CALL,     0.49, 3,   boost,   60.31,  98553.00,  233.35,   10.98,   34.47,  5.0, 4.00, 4.00, 4.00, -70.21,  -0.78,   1.19, -22.57,  21.24,  -3.11,  -0.63,   0.47,   0.31,   4.68, 4.00, 0.00, 0.00, 0.00, 0.00, 1, 1, 11,  42.6264657, -88.1615442,   247.0, 2025,  2,  8, 17, 30, 55,        1,        1, 310, -46,   1.9,   0.7,   1.7, 26, 28,  0,  0,  0,  0, 13,  0, 30,  0,  0,  0, 29, 28,  0,  0, 26,  0,  0,  0,  0, 20,  0,  0,  0,  0, 34,  0,  0, 28,  0,  0
6, 11115, 2,N0CALL,     0.50, 3,   boost,   59.82,  98553.00,  233.35,   10.98,   35.07,  5.0, 4.00, 4.00, 4.00, -70.32,  -0.98,   1.34, -26.23,  22.28,  -3.17,  -0.63,   0.47,   0.31,   4.88, 4.00, 0.00, 0.00, 0.00, 0.00, 1, 1, 11,  42.6264657, -88.1615442,   247.0, 2025,  2,  8, 17, 30, 55,        1,        1, 310, -46,   1.9,   0.7,   1.7, 26, 28,  0,  0,  0,  0, 13,  0, 30,  0,  0,  0, 29, 28,  0,  0, 26,  0,  0,  0,  0, 20,  0,  0,  0,  0, 34,  0,  0, 28,  0,  0
6, 11115, 2,N0CALL,     0.51, 3,   boost,   62.27,  98540.00,  234.45,   12.08,   35.67,  5.0, 4.00, 4.00, 4.00, -70.54,  -0.74,   1.21, -28.55,  23.07,  -3.23,  -0.63,   0.46,   0.32,   5.08, 4.00, 0.00, 0.00, 0.00, 0.00, 1, 1, 11,  42.6264657, -88.1615442,   247.0, 2025,  2,  8, 17, 30, 55,        1,        1, 310, -46,   1.9,   0.7,   1.7, 26, 28,  0,  0,  0,  0, 13,  0, 30,  0,  0,  0, 29, 28,  0,  0, 26,  0,  0,  0,  0, 20,  0,  0,  0,  0, 34,  0,  0, 28,  0,  0
6, 11115, 2,N0CALL,     0.52, 3,   boost,   60.80,  98540.00,  234.45,   12.08,   36.28,  5.0, 4.00, 4.00, 4.00, -70.96,  -0.65,   1.04, -32.46,  23.87,  -3.60,  -0.63,   0.46,   0.32,   5.30, 4.00, 0.00, 0.00, 0.00, 0.00, 1, 1, 11,  42.6264657, -88.1615442,   247.0, 2025,  2,  8, 17, 30, 55,        1,        1, 310, -46,   1.9,   0.7,   1.7, 26, 28,  0,  0,  0,  0, 13,  0, 30,  0,  0,  0, 29, 28,  0,  0, 26,  0,  0,  0,  0, 20,  0,  0,  0,  0, 34,  0,  0, 28,  0,  0
6, 11115, 2,N0CALL,     0.53, 3,   boost,   59.33,  98541.00,  234.37,   12.00,   36.88,  5.0, 4.00, 4.00, 4.00, -70.86,  -0.68,   1.11, -36.91,  24.72,  -4.09,  -0.63,   0.46,   0.33,   5.52, 4.00, 0.00, 0.00, 0.00, 0.00, 1, 1, 11,  42.6264657, -88.1615442,   247.0, 2025,  2,  8, 17, 30, 55,        1,        1, 310, -46,   1.9,   0.7,   1.7, 26, 28,  0,  0,  0,  0, 13,  0, 30,  0,  0,  0, 29, 28,  0,  0, 26,  0,  0,  0,  0, 20,  0,  0,  0,  0, 34,  0,  0, 28,  0,  0
6, 11115, 2,N0CALL,     0.54, 3,   boost,   61.29,  98541.00,  234.37,   12.00,   37.49,  5.0, 4.00, 4.00, 4.00, -71.20,  -0.89,   1.49, -40.94,  25.46,  -4.09,  -0.63,   0.46,   0.33,   5.76, 4.00, 0.00, 0.00, 0.00, 0.00, 1, 1, 11,  42.6264657, -88.1615442,   247.0, 2025,  2,  8, 17, 30, 55,        1,        1, 310, -46,   1.9,   0.7,   1.7, 26, 28,  0,  0,  0,  0, 13,  0, 30,  0,  0,  0, 29, 28,  0,  0, 26,  0,  0,  0,  0, 20,  0,  0,  0,  0, 34,  0,  0, 28,  0,  0
6, 11115, 2,N0CALL,     0.55, 3,   boost,   60.80,  98527.00,  235.56,   13.19,   38.09,  5.0, 4.00, 4.00, 4.00, -71.30,  -0.60,   0.75, -43.14,  26.19,  -4.21,  -0.63,   0.46,   0.33,   6.00, 4.00, 0.00, 0.00, 0.00, 0.00, 1, 1, 11,  42.6264657, -88.1615442,   247.0, 2025,  2,  8, 17, 30, 55,        1,        1, 310, -46,   1.9,   0.7,   1.7, 26, 28,  0,  0,  0,  0, 13,  0, 30,  0,  0,  0, 29, 28,  0,  0, 26,  0,  0,  0,  0, 20,  0,  0,  0,  0, 34,  0,  0, 28,  0,  0
