#version,serial,flight,call,time,state,state_name,acceleration,pressure,altitude,height,speed,temperature,drogue_voltage,main_voltage,battery_voltage,accel_x,accel_y,accel_z,gyro_roll,gyro_pitch,gyro_yaw,mag_x,mag_y,mag_z,tilt,pyro,igniter_a,igniter_b,igniter_c,igniter_d,connected,locked,nsat,latitude,longitude,altitude,year,month,day,hour,minute,second,pad_dist,pad_range,pad_az,pad_el,pdop,hdop,vdop,sat01,sat02,sat03,sat04,sat05,sat06,sat07,sat08,sat09,sat10,sat11,sat12,sat13,sat14,sat15,sat16,sat17,sat18,sat19,sat20,sat21,sat22,sat23,sat24,sat25,sat26,sat27,sat28,sat29,sat30,sat31,sat32
6, 11115, 4,N0CALL,    -0.30, 3,   boost,    1.96, 100011.00,  109.96,   -0.34,    0.00, 27.1, 3.85, 3.85, 3.85,  -9.82,  -0.28,  -0.04,   0.11,   0.04,   0.07,  -0.62,   0.39,   0.29,   1.34, 3.87, 0.00, 0.00, 0.00, 0.00, 1, 1, 11,  40.3870400, -87.5135179,   206.0, 2025,  4, 12, 16, 21, 31,        0,        0,  19,   0,   1.2,   0.8,   0.9, 33, 31, 19,  0,  0, 28,  0,  0,  0,  0,  0,  0, 26, 32,  0,  0, 26,  0, 33,  0,  0, 26,  0, 28,  0,  0,  0,  0,  0, 29,  0,  0
6, 11115, 4,N0CALL,    -0.29, 3,   boost,   -0.49, 100007.00,  110.30,    0.00,    0.00, 27.1, 3.85, 3.85, 3.85,  -9.84,  -0.20,   0.01,   0.17,  -0.02,   0.25,  -0.62,   0.39,   0.29,   1.34, 3.87, 0.00, 0.00, 0.00, 0.00, 1, 1, 11,  40.3870400, -87.5135179,   206.0, 2025,  4, 12, 16, 21, 31,        0,        0,  19,   0,   1.2,   0.8,   0.9, 33, 31, 19,  0,  0, 28,  0,  0,  0,  0,  0,  0, 26, 32,  0,  0, 26,  0, 33,  0,  0, 26,  0, 28,  0,  0,  0,  0,  0, 29,  0,  0
6, 11115, 4,N0CALL,    -0.28, 3,   boost,    0.49, 100007.00,  110.30,    0.00,    0.01, 27.1, 3.85, 3.85, 3.85,  -9.86,  -0.25,  -0.04,  -0.26,  -0.20,   0.13,  -0.62,   0.39,   0.29,   1.34, 3.87, 0.00, 0.00, 0.00, 0.00, 1, 1, 11,  40.3870400, -87.5135179,   206.0, 2025,  4, 12, 16, 21, 31,        0,        0,  19,   0,   1.2,   0.8,   0.9, 33, 31, 19,  0,  0, 28,  0,  0,  0,  0,  0,  0, 26, 32,  0,  0, 26,  0, 33,  0,  0, 26,  0, 28,  0,  0,  0,  0,  0, 29,  0,  0
6, 11115, 4,N0CALL,    -0.27, 3,   boost,   -0.00, 100006.00,  110.38,    0.08,    0.01, 27.1, 3.85, 3.85, 3.85,  -9.85,  -0.29,  -0.01,  -0.26,  -0.02,  -0.12,  -0.62,   0.39,   0.29,   1.34, 3.87, 0.00, 0.00, 0.00, 0.00, 1, 1, 11,  40.3870400, -87.5135179,   206.0, 2025,  4, 12, 16, 21, 31,        0,        0,  19,   0,   1.2,   0.8,   0.9, 33, 31, 19,  0,  0, 28,  0,  0,  0,  0,  0,  0, 26, 32,  0,  0, 26,  0, 33,  0,  0, 26,  0, 28,  0,  0,  0,  0,  0, 29,  0,  0
6, 11115, 4,N0CALL,    -0.26, 3,   boost,    0.49, 100006.00,  110.38,    0.08,    0.01, 27.1, 3.85, 3.85, 3.85,  -9.81,  -0.22,   0.00,  -0.44,   0.10,   0.13,  -0.62,   0.39,   0.29,   1.34, 3.87, 0.00, 0.00, 0.00, 0.00, 1, 1, 11,  40.3870400, -87.5135179,   206.0, 2025,  4, 12, 16, 21, 31,        0,        0,  19,   0,   1.2,   0.8,   0.9, 33, 31, 19,  0,  0, 28,  0,  0,  0,  0,  0,  0, 26, 32,  0,  0, 26,  0, 33,  0,  0, 26,  0, 28,  0,  0,  0,  0,  0, 29,  0,  0
6, 11115, 4,N0CALL,    -0.25, 3,   boost,   -1.96, 100014.00,  109.71,   -0.59,    0.01, 27.1, 3.85, 3.85, 3.85,  -9.84,  -0.24,  -0.02,  -0.20,  -0.20,  -0.12,  -0.62,   0.39,   0.29,   1.34, 3.87, 0.00, 0.00, 0.00, 0.00, 1, 1, 11,  40.3870400, -87.5135179,   206.0, 2025,  4, 12, 16, 21, 31,        0,        0,  19,   0,   1.2,   0.8,   0.9, 33, 31, 19,  0,  0, 28,  0,  0,  0,  0,  0,  0, 26, 32,  0,  0, 26,  0, 33,  0,  0, 26,  0, 28,  0,  0,  0,  0,  0, 29,  0,  0
6, 11115, 4,N0CALL,    -0.24, 3,   boost,   -0.00, 100014.00,  109.71,   -0.59,    0.00, 27.1, 3.85, 3.85, 3.85,  -9.84,  -0.19,   0.07,   0.11,   0.04,  -0.24,  -0.62,   0.39,   0.29,   1.34, 3.87, 0.00, 0.00, 0.00, 0.00, 1, 1, 11,  40.3870400, -87.5135179,   206.0, 2025,  4, 12, 16, 21, 31,        0,        0,  19,   0,   1.2,   0.8,   0.9, 33, 31, 19,  0,  0, 28,  0,  0,  0,  0,  0,  0, 26, 32,  0,  0, 26,  0, 33,  0,  0, 26,  0, 28,  0,  0,  0,  0,  0, 29,  0,  0
6, 11115, 4,N0CALL,    -0.23, 3,   boost,   -0.98, 100009.00,  110.13,   -0.17,    0.00, 27.1, 3.85, 3.85, 3.85,  -9.89,  -0.16,  -0.01,   0.05,  -0.26,   0.13,  -0.62,   0.39,   0.29,   1.34, 3.87, 0.00, 0.00, 0.00, 0.00, 1, 1, 11,  40.3870400, -87.5135179,   206.0, 2025,  4, 12, 16, 21, 31,        0,        0,  19,   0,   1.2,   0.8,   0.9, 33, 31, 19,  0,  0, 28,  0,  0,  0,  0,  0,  0, 26, 32,  0,  0, 26,  0, 33,  0,  0, 26,  0, 28,  0,  0,  0,  0,  0, 29,  0,  0
6, 11115, 4,N0CALL,    -0.22, 3,   boost,   -1.47, 100009.00,  110.13,   -0.17,    0.00, 27.1, 3.85, 3.85, 3.85,  -9.80,  -0.42,  -0.09,  -0.01,  -0.14,   0.13,  -0.62,   0.39,   0.29,   1.34, 3.87, 0.00, 0.00, 0.00, 0.00, 1, 1, 11,  40.3870391, -87.5135183,   206.0, 2025,  4, 12, 16, 21, 32,        0,        0,   0,   0,   1.2,   0.8,   0.9, 33, 31, 20,  0,  0, 29,  0,  0,  0,  0,  0,  0, 25, 32,  0,  0, 26,  0, 33,  0,  0, 25,  0, 28,  0,  0,  0,  0,  0, 29,  0,  0
6, 11115, 4,N0CALL,    -0.21, 3,   boost,   -0.49, 100006.00,  110.38,    0.08,    0.00, 27.1, 3.85, 3.85, 3.85,  -9.83,  -0.07,  -0.01,  -0.08,   0.16,   0.19,  -0.62,   0.39,   0.29,   1.34, 3.87, 0.00, 0.00, 0.00, 0.00, 1, 1, 11,  40.3870391, -87.5135183,   206.0, 2025,  4, 12, 16, 21, 32,        0,        0,   0,   0,   1.2,   0.8,   0.9, 33, 31, 20,  0,  0, 29,  0,  0,  0,  0,  0,  0, 25, 32,  0,  0, 26,  0, 33,  0,  0, 25,  0, 28,  0,  0,  0,  0,  0, 29,  0,  0
6, 11115, 4,N0CALL,    -0.20, 3,   boost,    1.96, 100006.00,  110.38,    0.08,    0.00, 27.1, 3.85, 3.85, 3.85,  -9.81,  -0.42,  -0.05,  -0.08,  -0.08,   0.13,  -0.62,   0.39,   0.29,   1.34, 3.87, 0.00, 0.00, 0.00, 0.00, 1, 1, 11,  40.3870391, -87.5135183,   206.0, 2025,  4, 12, 16, 21, 32,        0,        0,   0,   0,   1.2,   0.8,   0.9, 33, 31, 20,  0,  0, 29,  0,  0,  0,  0,  0,  0, 25, 32,  0,  0, 26,  0, 33,  0,  0, 25,  0, 28,  0,  0,  0,  0,  0, 29,  0,  0
6, 11115, 4,N0CALL,    -0.19, 3,   boost,   -0.49, 100009.00,  110.13,   -0.17,    0.00, 27.1, 3.85, 3.85, 3.85,  -9.84,  -0.08,  -0.06,   0.17,   0.35,  -0.24,  -0.62,   0.39,   0.29,   1.34, 3.87, 0.00, 0.00, 0.00, 0.00, 1, 1, 11,  40.3870391, -87.5135183,   206.0, 2025,  4, 12, 16, 21, 32,        0,        0,   0,   0,   1.2,   0.8,   0.9, 33, 31, 20,  0,  0, 29,  0,  0,  0,  0,  0,  0, 25, 32,  0,  0, 26,  0, 33,  0,  0, 25,  0, 28,  0,  0,  0,  0,  0, 29,  0,  0
6, 11115, 4,N0CALL,    -0.18, 3,   boost,   -0.49, 100009.00,  110.13,   -0.17,    0.00, 27.1, 3.85, 3.85, 3.85,  -9.85,  -0.34,  -0.01,  -0.14,   0.10,   0.01,  -0.62,   0.39,   0.29,   1.34, 3.87, 0.00, 0.00, 0.00, 0.00, 1, 1, 11,  40.3870391, -87.5135183,   206.0, 2025,  4, 12, 16, 21, 32,        0,        0,   0,   0,   1.2,   0.8,   0.9, 33, 31, 20,  0,  0, 29,  0,  0,  0,  0,  0,  0, 25, 32,  0,  0, 26,  0, 33,  0,  0, 25,  0, 28,  0,  0,  0,  0,  0, 29,  0,  0
6, 11115, 4,N0CALL,    -0.17, 3,   boost,   -0.49, 100007.00,  110.30,    0.00,    0.00, 27.1, 3.85, 3.85, 3.85,  -9.85,  -0.19,  -0.04,   0.11,  -0.02,  -0.12,  -0.62,   0.39,   0.29,   1.34, 3.87, 0.00, 0.00, 0.00, 0.00, 1, 1, 11,  40.3870391, -87.5135183,   206.0, 2025,  4, 12, 16, 21, 32,        0,        0,   0,   0,   1.2,   0.8,   0.9, 33, 31, 20,  0,  0, 29,  0,  0,  0,  0,  0,  0, 25, 32,  0,  0, 26,  0, 33,  0,  0, 25,  0, 28,  0,  0,  0,  0,  0, 29,  0,  0
6, 11115, 4,N0CALL,    -0.16, 3,   boost,   -0.00, 100007.00,  110.30,    0.00,    0.00, 27.1, 3.85, 3.85, 3.85,  -9.76,  -0.31,  -0.03,  -0.32,   0.10,   0.13,  -0.62,   0.39,   0.29,   1.34, 3.87, 0.00, 0.00, 0.00, 0.00, 1, 1, 11,  40.3870391, -87.5135183,   206.0, 2025,  4, 12, 16, 21, 32,        0,        0,   0,   0,   1.2,   0.8,   0.9, 33, 31, 20,  0,  0, 29,  0,  0,  0,  0,  0,  0, 25, 32,  0,  0, 26,  0, 33,  0,  0, 25,  0, 28,  0,  0,  0,  0,  0, 29,  0,  0
6, 11115, 4,N0CALL,    -0.15, 3,   boost,   -1.47, 100002.00,  110.72,    0.42,    0.00, 27.1, 3.85, 3.85, 3.85,  -9.84,  -0.20,  -0.14,  -0.01,   0.47,  -0.12,  -0.62,   0.39,   0.29,   1.34, 3.87, 0.00, 0.00, 0.00, 0.00, 1, 1, 11,  40.3870391, -87.5135183,   206.0, 2025,  4, 12, 16, 21, 32,        0,        0,   0,   0,   1.2,   0.8,   0.9, 33, 31, 20,  0,  0, 29,  0,  0,  0,  0,  0,  0, 25, 32,  0,  0, 26,  0, 33,  0,  0, 25,  0, 28,  0,  0,  0,  0,  0, 29,  0,  0
6, 11115, 4,N0CALL,    -0.14, 3,   boost,   -2.45, 100002.00,  110.72,    0.42,    0.00, 27.1, 3.85, 3.85, 3.85,  -9.86,  -0.32,  -0.01,  -0.14,  -0.08,   0.07,  -0.62,   0.39,   0.29,   1.34, 3.87, 0.00, 0.00, 0.00, 0.00, 1, 1, 11,  40.3870391, -87.5135183,   206.0, 2025,  4, 12, 16, 21, 32,        0,        0,   0,   0,   1.2,   0.8,   0.9, 33, 31, 20,  0,  0, 29,  0,  0,  0,  0,  0,  0, 25, 32,  0,  0, 26,  0, 33,  0,  0, 25,  0, 28,  0,  0,  0,  0,  0, 29,  0,  0
6, 11115, 4,N0CALL,    -0.13, 3,   boost,   -0.49, 100010.00,  110.04,   -0.25,    0.00, 27.1, 3.85, 3.85, 3.85,  -9.87,  -0.14,  -0.05,   0.29,  -0.14,  -0.18,  -0.62,   0.39,   0.29,   1.34, 3.87, 0.00, 0.00, 0.00, 0.00, 1, 1, 11,  40.3870391, -87.5135183,   206.0, 2025,  4, 12, 16, 21, 32,        0,        0,   0,   0,   1.2,   0.8,   0.9, 33, 31, 20,  0,  0, 29,  0,  0,  0,  0,  0,  0, 25, 32,  0,  0, 26,  0, 33,  0,  0, 25,  0, 28,  0,  0,  0,  0,  0, 29,  0,  0
6, 11115, 4,N0CALL,    -0.12, 3,   boost,    0.49, 100010.00,  110.04,   -0.25,    0.00, 27.1, 3.85, 3.85, 3.85,  -9.83,  -0.29,  -0.11,   0.23,   0.04,   0.07,  -0.62,   0.39,   0.29,   1.34, 3.87, 0.00, 0.00, 0.00, 0.00, 1, 1, 11,  40.3870391, -87.5135183,   206.0, 2025,  4, 12, 16, 21, 32,        0,        0,   0,   0,   1.2,   0.8,   0.9, 33, 31, 20,  0,  0, 29,  0,  0,  0,  0,  0,  0, 25, 32,  0,  0, 26,  0, 33,  0,  0, 25,  0, 28,  0,  0,  0,  0,  0, 29,  0,  0
6, 11115, 4,N0CALL,    -0.11, 3,   boost,   -0.00, 100007.00,  110.30,    0.00,    0.00, 27.1, 3.85, 3.85, 3.85,  -9.90,  -0.18,   0.10,   0.11,   0.10,  -0.18,  -0.62,   0.39,   0.29,   1.34, 3.87, 0.00, 0.00, 0.00, 0.00, 1, 1, 11,  40.3870391, -87.5135183,   206.0, 2025,  4, 12, 16, 21, 32,        0,        0,   0,   0,   1.2,   0.8,   0.9, 33, 31, 20,  0,  0, 29,  0,  0,  0,  0,  0,  0, 25, 32,  0,  0, 26,  0, 33,  0,  0, 25,  0, 28,  0,  0,  0,  0,  0, 29,  0,  0
6, 11115, 4,N0CALL,    -0.10, 3,   boost,   -0.49, 100007.00,  110.30,    0.00,    0.00, 27.1, 3.85, 3.85, 3.85,  -9.80,  -0.19,   0.08,  -0.44,   0.16,   0.01,  -0.62,   0.39,   0.29,   1.34, 3.87, 0.00, 0.00, 0.00, 0.00, 1, 1, 11,  40.3870391, -87.5135183,   206.0, 2025,  4, 12, 16, 21, 32,        0,        0,   0,   0,   1.2,   0.8,   0.9, 33, 31, 20,  0,  0, 29,  0,  0,  0,  0,  0,  0, 25, 32,  0,  0, 26,  0, 33,  0,  0, 25,  0, 28,  0,  0,  0,  0,  0, 29,  0,  0
6, 11115, 4,N0CALL,    -0.09, 3,   boost,    0.49, 100007.00,  110.30,    0.00,    0.01, 27.1, 3.85, 3.85, 3.85,  -9.91,  -0.22,  -0.19,   0.11,  -0.02,  -0.30,  -0.62,   0.39,   0.29,   1.34, 3.87, 0.00, 0.00, 0.00, 0.00, 1, 1, 11,  40.3870391, -87.5135183,   206.0, 2025,  4, 12, 16, 21, 32,        0,        0,   0,   0,   1.2,   0.8,   0.9, 33, 31, 20,  0,  0, 29,  0,  0,  0,  0,  0,  0, 25, 32,  0,  0, 26,  0, 33,  0,  0, 25,  0, 28,  0,  0,  0,  0,  0, 29,  0,  0
6, 11115, 4,N0CALL,    -0.08, 3,   boost,   -0.98, 100007.00,  110.30,    0.00,    0.05, 27.1, 3.85, 3.85, 3.85,  -9.79,  -0.15,  -0.01,  -0.38,   0.10,   0.07,  -0.62,   0.39,   0.29,   1.34, 3.87, 0.00, 0.00, 0.00, 0.00, 1, 1, 11,  40.3870391, -87.5135183,   206.0, 2025,  4, 12, 16, 21, 32,        0,        0,   0,   0,   1.2,   0.8,   0.9, 33, 31, 20,  0,  0, 29,  0,  0,  0,  0,  0,  0, 25, 32,  0,  0, 26,  0, 33,  0,  0, 25,  0, 28,  0,  0,  0,  0,  0, 29,  0,  0
6, 11115, 4,N0CALL,    -0.07, 3,   boost,   -0.00, 100004.00,  110.55,    0.25,    0.17, 27.1, 3.85, 3.85, 3.85,  -9.88,  -0.21,  -0.20,  -0.14,   0.10,  -0.05,  -0.62,   0.39,   0.29,   1.34, 3.87, 0.00, 0.00, 0.00, 0.00, 1, 1, 11,  40.3870391, -87.5135183,   206.0, 2025,  4, 12, 16, 21, 32,        0,        0,   0,   0,   1.2,   0.8,   0.9, 33, 31, 20,  0,  0, 29,  0,  0,  0,  0,  0,  0, 25, 32,  0,  0, 26,  0, 33,  0,  0, 25,  0, 28,  0,  0,  0,  0,  0, 29,  0,  0
6, 11115, 4,N0CALL,    -0.06, 3,   boost,   -0.00, 100004.00,  110.55,    0.25,    0.43, 27.1, 3.85, 3.85, 3.85,  -9.81,  -0.09,   0.07,  -0.20,   0.29,   0.07,  -0.62,   0.39,   0.29,   1.34, 3.87, 0.00, 0.00, 0.00, 0.00, 1, 1, 11,  40.3870391, -87.5135183,   206.0, 2025,  4, 12, 16, 21, 32,        0,        0,   0,   0,   1.2,   0.8,   0.9, 33, 31, 20,  0,  0, 29,  0,  0,  0,  0,  0,  0, 25, 32,  0,  0, 26,  0, 33,  0,  0, 25,  0, 28,  0,  0,  0,  0,  0, 29,  0,  0
6, 11115, 4,N0CALL,    -0.05, 3,   boost,   80.41, 100009.00,  110.13,   -0.17,    0.87, 27.1, 3.85, 3.85, 3.85, -10.09,  -0.42,  -0.04,   0.11,  -0.32,  -0.05,  -0.62,   0.39,   0.29,   1.34, 3.87, 0.00, 0.00, 0.00, 0.00, 1, 1, 11,  40.3870391, -87.5135183,   206.0, 2025,  4, 12, 16, 21, 32,        0,        0,   0,   0,   1.2,   0.8,   0.9, 33, 31, 20,  0,  0, 29,  0,  0,  0,  0,  0,  0, 25, 32,  0,  0, 26,  0, 33,  0,  0, 25,  0, 28,  0,  0,  0,  0,  0, 29,  0,  0
6, 11115, 4,N0CALL,    -0.04, 3,   boost,  103.46, 100009.00,  110.13,   -0.17,    1.51, 27.1, 3.85, 3.85, 3.85, -46.91,   0.52,  -1.86,  -1.85,  -0.26,   6.60,  -0.62,   0.39,   0.29,   1.34, 3.87, 0.00, 0.00, 0.00, 0.00, 1, 1, 11,  40.3870391, -87.5135183,   206.0, 2025,  4, 12, 16, 21, 32,        0,        0,   0,   0,   1.2,   0.8,   0.9, 33, 31, 20,  0,  0, 29,  0,  0,  0,  0,  0,  0, 25, 32,  0,  0, 26,  0, 33,  0,  0, 25,  0, 28,  0,  0,  0,  0,  0, 29,  0,  0
6, 11115, 4,N0CALL,    -0.03, 3,   boost,   96.60, 100146.00,   98.61,  -11.69,    2.31, 27.1, 3.85, 3.85, 3.85,-116.49,   7.54,  -0.91,   0.66,   3.95, -15.74,  -0.62,   0.38,   0.29,   1.34, 3.87, 0.00, 0.00, 0.00, 0.00, 1, 1, 11,  40.3870391, -87.5135183,   206.0, 2025,  4, 12, 16, 21, 32,        0,        0,   0,   0,   1.2,   0.8,   0.9, 33, 31, 20,  0,  0, 29,  0,  0,  0,  0,  0,  0, 25, 32,  0,  0, 26,  0, 33,  0,  0, 25,  0, 28,  0,  0,  0,  0,  0, 29,  0,  0
6, 11115, 4,N0CALL,    -0.02, 3,   boost,   96.60, 100146.00,   98.61,  -11.69,    3.22, 27.1, 3.85, 3.85, 3.85,-114.25,  19.37,   3.64,   3.22,   2.67, -18.06,  -0.62,   0.38,   0.29,   1.34, 3.87, 0.00, 0.00, 0.00, 0.00, 1, 1, 11,  40.3870391, -87.5135183,   206.0, 2025,  4, 12, 16, 21, 32,        0,        0,   0,   0,   1.2,   0.8,   0.9, 33, 31, 20,  0,  0, 29,  0,  0,  0,  0,  0,  0, 25, 32,  0,  0, 26,  0, 33,  0,  0, 25,  0, 28,  0,  0,  0,  0,  0, 29,  0,  0
6, 11115, 4,N0CALL,    -0.01, 3,   boost,   96.11,  99985.00,  112.15,    1.85,    4.17, 27.1, 3.85, 3.85, 3.85,-108.00,  -5.34,   6.62,  -7.58,  -0.26, -12.26,  -0.62,   0.38,   0.29,   1.34, 3.87, 0.00, 0.00, 0.00, 0.00, 1, 1, 11,  40.3870391, -87.5135183,   206.0, 2025,  4, 12, 16, 21, 32,        0,        0,   0,   0,   1.2,   0.8,   0.9, 33, 31, 20,  0,  0, 29,  0,  0,  0,  0,  0,  0, 25, 32,  0,  0, 26,  0, 33,  0,  0, 25,  0, 28,  0,  0,  0,  0,  0, 29,  0,  0
6, 11115, 4,N0CALL,     0.00, 3,   boost,   96.11,  99985.00,  112.15,    1.85,    5.14, 27.1, 3.85, 3.85, 3.85,-108.76,  15.40,   6.73,   0.35,   7.18, -21.97,  -0.62,   0.38,   0.29,   1.34, 3.87, 0.00, 0.00, 0.00, 0.00, 1, 1, 11,  40.3870391, -87.5135183,   206.0, 2025,  4, 12, 16, 21, 32,        0,        0,   0,   0,   1.2,   0.8,   0.9, 33, 31, 20,  0,  0, 29,  0,  0,  0,  0,  0,  0, 25, 32,  0,  0, 26,  0, 33,  0,  0, 25,  0, 28,  0,  0,  0,  0,  0, 29,  0,  0
6, 11115, 4,N0CALL,     0.00, 3,   boost,   96.11,  99985.00,  112.15,    1.85,    5.14, 27.1, 3.85, 3.85, 3.85,-108.76,  15.40,   6.73,   0.35,   7.18, -21.97,  -0.62,   0.38,   0.29,   1.34, 3.87, 0.00, 0.00, 0.00, 0.00, 1, 1, 11,  40.3870391, -87.5135183,   206.0, 2025,  4, 12, 16, 21, 32,        0,        0,   0,   0,   1.2,   0.8,   0.9, 33, 31, 20,  0,  0, 29,  0,  0,  0,  0,  0,  0, 25, 32,  0,  0, 26,  0, 33,  0,  0, 25,  0, 28,  0,  0,  0,  0,  0, 29,  0,  0
6, 11115, 4,N0CALL,     0.00, 3,   boost,   96.11,  99985.00,  112.15,    1.85,    5.14, 27.1, 3.85, 3.85, 3.85,-108.76,  15.40,   6.73,   0.35,   7.18, -21.97,  -0.62,   0.38,   0.29,   1.34, 3.87, 0.00, 0.00, 0.00, 0.00, 1, 1, 11,  40.3870391, -87.5135183,   206.0, 2025,  4, 12, 16, 21, 32,        0,        0,   0,   0,   1.2,   0.8,   0.9, 33, 31, 20,  0,  0, 29,  0,  0,  0,  0,  0,  0, 25, 32,  0,  0, 26,  0, 33,  0,  0, 25,  0, 28,  0,  0,  0,  0,  0, 29,  0,  0
6, 11115, 4,N0CALL,     0.00, 3,   boost,   96.11,  99985.00,  112.15,    1.85,    5.14, 27.1, 3.85, 3.85, 3.85,-108.76,  15.40,   6.73,   0.35,   7.18, -21.97,  -0.62,   0.38,   0.29,   1.34, 3.87, 0.00, 0.00, 0.00, 0.00, 1, 1, 11,  40.3870391, -87.5135183,   206.0, 2025,  4, 12, 16, 21, 32,        0,        0,   0,   0,   1.2,   0.8,   0.9, 33, 31, 20,  0,  0, 29,  0,  0,  0,  0,  0,  0, 25, 32,  0,  0, 26,  0, 33,  0,  0, 25,  0, 28,  0,  0,  0,  0,  0, 29,  0,  0
6, 11115, 4,N0CALL,     0.00, 3,   boost,   96.11,  99985.00,  112.15,    1.85,    5.14, 27.1, 3.85, 3.85, 3.85,-108.76,  15.40,   6.73,   0.35,   7.18, -21.97,  -0.62,   0.38,   0.29,   1.34, 3.87, 0.00, 0.00, 0.00, 0.00, 1, 1, 11,  40.3870391, -87.5135183,   206.0, 2025,  4, 12, 16, 21, 32,        0,        0,   0,   0,   1.2,   0.8,   0.9, 33, 31, 20,  0,  0, 29,  0,  0,  0,  0,  0,  0, 25, 32,  0,  0, 26,  0, 33,  0,  0, 25,  0, 28,  0,  0,  0,  0,  0, 29,  0,  0
6, 11115, 4,N0CALL,     0.00, 3,   boost,   96.11,  99985.00,  112.15,    1.85,    5.14, 27.1, 3.85, 3.85, 3.85,-108.76,  15.40,   6.73,   0.35,   7.18, -21.97,  -0.62,   0.38,   0.29,   1.34, 3.87, 0.00, 0.00, 0.00, 0.00, 1, 1, 11,  40.3870391, -87.5135183,   206.0, 2025,  4, 12, 16, 21, 32,        0,        0,   0,   0,   1.2,   0.8,   0.9, 33, 31, 20,  0,  0, 29,  0,  0,  0,  0,  0,  0, 25, 32,  0,  0, 26,  0, 33,  0,  0, 25,  0, 28,  0,  0,  0,  0,  0, 29,  0,  0
6, 11115, 4,N0CALL,     0.00, 3,   boost,   96.11,  99985.00,  112.15,    1.85,    5.14, 27.1, 3.85, 3.85, 3.85,-108.76,  15.40,   6.73,   0.35,   7.18, -21.97,  -0.62,   0.38,   0.29,   1.34, 3.87, 0.00, 0.00, 0.00, 0.00, 1, 1, 11,  40.3870391, -87.5135183,   206.0, 2025,  4, 12, 16, 21, 32,        0,        0,   0,   0,   1.2,   0.8,   0.9, 33, 31, 20,  0,  0, 29,  0,  0,  0,  0,  0,  0, 25, 32,  0,  0, 26,  0, 33,  0,  0, 25,  0, 28,  0,  0,  0,  0,  0, 29,  0,  0
6, 11115, 4,N0CALL,     0.00, 3,   boost,   96.11,  99985.00,  112.15,    1.85,    5.14, 27.1, 3.85, 3.85, 3.85,-108.76,  15.40,   6.73,   0.35,   7.18, -21.97,  -0.62,   0.38,   0.29,   1.34, 3.87, 0.00, 0.00, 0.00, 0.00, 1, 1, 11,  40.3870391, -87.5135183,   206.0, 2025,  4, 12, 16, 21, 32,        0,        0,   0,   0,   1.2,   0.8,   0.9, 33, 31, 20,  0,  0, 29,  0,  0,  0,  0,  0,  0, 25, 32,  0,  0, 26,  0, 33,  0,  0, 25,  0, 28,  0,  0,  0,  0,  0, 29,  0,  0
6, 11115, 4,N0CALL,     0.00, 3,   boost,   96.11,  99985.00,  112.15,    1.85,    5.14, 27.1, 3.85, 3.85, 3.85,-108.76,  15.40,   6.73,   0.35,   7.18, -21.97,  -0.62,   0.38,   0.29,   1.34, 3.87, 0.00, 0.00, 0.00, 0.00, 1, 1, 11,  40.3870391, -87.5135183,   206.0, 2025,  4, 12, 16, 21, 32,        0,        0,   0,   0,   1.2,   0.8,   0.9, 33, 31, 20,  0,  0, 29,  0,  0,  0,  0,  0,  0, 25, 32,  0,  0, 26,  0, 33,  0,  0, 25,  0, 28,  0,  0,  0,  0,  0, 29,  0,  0
6, 11115, 4,N0CALL,     0.00, 3,   boost,   96.11,  99985.00,  112.15,    1.85,    5.14, 27.1, 3.85, 3.85, 3.85,-108.76,  15.40,   6.73,   0.35,   7.18, -21.97,  -0.62,   0.38,   0.29,   1.34, 3.87, 0.00, 0.00, 0.00, 0.00, 1, 1, 11,  40.3870391, -87.5135183,   206.0, 2025,  4, 12, 16, 21, 32,        0,        0,   0,   0,   1.2,   0.8,   0.9, 33, 31, 20,  0,  0, 29,  0,  0,  0,  0,  0,  0, 25, 32,  0,  0, 26,  0, 33,  0,  0, 25,  0, 28,  0,  0,  0,  0,  0, 29,  0,  0
6, 11115, 4,N0CALL,     0.00, 3,   boost,   96.11,  99985.00,  112.15,    1.85,    5.14, 27.1, 3.85, 3.85, 3.85,-108.76,  15.40,   6.73,   0.35,   7.18, -21.97,  -0.62,   0.38,   0.29,   1.34, 3.87, 0.00, 0.00, 0.00, 0.00, 1, 1, 11,  40.3870391, -87.5135183,   206.0, 2025,  4, 12, 16, 21, 32,        0,        0,   0,   0,   1.2,   0.8,   0.9, 33, 31, 20,  0,  0, 29,  0,  0,  0,  0,  0,  0, 25, 32,  0,  0, 26,  0, 33,  0,  0, 25,  0, 28,  0,  0,  0,  0,  0, 29,  0,  0
6, 11115, 4,N0CALL,     0.00, 3,   boost,   96.11,  99985.00,  112.15,    1.85,    5.14, 27.1, 3.85, 3.85, 3.85,-108.76,  15.40,   6.73,   0.35,   7.18, -21.97,  -0.62,   0.38,   0.29,   1.34, 3.87, 0.00, 0.00, 0.00, 0.00, 1, 1, 11,  40.3870391, -87.5135183,   206.0, 2025,  4, 12, 16, 21, 32,        0,        0,   0,   0,   1.2,   0.8,   0.9, 33, 31, 20,  0,  0, 29,  0,  0,  0,  0,  0,  0, 25, 32,  0,  0, 26,  0, 33,  0,  0, 25,  0, 28,  0,  0,  0,  0,  0, 29,  0,  0
6, 11115, 4,N0CALL,     0.00, 3,   boost,   96.11,  99985.00,  112.15,    1.85,    5.14, 27.1, 3.85, 3.85, 3.85,-108.76,  15.40,   6.73,   0.35,   7.18, -21.97,  -0.62,   0.38,   0.29,   1.34, 3.87, 0.00, 0.00, 0.00, 0.00, 1, 1, 11,  40.3870391, -87.5135183,   206.0, 2025,  4, 12, 16, 21, 32,        0,        0,   0,   0,   1.2,   0.8,   0.9, 33, 31, 20,  0,  0, 29,  0,  0,  0,  0,  0,  0, 25, 32,  0,  0, 26,  0, 33,  0,  0, 25,  0, 28,  0,  0,  0,  0,  0, 29,  0,  0
6, 11115, 4,N0CALL,     0.00, 3,   boost,   96.11,  99985.00,  112.15,    1.85,    5.14, 27.1, 3.85, 3.85, 3.85,-108.76,  15.40,   6.73,   0.35,   7.18, -21.97,  -0.62,   0.38,   0.29,   1.34, 3.87, 0.00, 0.00, 0.00, 0.00, 1, 1, 11,  40.3870391, -87.5135183,   206.0, 2025,  4, 12, 16, 21, 32,        0,        0,   0,   0,   1.2,   0.8,   0.9, 33, 31, 20,  0,  0, 29,  0,  0,  0,  0,  0,  0, 25, 32,  0,  0, 26,  0, 33,  0,  0, 25,  0, 28,  0,  0,  0,  0,  0, 29,  0,  0
6, 11115, 4,N0CALL,     0.00, 3,   boost,   96.11,  99985.00,  112.15,    1.85,    5.14, 27.1, 3.85, 3.85, 3.85,-108.76,  15.40,   6.73,   0.35,   7.18, -21.97,  -0.62,   0.38,   0.29,   1.34, 3.87, 0.00, 0.00, 0.00, 0.00, 1, 1, 11,  40.3870391, -87.5135183,   206.0, 2025,  4, 12, 16, 21, 32,        0,        0,   0,   0,   1.2,   0.8,   0.9, 33, 31, 20,  0,  0, 29,  0,  0,  0,  0,  0,  0, 25, 32,  0,  0, 26,  0, 33,  0,  0, 25,  0, 28,  0,  0,  0,  0,  0, 29,  0,  0
6, 11115, 4,N0CALL,     0.00, 3,   boost,   96.11,  99985.00,  112.15,    1.85,    5.14, 27.1, 3.85, 3.85, 3.85,-108.76,  15.40,   6.73,   0.35,   7.18, -21.97,  -0.62,   0.38,   0.29,   1.34, 3.87, 0.00, 0.00, 0.00, 0.00, 1, 1, 11,  40.3870391, -87.5135183,   206.0, 2025,  4, 12, 16, 21, 32,        0,        0,   0,   0,   1.2,   0.8,   0.9, 33, 31, 20,  0,  0, 29,  0,  0,  0,  0,  0,  0, 25, 32,  0,  0, 26,  0, 33,  0,  0, 25,  0, 28,  0,  0,  0,  0,  0, 29,  0,  0
6, 11115, 4,N0CALL,     0.00, 3,   boost,   96.11,  99985.00,  112.15,    1.85,    5.14, 27.1, 3.85, 3.85, 3.85,-108.76,  15.40,   6.73,   0.35,   7.18, -21.97,  -0.62,   0.38,   0.29,   1.34, 3.87, 0.00, 0.00, 0.00, 0.00, 1, 1, 11,  40.3870391, -87.5135183,   206.0, 2025,  4, 12, 16, 21, 32,        0,        0,   0,   0,   1.2,   0.8,   0.9, 33, 31, 20,  0,  0, 29,  0,  0,  0,  0,  0,  0, 25, 32,  0,  0, 26,  0, 33,  0,  0, 25,  0, 28,  0,  0,  0,  0,  0, 29,  0,  0
6, 11115, 4,N0CALL,     0.00, 3,   boost,   96.11,  99985.00,  112.15,    1.85,    5.14, 27.1, 3.85, 3.85, 3.85,-108.76,  15.40,   6.73,   0.35,   7.18, -21.97,  -0.62,   0.38,   0.29,   1.34, 3.87, 0.00, 0.00, 0.00, 0.00, 1, 1, 11,  40.3870391, -87.5135183,   206.0, 2025,  4, 12, 16, 21, 32,        0,        0,   0,   0,   1.2,   0.8,   0.9, 33, 31, 20,  0,  0, 29,  0,  0,  0,  0,  0,  0, 25, 32,  0,  0, 26,  0, 33,  0,  0, 25,  0, 28,  0,  0,  0,  0,  0, 29,  0,  0
6, 11115, 4,N0CALL,     0.00, 3,   boost,   96.11,  99985.00,  112.15,    1.85,    5.14, 27.1, 3.85, 3.85, 3.85,-108.76,  15.40,   6.73,   0.35,   7.18, -21.97,  -0.62,   0.38,   0.29,   1.34, 3.87, 0.00, 0.00, 0.00, 0.00, 1, 1, 11,  40.3870391, -87.5135183,   206.0, 2025,  4, 12, 16, 21, 32,        0,        0,   0,   0,   1.2,   0.8,   0.9, 33, 31, 20,  0,  0, 29,  0,  0,  0,  0,  0,  0, 25, 32,  0,  0, 26,  0, 33,  0,  0, 25,  0, 28,  0,  0,  0,  0,  0, 29,  0,  0
6, 11115, 4,N0CALL,     0.00, 3,   boost,   96.11,  99985.00,  112.15,    1.85,    5.14, 27.1, 3.85, 3.85, 3.85,-108.76,  15.40,   6.73,   0.35,   7.18, -21.97,  -0.62,   0.38,   0.29,   1.34, 3.87, 0.00, 0.00, 0.00, 0.00, 1, 1, 11,  40.3870391, -87.5135183,   206.0, 2025,  4, 12, 16, 21, 32,        0,        0,   0,   0,   1.2,   0.8,   0.9, 33, 31, 20,  0,  0, 29,  0,  0,  0,  0,  0,  0, 25, 32,  0,  0, 26,  0, 33,  0,  0, 25,  0, 28,  0,  0,  0,  0,  0, 29,  0,  0
6, 11115, 4,N0CALL,     0.00, 3,   boost,   96.11,  99985.00,  112.15,    1.85,    5.14, 27.1, 3.85, 3.85, 3.85,-108.76,  15.40,   6.73,   0.35,   7.18, -21.97,  -0.62,   0.38,   0.29,   1.34, 3.87, 0.00, 0.00, 0.00, 0.00, 1, 1, 11,  40.3870391, -87.5135183,   206.0, 2025,  4, 12, 16, 21, 32,        0,        0,   0,   0,   1.2,   0.8,   0.9, 33, 31, 20,  0,  0, 29,  0,  0,  0,  0,  0,  0, 25, 32,  0,  0, 26,  0, 33,  0,  0, 25,  0, 28,  0,  0,  0,  0,  0, 29,  0,  0
6, 11115, 4,N0CALL,     0.00, 3,   boost,   96.11,  99985.00,  112.15,    1.85,    5.14, 27.1, 3.85, 3.85, 3.85,-108.76,  15.40,   6.73,   0.35,   7.18, -21.97,  -0.62,   0.38,   0.29,   1.34, 3.87, 0.00, 0.00, 0.00, 0.00, 1, 1, 11,  40.3870391, -87.5135183,   206.0, 2025,  4, 12, 16, 21, 32,        0,        0,   0,   0,   1.2,   0.8,   0.9, 33, 31, 20,  0,  0, 29,  0,  0,  0,  0,  0,  0, 25, 32,  0,  0, 26,  0, 33,  0,  0, 25,  0, 28,  0,  0,  0,  0,  0, 29,  0,  0
6, 11115, 4,N0CALL,     0.00, 3,   boost,   96.11,  99985.00,  112.15,    1.85,    5.14, 27.1, 3.85, 3.85, 3.85,-108.76,  15.40,   6.73,   0.35,   7.18, -21.97,  -0.62,   0.38,   0.29,   1.34, 3.87, 0.00, 0.00, 0.00, 0.00, 1, 1, 11,  40.3870391, -87.5135183,   206.0, 2025,  4, 12, 16, 21, 32,        0,        0,   0,   0,   1.2,   0.8,   0.9, 33, 31, 20,  0,  0, 29,  0,  0,  0,  0,  0,  0, 25, 32,  0,  0, 26,  0, 33,  0,  0, 25,  0, 28,  0,  0,  0,  0,  0, 29,  0,  0
6, 11115, 4,N0CALL,     0.00, 3,   boost,   96.11,  99985.00,  112.15,    1.85,    5.14, 27.1, 3.85, 3.85, 3.85,-108.76,  15.40,   6.73,   0.35,   7.18, -21.97,  -0.62,   0.38,   0.29,   1.34, 3.87, 0.00, 0.00, 0.00, 0.00, 1, 1, 11,  40.3870391, -87.5135183,   206.0, 2025,  4, 12, 16, 21, 32,        0,        0,   0,   0,   1.2,   0.8,   0.9, 33, 31, 20,  0,  0, 29,  0,  0,  0,  0,  0,  0, 25, 32,  0,  0, 26,  0, 33,  0,  0, 25,  0, 28,  0,  0,  0,  0,  0, 29,  0,  0
6, 11115, 4,N0CALL,     0.00, 3,   boost,   96.11,  99985.00,  112.15,    1.85,    5.14, 27.1, 3.85, 3.85, 3.85,-108.76,  15.40,   6.73,   0.35,   7.18, -21.97,  -0.62,   0.38,   0.29,   1.34, 3.87, 0.00, 0.00, 0.00, 0.00, 1, 1, 11,  40.3870391, -87.5135183,   206.0, 2025,  4, 12, 16, 21, 32,        0,        0,   0,   0,   1.2,   0.8,   0.9, 33, 31, 20,  0,  0, 29,  0,  0,  0,  0,  0,  0, 25, 32,  0,  0, 26,  0, 33,  0,  0, 25,  0, 28,  0,  0,  0,  0,  0, 29,  0,  0
6, 11115, 4,N0CALL,     0.00, 3,   boost,   96.11,  99985.00,  112.15,    1.85,    5.14, 27.1, 3.85, 3.85, 3.85,-108.76,  15.40,   6.73,   0.35,   7.18, -21.97,  -0.62,   0.38,   0.29,   1.34, 3.87, 0.00, 0.00, 0.00, 0.00, 1, 1, 11,  40.3870391, -87.5135183,   206.0, 2025,  4, 12, 16, 21, 32,        0,        0,   0,   0,   1.2,   0.8,   0.9, 33, 31, 20,  0,  0, 29,  0,  0,  0,  0,  0,  0, 25, 32,  0,  0, 26,  0, 33,  0,  0, 25,  0, 28,  0,  0,  0,  0,  0, 29,  0,  0
6, 11115, 4,N0CALL,     0.00, 3,   boost,   96.11,  99985.00,  112.15,    1.85,    5.14, 27.1, 3.85, 3.85, 3.85,-108.76,  15.40,   6.73,   0.35,   7.18, -21.97,  -0.62,   0.38,   0.29,   1.34, 3.87, 0.00, 0.00, 0.00, 0.00, 1, 1, 11,  40.3870391, -87.5135183,   206.0, 2025,  4, 12, 16, 21, 32,        0,        0,   0,   0,   1.2,   0.8,   0.9, 33, 31, 20,  0,  0, 29,  0,  0,  0,  0,  0,  0, 25, 32,  0,  0, 26,  0, 33,  0,  0, 25,  0, 28,  0,  0,  0,  0,  0, 29,  0,  0
6, 11115, 4,N0CALL,     0.00, 3,   boost,   96.11,  99985.00,  112.15,    1.85,    5.14, 27.1, 3.85, 3.85, 3.85,-108.76,  15.40,   6.73,   0.35,   7.18, -21.97,  -0.62,   0.38,   0.29,   1.34, 3.87, 0.00, 0.00, 0.00, 0.00, 1, 1, 11,  40.3870391, -87.5135183,   206.0, 2025,  4, 12, 16, 21, 32,        0,        0,   0,   0,   1.2,   0.8,   0.9, 33, 31, 20,  0,  0, 29,  0,  0,  0,  0,  0,  0, 25, 32,  0,  0, 26,  0, 33,  0,  0, 25,  0, 28,  0,  0,  0,  0,  0, 29,  0,  0
6, 11115, 4,N0CALL,     0.00, 3,   boost,   96.11,  99985.00,  112.15,    1.85,    5.14, 27.1, 3.85, 3.85, 3.85,-108.76,  15.40,   6.73,   0.35,   7.18, -21.97,  -0.62,   0.38,   0.29,   1.34, 3.87, 0.00, 0.00, 0.00, 0.00, 1, 1, 11,  40.3870391, -87.5135183,   206.0, 2025,  4, 12, 16, 21, 32,        0,        0,   0,   0,   1.2,   0.8,   0.9, 33, 31, 20,  0,  0, 29,  0,  0,  0,  0,  0,  0, 25, 32,  0,  0, 26,  0, 33,  0,  0, 25,  0, 28,  0,  0,  0,  0,  0, 29,  0,  0
6, 11115, 4,N0CALL,     0.00, 3,   boost,   96.11,  99985.00,  112.15,    1.85,    5.14, 27.1, 3.85, 3.85, 3.85,-108.76,  15.40,   6.73,   0.35,   7.18, -21.97,  -0.62,   0.38,   0.29,   1.34, 3.87, 0.00, 0.00, 0.00, 0.00, 1, 1, 11,  40.3870391, -87.5135183,   206.0, 2025,  4, 12, 16, 21, 32,        0,        0,   0,   0,   1.2,   0.8,   0.9, 33, 31, 20,  0,  0, 29,  0,  0,  0,  0,  0,  0, 25, 32,  0,  0, 26,  0, 33,  0,  0, 25,  0, 28,  0,  0,  0,  0,  0, 29,  0,  0
6, 11115, 4,N0CALL,     0.00, 3,   boost,   96.11,  99985.00,  112.15,    1.85,    5.14, 27.1, 3.85, 3.85, 3.85,-108.76,  15.40,   6.73,   0.35,   7.18, -21.97,  -0.62,   0.38,   0.29,   1.34, 3.87, 0.00, 0.00, 0.00, 0.00, 1, 1, 11,  40.3870391, -87.5135183,   206.0, 2025,  4, 12, 16, 21, 32,        0,        0,   0,   0,   1.2,   0.8,   0.9, 33, 31, 20,  0,  0, 29,  0,  0,  0,  0,  0,  0, 25, 32,  0,  0, 26,  0, 33,  0,  0, 25,  0, 28,  0,  0,  0,  0,  0, 29,  0,  0
6, 11115, 4,N0CALL,     0.00, 3,   boost,   96.11,  99985.00,  112.15,    1.85,    5.14, 27.1, 3.85, 3.85, 3.85,-108.76,  15.40,   6.73,   0.35,   7.18, -21.97,  -0.62,   0.38,   0.29,   1.34, 3.87, 0.00, 0.00, 0.00, 0.00, 1, 1, 11,  40.3870391, -87.5135183,   206.0, 2025,  4, 12, 16, 21, 32,        0,        0,   0,   0,   1.2,   0.8,   0.9, 33, 31, 20,  0,  0, 29,  0,  0,  0,  0,  0,  0, 25, 32,  0,  0, 26,  0, 33,  0,  0, 25,  0, 28,  0,  0,  0,  0,  0, 29,  0,  0
6, 11115, 4,N0CALL,     0.00, 3,   boost,   96.11,  99985.00,  112.15,    1.85,    5.14, 27.1, 3.85, 3.85, 3.85,-108.76,  15.40,   6.73,   0.35,   7.18, -21.97,  -0.62,   0.38,   0.29,   1.40, 3.87, 0.00, 0.00, 0.00, 0.00, 1, 1, 11,  40.3870391, -87.5135183,   206.0, 2025,  4, 12, 16, 21, 32,        0,        0,   0,   0,   1.2,   0.8,   0.9, 33, 31, 20,  0,  0, 29,  0,  0,  0,  0,  0,  0, 25, 32,  0,  0, 26,  0, 33,  0,  0, 25,  0, 28,  0,  0,  0,  0,  0, 29,  0,  0
6, 11115, 4,N0CALL,     0.00, 3,   boost,   96.11,  99985.00,  112.15,    1.85,    5.14, 27.1, 3.85, 3.85, 3.85,-108.76,  15.40,   6.73,   0.35,   7.18, -21.97,  -0.62,   0.38,   0.29,   1.24, 3.87, 0.00, 0.00, 0.00, 0.00, 1, 1, 11,  40.3870391, -87.5135183,   206.0, 2025,  4, 12, 16, 21, 32,        0,        0,   0,   0,   1.2,   0.8,   0.9, 33, 31, 20,  0,  0, 29,  0,  0,  0,  0,  0,  0, 25, 32,  0,  0, 26,  0, 33,  0,  0, 25,  0, 28,  0,  0,  0,  0,  0, 29,  0,  0
6, 11115, 4,N0CALL,     0.00, 3,   boost,   96.11,  99985.00,  112.15,    1.85,    5.14, 27.1, 3.85, 3.85, 3.85,-108.76,  15.40,   6.73,   0.35,   7.18, -21.97,  -0.62,   0.38,   0.29,   1.06, 3.87, 0.00, 0.00, 0.00, 0.00, 1, 1, 11,  40.3870391, -87.5135183,   206.0, 2025,  4, 12, 16, 21, 32,        0,        0,   0,   0,   1.2,   0.8,   0.9, 33, 31, 20,  0,  0, 29,  0,  0,  0,  0,  0,  0, 25, 32,  0,  0, 26,  0, 33,  0,  0, 25,  0, 28,  0,  0,  0,  0,  0, 29,  0,  0
6, 11115, 4,N0CALL,     0.00, 3,   boost,   96.11,  99985.00,  112.15,    1.85,    5.14, 27.1, 3.85, 3.85, 3.85,-108.76,  15.40,   6.73,   0.35,   7.18, -21.97,  -0.62,   0.38,   0.29,   0.94, 3.87, 0.00, 0.00, 0.00, 0.00, 1, 1, 11,  40.3870391, -87.5135183,   206.0, 2025,  4, 12, 16, 21, 32,        0,        0,   0,   0,   1.2,   0.8,   0.9, 33, 31, 20,  0,  0, 29,  0,  0,  0,  0,  0,  0, 25, 32,  0,  0, 26,  0, 33,  0,  0, 25,  0, 28,  0,  0,  0,  0,  0, 29,  0,  0
6, 11115, 4,N0CALL,     0.00, 3,   boost,   96.11,  99985.00,  112.15,    1.85,    5.14, 27.1, 3.85, 3.85, 3.85,-108.76,  15.40,   6.73,   0.35,   7.18, -21.97,  -0.62,   0.38,   0.29,   0.73, 3.87, 0.00, 0.00, 0.00, 0.00, 1, 1, 11,  40.3870391, -87.5135183,   206.0, 2025,  4, 12, 16, 21, 32,        0,        0,   0,   0,   1.2,   0.8,   0.9, 33, 31, 20,  0,  0, 29,  0,  0,  0,  0,  0,  0, 25, 32,  0,  0, 26,  0, 33,  0,  0, 25,  0, 28,  0,  0,  0,  0,  0, 29,  0,  0
6, 11115, 4,N0CALL,     0.01, 3,   boost,   96.60, 100006.00,  110.38,    0.08,    6.11, 27.1, 3.85, 3.85, 3.85,-105.27, -42.57,  -7.34,  15.24,   3.03,   3.73,  -0.62,   0.38,   0.29,   0.77, 3.87, 0.00, 0.00, 0.00, 0.00, 1, 1, 11,  40.3870391, -87.5135183,   206.0, 2025,  4, 12, 16, 21, 32,        0,        0,   0,   0,   1.2,   0.8,   0.9, 33, 31, 20,  0,  0, 29,  0,  0,  0,  0,  0,  0, 25, 32,  0,  0, 26,  0, 33,  0,  0, 25,  0, 28,  0,  0,  0,  0,  0, 29,  0,  0
6, 11115, 4,N0CALL,     0.01, 3,   boost,   96.60, 100006.00,  110.38,    0.08,    6.11, 27.1, 3.85, 3.85, 3.85,-105.27, -42.57,  -7.34,  15.24,   3.03,   3.73,  -0.62,   0.38,   0.29,   0.77, 3.87, 0.00, 0.00, 0.00, 0.00, 1, 1, 11,  40.3870391, -87.5135183,   206.0, 2025,  4, 12, 16, 21, 32,        0,        0,   0,   0,   1.2,   0.8,   0.9, 33, 31, 20,  0,  0, 29,  0,  0,  0,  0,  0,  0, 25, 32,  0,  0, 26,  0, 33,  0,  0, 25,  0, 28,  0,  0,  0,  0,  0, 29,  0,  0
6, 11115, 4,N0CALL,     0.02, 3,   boost,   97.58, 100006.00,  110.38,    0.08,    7.08, 27.1, 3.85, 3.85, 3.86,-106.06,  14.71,   2.13,  21.10,   2.24,  10.50,  -0.62,   0.39,   0.29,   0.88, 3.87, 0.00, 0.00, 0.00, 0.00, 1, 1, 11,  40.3870391, -87.5135183,   206.0, 2025,  4, 12, 16, 21, 32,        0,        0,   0,   0,   1.2,   0.8,   0.9, 33, 31, 20,  0,  0, 29,  0,  0,  0,  0,  0,  0, 25, 32,  0,  0, 26,  0, 33,  0,  0, 25,  0, 28,  0,  0,  0,  0,  0, 29,  0,  0
6, 11115, 4,N0CALL,     0.02, 3,   boost,   97.58, 100006.00,  110.38,    0.08,    7.08, 27.1, 3.85, 3.85, 3.86,-106.06,  14.71,   2.13,  21.10,   2.24,  10.50,  -0.62,   0.39,   0.29,   0.88, 3.87, 0.00, 0.00, 0.00, 0.00, 1, 1, 11,  40.3870391, -87.5135183,   206.0, 2025,  4, 12, 16, 21, 32,        0,        0,   0,   0,   1.2,   0.8,   0.9, 33, 31, 20,  0,  0, 29,  0,  0,  0,  0,  0,  0, 25, 32,  0,  0, 26,  0, 33,  0,  0, 25,  0, 28,  0,  0,  0,  0,  0, 29,  0,  0
6, 11115, 4,N0CALL,     0.03, 3,   boost,   98.07,  99998.00,  111.05,    0.76,    8.07, 27.1, 3.85, 3.85, 3.86,-105.59, -19.69,  -4.33,  27.39,   0.29,  21.31,  -0.62,   0.39,   0.29,   1.09, 3.87, 0.00, 0.00, 0.00, 0.00, 1, 1, 11,  40.3870391, -87.5135183,   206.0, 2025,  4, 12, 16, 21, 32,        0,        0,   0,   0,   1.2,   0.8,   0.9, 33, 31, 20,  0,  0, 29,  0,  0,  0,  0,  0,  0, 25, 32,  0,  0, 26,  0, 33,  0,  0, 25,  0, 28,  0,  0,  0,  0,  0, 29,  0,  0
6, 11115, 4,N0CALL,     0.04, 3,   boost,  101.99,  99998.00,  111.05,    0.76,    9.08, 27.1, 3.85, 3.85, 3.86,-114.81,   2.85,   0.64,  38.56,  -1.91,  10.32,  -0.62,   0.39,   0.29,   1.19, 3.87, 0.00, 0.00, 0.00, 0.00, 1, 1, 11,  40.3870391, -87.5135183,   206.0, 2025,  4, 12, 16, 21, 32,        0,        0,   0,   0,   1.2,   0.8,   0.9, 33, 31, 20,  0,  0, 29,  0,  0,  0,  0,  0,  0, 25, 32,  0,  0, 26,  0, 33,  0,  0, 25,  0, 28,  0,  0,  0,  0,  0, 29,  0,  0
6, 11115, 4,N0CALL,     0.05, 3,   boost,  103.46, 100000.00,  110.88,    0.59,   10.09, 27.1, 3.85, 3.85, 3.86,-111.88,   7.21,  -0.07,  31.78,   2.73,  14.41,  -0.62,   0.39,   0.29,   1.33, 3.87, 0.00, 0.00, 0.00, 0.00, 1, 1, 11,  40.3870391, -87.5135183,   206.0, 2025,  4, 12, 16, 21, 32,        0,        0,   0,   0,   1.2,   0.8,   0.9, 33, 31, 20,  0,  0, 29,  0,  0,  0,  0,  0,  0, 25, 32,  0,  0, 26,  0, 33,  0,  0, 25,  0, 28,  0,  0,  0,  0,  0, 29,  0,  0
6, 11115, 4,N0CALL,     0.06, 3,   boost,  104.44, 100000.00,  110.88,    0.59,   11.12, 27.1, 3.85, 3.85, 3.86,-114.77,   9.91,   4.20,  16.04,  -3.50,  13.74,  -0.62,   0.40,   0.29,   1.47, 3.87, 0.00, 0.00, 0.00, 0.00, 1, 1, 11,  40.3870391, -87.5135183,   206.0, 2025,  4, 12, 16, 21, 32,        0,        0,   0,   0,   1.2,   0.8,   0.9, 33, 31, 20,  0,  0, 29,  0,  0,  0,  0,  0,  0, 25, 32,  0,  0, 26,  0, 33,  0,  0, 25,  0, 28,  0,  0,  0,  0,  0, 29,  0,  0
6, 11115, 4,N0CALL,     0.07, 3,   boost,  104.44,  99998.00,  111.05,    0.76,   12.16, 27.1, 3.85, 3.85, 3.86,-115.59,  -3.36,  -1.11,  -8.19,  -1.73,   9.77,  -0.62,   0.39,   0.29,   1.56, 3.87, 0.00, 0.00, 0.00, 0.00, 1, 1, 11,  40.3870391, -87.5135183,   206.0, 2025,  4, 12, 16, 21, 32,        0,        0,   0,   0,   1.2,   0.8,   0.9, 33, 31, 20,  0,  0, 29,  0,  0,  0,  0,  0,  0, 25, 32,  0,  0, 26,  0, 33,  0,  0, 25,  0, 28,  0,  0,  0,  0,  0, 29,  0,  0
6, 11115, 4,N0CALL,     0.08, 3,   boost,  105.91,  99998.00,  111.05,    0.76,   13.21, 27.1, 3.85, 3.85, 3.86,-116.76,   2.20,   1.40, -21.99,   1.20,   5.44,  -0.62,   0.39,   0.29,   1.62, 3.87, 0.00, 0.00, 0.00, 0.00, 1, 1, 11,  40.3870391, -87.5135183,   206.0, 2025,  4, 12, 16, 21, 32,        0,        0,   0,   0,   1.2,   0.8,   0.9, 33, 31, 20,  0,  0, 29,  0,  0,  0,  0,  0,  0, 25, 32,  0,  0, 26,  0, 33,  0,  0, 25,  0, 28,  0,  0,  0,  0,  0, 29,  0,  0
6, 11115, 4,N0CALL,     0.09, 3,   boost,  104.93,  99997.00,  111.14,    0.84,   14.27, 27.1, 3.85, 3.85, 3.86,-117.76,   2.62,   2.00, -35.23,   1.38,   4.64,  -0.62,   0.39,   0.29,   1.67, 3.87, 0.00, 0.00, 0.00, 0.00, 1, 1, 11,  40.3870391, -87.5135183,   206.0, 2025,  4, 12, 16, 21, 32,        0,        0,   0,   0,   1.2,   0.8,   0.9, 33, 31, 20,  0,  0, 29,  0,  0,  0,  0,  0,  0, 25, 32,  0,  0, 26,  0, 33,  0,  0, 25,  0, 28,  0,  0,  0,  0,  0, 29,  0,  0
6, 11115, 4,N0CALL,     0.10, 3,   boost,  106.89,  99997.00,  111.14,    0.84,   15.33, 27.1, 3.85, 3.85, 3.86,-118.64,   3.97,   2.28, -31.26,   0.35,   1.59,  -0.62,   0.39,   0.29,   1.68, 3.87, 0.00, 0.00, 0.00, 0.00, 1, 1, 11,  40.3870391, -87.5135183,   206.0, 2025,  4, 12, 16, 21, 32,        0,        0,   0,   0,   1.2,   0.8,   0.9, 33, 31, 20,  0,  0, 29,  0,  0,  0,  0,  0,  0, 25, 32,  0,  0, 26,  0, 33,  0,  0, 25,  0, 28,  0,  0,  0,  0,  0, 29,  0,  0
6, 11115, 4,N0CALL,     0.11, 3,   boost,  109.34, 100000.00,  110.88,    0.59,   16.40, 27.1, 3.85, 3.85, 3.86,-118.35,  -4.77,   0.30, -23.64,   0.84,   3.85,  -0.62,   0.39,   0.29,   1.72, 3.87, 0.00, 0.00, 0.00, 0.00, 1, 1, 11,  40.3870391, -87.5135183,   206.0, 2025,  4, 12, 16, 21, 32,        0,        0,   0,   0,   1.2,   0.8,   0.9, 33, 31, 20,  0,  0, 29,  0,  0,  0,  0,  0,  0, 25, 32,  0,  0, 26,  0, 33,  0,  0, 25,  0, 28,  0,  0,  0,  0,  0, 29,  0,  0
6, 11115, 4,N0CALL,     0.12, 3,   boost,  104.93, 100000.00,  110.88,    0.59,   17.47, 27.1, 3.85, 3.85, 3.86,-119.05,  -3.76,   2.54, -11.49,   0.96,   3.55,  -0.62,   0.39,   0.29,   1.76, 3.87, 0.00, 0.00, 0.00, 0.00, 1, 1, 11,  40.3870391, -87.5135183,   206.0, 2025,  4, 12, 16, 21, 32,        0,        0,   0,   0,   1.2,   0.8,   0.9, 33, 31, 20,  0,  0, 29,  0,  0,  0,  0,  0,  0, 25, 32,  0,  0, 26,  0, 33,  0,  0, 25,  0, 28,  0,  0,  0,  0,  0, 29,  0,  0
6, 11115, 4,N0CALL,     0.13, 3,   boost,  106.89,  99990.00,  111.73,    1.43,   18.54, 27.1, 3.85, 3.85, 3.86,-119.16,   1.46,   0.38,  -2.03,  -0.02,   2.26,  -0.61,   0.40,   0.29,   1.78, 3.87, 0.00, 0.00, 0.00, 0.00, 1, 1, 11,  40.3870391, -87.5135183,   206.0, 2025,  4, 12, 16, 21, 32,        0,        0,   0,   0,   1.2,   0.8,   0.9, 33, 31, 20,  0,  0, 29,  0,  0,  0,  0,  0,  0, 25, 32,  0,  0, 26,  0, 33,  0,  0, 25,  0, 28,  0,  0,  0,  0,  0, 29,  0,  0
6, 11115, 4,N0CALL,     0.14, 3,   boost,  107.87,  99990.00,  111.73,    1.43,   19.61, 27.1, 3.85, 3.85, 3.86,-120.35, -15.08,   0.04,  -3.01,  -0.32,   7.45,  -0.61,   0.40,   0.29,   1.85, 3.87, 0.00, 0.00, 0.00, 0.00, 1, 1, 11,  40.3870391, -87.5135183,   206.0, 2025,  4, 12, 16, 21, 32,        0,        0,   0,   0,   1.2,   0.8,   0.9, 33, 31, 20,  0,  0, 29,  0,  0,  0,  0,  0,  0, 25, 32,  0,  0, 26,  0, 33,  0,  0, 25,  0, 28,  0,  0,  0,  0,  0, 29,  0,  0
6, 11115, 4,N0CALL,     0.15, 3,   boost,  109.34,  99995.00,  111.31,    1.01,   20.68, 27.1, 3.85, 3.85, 3.86,-121.65,  -0.96,  -2.21, -12.28,  -1.36,   6.05,  -0.61,   0.40,   0.29,   1.91, 3.87, 0.00, 0.00, 0.00, 0.00, 1, 1, 11,  40.3870391, -87.5135183,   206.0, 2025,  4, 12, 16, 21, 32,        0,        0,   0,   0,   1.2,   0.8,   0.9, 33, 31, 20,  0,  0, 29,  0,  0,  0,  0,  0,  0, 25, 32,  0,  0, 26,  0, 33,  0,  0, 25,  0, 28,  0,  0,  0,  0,  0, 29,  0,  0
6, 11115, 4,N0CALL,     0.16, 3,   boost,  105.91,  99995.00,  111.31,    1.01,   21.76, 27.1, 3.85, 3.85, 3.86,-120.54,   8.83,  -1.29,   6.15,  -0.87,   0.86,  -0.62,   0.39,   0.29,   1.92, 3.87, 0.00, 0.00, 0.00, 0.00, 1, 1, 11,  40.3870391, -87.5135183,   206.0, 2025,  4, 12, 16, 21, 32,        0,        0,   0,   0,   1.2,   0.8,   0.9, 33, 31, 20,  0,  0, 29,  0,  0,  0,  0,  0,  0, 25, 32,  0,  0, 26,  0, 33,  0,  0, 25,  0, 28,  0,  0,  0,  0,  0, 29,  0,  0
6, 11115, 4,N0CALL,     0.17, 3,   boost,  106.89,  99987.00,  111.98,    1.68,   22.84, 27.1, 3.85, 3.85, 3.86,-119.88,   1.67,   7.55,   6.15,   1.69,   2.45,  -0.62,   0.40,   0.29,   1.95, 3.87, 0.00, 0.00, 0.00, 0.00, 1, 1, 11,  40.3870391, -87.5135183,   206.0, 2025,  4, 12, 16, 21, 32,        0,        0,   0,   0,   1.2,   0.8,   0.9, 33, 31, 20,  0,  0, 29,  0,  0,  0,  0,  0,  0, 25, 32,  0,  0, 26,  0, 33,  0,  0, 25,  0, 28,  0,  0,  0,  0,  0, 29,  0,  0
6, 11115, 4,N0CALL,     0.18, 3,   boost,  107.38,  99987.00,  111.98,    1.68,   23.93, 27.1, 3.85, 3.85, 3.86,-119.78, -20.40,   1.54,  11.34,  -1.73,  11.30,  -0.62,   0.40,   0.29,   2.06, 3.87, 0.00, 0.00, 0.00, 0.00, 1, 1, 11,  40.3870391, -87.5135183,   206.0, 2025,  4, 12, 16, 21, 32,        0,        0,   0,   0,   1.2,   0.8,   0.9, 33, 31, 20,  0,  0, 29,  0,  0,  0,  0,  0,  0, 25, 32,  0,  0, 26,  0, 33,  0,  0, 25,  0, 28,  0,  0,  0,  0,  0, 29,  0,  0
6, 11115, 4,N0CALL,     0.19, 3,   boost,  116.70,  99992.00,  111.56,    1.26,   25.03, 27.1, 3.85, 3.85, 3.86,-120.28,  -5.32,  -0.52,   9.75,   0.96,  17.28,  -0.62,   0.40,   0.29,   2.23, 3.87, 0.00, 0.00, 0.00, 0.00, 1, 1, 11,  40.3870391, -87.5135183,   206.0, 2025,  4, 12, 16, 21, 32,        0,        0,   0,   0,   1.2,   0.8,   0.9, 33, 31, 20,  0,  0, 29,  0,  0,  0,  0,  0,  0, 25, 32,  0,  0, 26,  0, 33,  0,  0, 25,  0, 28,  0,  0,  0,  0,  0, 29,  0,  0
6, 11115, 4,N0CALL,     0.20, 3,   boost,  107.87,  99992.00,  111.56,    1.26,   26.13, 27.1, 3.85, 3.85, 3.86,-122.31,   8.95,   3.87,  11.58,   0.65,  13.98,  -0.62,   0.40,   0.29,   2.37, 3.87, 0.00, 0.00, 0.00, 0.00, 1, 1, 11,  40.3870391, -87.5135183,   206.0, 2025,  4, 12, 16, 21, 32,        0,        0,   0,   0,   1.2,   0.8,   0.9, 33, 31, 20,  0,  0, 29,  0,  0,  0,  0,  0,  0, 25, 32,  0,  0, 26,  0, 33,  0,  0, 25,  0, 28,  0,  0,  0,  0,  0, 29,  0,  0
6, 11115, 4,N0CALL,     0.21, 3,   boost,  112.78,  99996.00,  111.22,    0.93,   27.24, 27.1, 3.85, 3.85, 3.86,-121.49,  -8.24,   0.19,  13.11,   0.04,  15.75,  -0.62,   0.40,   0.29,   2.53, 3.87, 0.00, 0.00, 0.00, 0.00, 1, 1, 11,  40.3870391, -87.5135183,   206.0, 2025,  4, 12, 16, 21, 32,        0,        0,   0,   0,   1.2,   0.8,   0.9, 33, 31, 20,  0,  0, 29,  0,  0,  0,  0,  0,  0, 25, 32,  0,  0, 26,  0, 33,  0,  0, 25,  0, 28,  0,  0,  0,  0,  0, 29,  0,  0
6, 11115, 4,N0CALL,     0.22, 3,   boost,  109.83,  99996.00,  111.22,    0.93,   28.34, 27.1, 3.85, 3.85, 3.86,-123.05,   4.53,   6.37,   3.22,   3.70,   5.50,  -0.62,   0.40,   0.29,   2.59, 3.87, 0.00, 0.00, 0.00, 0.00, 1, 1, 11,  40.3870391, -87.5135183,   206.0, 2025,  4, 12, 16, 21, 32,        0,        0,   0,   0,   1.2,   0.8,   0.9, 33, 31, 20,  0,  0, 29,  0,  0,  0,  0,  0,  0, 25, 32,  0,  0, 26,  0, 33,  0,  0, 25,  0, 28,  0,  0,  0,  0,  0, 29,  0,  0
6, 11115, 4,N0CALL,     0.23, 3,   boost,  110.32,  99965.00,  113.83,    3.53,   29.44, 27.1, 3.85, 3.85, 3.86,-122.06,  -1.79,  -2.66,   2.12,   2.48,  11.18,  -0.62,   0.40,   0.29,   2.70, 3.87, 0.00, 0.00, 0.00, 0.00, 1, 1, 11,  40.3870391, -87.5135183,   206.0, 2025,  4, 12, 16, 21, 32,        0,        0,   0,   0,   1.2,   0.8,   0.9, 33, 31, 20,  0,  0, 29,  0,  0,  0,  0,  0,  0, 25, 32,  0,  0, 26,  0, 33,  0,  0, 25,  0, 28,  0,  0,  0,  0,  0, 29,  0,  0
6, 11115, 4,N0CALL,     0.24, 3,   boost,  107.87,  99965.00,  113.83,    3.53,   30.54, 27.1, 3.85, 3.85, 3.86,-122.13,  -3.72,  -0.81,   1.45,   3.76,  12.58,  -0.61,   0.40,   0.29,   2.83, 3.87, 0.00, 0.00, 0.00, 0.00, 1, 1, 11,  40.3870391, -87.5135183,   206.0, 2025,  4, 12, 16, 21, 32,        0,        0,   0,   0,   1.2,   0.8,   0.9, 33, 31, 20,  0,  0, 29,  0,  0,  0,  0,  0,  0, 25, 32,  0,  0, 26,  0, 33,  0,  0, 25,  0, 28,  0,  0,  0,  0,  0, 29,  0,  0
6, 11115, 4,N0CALL,     0.25, 3,   boost,  108.85,  99967.00,  113.66,    3.37,   31.63, 27.1, 3.85, 3.85, 3.86,-121.97,  -5.98,  -0.50,  -0.56,   4.44,  10.81,  -0.61,   0.40,   0.29,   2.94, 3.87, 0.00, 0.00, 0.00, 0.00, 1, 1, 11,  40.3870391, -87.5135183,   206.0, 2025,  4, 12, 16, 21, 32,        0,        0,   0,   0,   1.2,   0.8,   0.9, 33, 31, 20,  0,  0, 29,  0,  0,  0,  0,  0,  0, 25, 32,  0,  0, 26,  0, 33,  0,  0, 25,  0, 28,  0,  0,  0,  0,  0, 29,  0,  0
6, 11115, 4,N0CALL,     0.26, 3,   boost,  109.83,  99967.00,  113.66,    3.37,   32.72, 27.1, 3.85, 3.85, 3.86,-121.91,  -3.09,  -0.53,  -2.21,   5.35,  14.29,  -0.61,   0.41,   0.29,   3.09, 3.87, 0.00, 0.00, 0.00, 0.00, 1, 1, 11,  40.3870391, -87.5135183,   206.0, 2025,  4, 12, 16, 21, 32,        0,        0,   0,   0,   1.2,   0.8,   0.9, 33, 31, 20,  0,  0, 29,  0,  0,  0,  0,  0,  0, 25, 32,  0,  0, 26,  0, 33,  0,  0, 25,  0, 28,  0,  0,  0,  0,  0, 29,  0,  0
6, 11115, 4,N0CALL,     0.27, 3,   boost,  110.82,  99958.00,  114.42,    4.12,   33.82, 27.1, 3.85, 3.85, 3.86,-122.53,  -3.08,   3.46,  -3.68,   5.23,  14.96,  -0.61,   0.41,   0.29,   3.24, 3.87, 0.00, 0.00, 0.00, 0.00, 1, 1, 11,  40.3870391, -87.5135183,   206.0, 2025,  4, 12, 16, 21, 32,        0,        0,   0,   0,   1.2,   0.8,   0.9, 33, 31, 20,  0,  0, 29,  0,  0,  0,  0,  0,  0, 25, 32,  0,  0, 26,  0, 33,  0,  0, 25,  0, 28,  0,  0,  0,  0,  0, 29,  0,  0
6, 11115, 4,N0CALL,     0.28, 3,   boost,  109.83,  99958.00,  114.42,    4.12,   34.91, 27.1, 3.85, 3.85, 3.86,-122.74,  -0.55,   1.59,  -4.71,   6.02,  15.20,  -0.61,   0.41,   0.29,   3.40, 3.87, 0.00, 0.00, 0.00, 0.00, 1, 1, 11,  40.3870391, -87.5135183,   206.0, 2025,  4, 12, 16, 21, 32,        0,        0,   0,   0,   1.2,   0.8,   0.9, 33, 31, 20,  0,  0, 29,  0,  0,  0,  0,  0,  0, 25, 32,  0,  0, 26,  0, 33,  0,  0, 25,  0, 28,  0,  0,  0,  0,  0, 29,  0,  0
6, 11115, 4,N0CALL,     0.29, 3,   boost,  108.85,  99956.00,  114.59,    4.29,   36.01, 27.1, 3.85, 3.85, 3.86,-123.13,  -2.46,   0.15,  -5.75,   6.69,  15.81,  -0.61,   0.41,   0.30,   3.57, 3.87, 0.00, 0.00, 0.00, 0.00, 1, 1, 11,  40.3870391, -87.5135183,   206.0, 2025,  4, 12, 16, 21, 32,        0,        0,   0,   0,   1.2,   0.8,   0.9, 33, 31, 20,  0,  0, 29,  0,  0,  0,  0,  0,  0, 25, 32,  0,  0, 26,  0, 33,  0,  0, 25,  0, 28,  0,  0,  0,  0,  0, 29,  0,  0
6, 11115, 4,N0CALL,     0.30, 3,   boost,  109.83,  99956.00,  114.59,    4.29,   37.11, 27.1, 3.85, 3.85, 3.86,-123.31,  -4.34,   0.37,  -7.03,   7.24,  16.79,  -0.61,   0.41,   0.30,   3.74, 3.87, 0.00, 0.00, 0.00, 0.00, 1, 1, 11,  40.3870391, -87.5135183,   206.0, 2025,  4, 12, 16, 21, 32,        0,        0,   0,   0,   1.2,   0.8,   0.9, 33, 31, 20,  0,  0, 29,  0,  0,  0,  0,  0,  0, 25, 32,  0,  0, 26,  0, 33,  0,  0, 25,  0, 28,  0,  0,  0,  0,  0, 29,  0,  0
6, 11115, 4,N0CALL,     0.31, 3,   boost,  111.31,  99940.00,  115.93,    5.64,   38.21, 27.1, 3.85, 3.85, 3.86,-123.84,  -2.92,   0.87,  -8.68,   7.92,  17.83,  -0.61,   0.41,   0.30,   3.93, 3.87, 0.00, 0.00, 0.00, 0.00, 1, 1, 11,  40.3870391, -87.5135183,   206.0, 2025,  4, 12, 16, 21, 32,        0,        0,   0,   0,   1.2,   0.8,   0.9, 33, 31, 20,  0,  0, 29,  0,  0,  0,  0,  0,  0, 25, 32,  0,  0, 26,  0, 33,  0,  0, 25,  0, 28,  0,  0,  0,  0,  0, 29,  0,  0
6, 11115, 4,N0CALL,     0.32, 3,   boost,  111.31,  99940.00,  115.93,    5.64,   39.32, 27.1, 3.85, 3.85, 3.86,-123.61,  -1.42,   0.51,  -9.96,   8.46,  18.44,  -0.61,   0.41,   0.30,   4.13, 3.87, 0.00, 0.00, 0.00, 0.00, 1, 1, 11,  40.3870391, -87.5135183,   206.0, 2025,  4, 12, 16, 21, 32,        0,        0,   0,   0,   1.2,   0.8,   0.9, 33, 31, 20,  0,  0, 29,  0,  0,  0,  0,  0,  0, 25, 32,  0,  0, 26,  0, 33,  0,  0, 25,  0, 28,  0,  0,  0,  0,  0, 29,  0,  0
6, 11115, 4,N0CALL,     0.33, 3,   boost,  112.29,  99951.00,  115.01,    4.71,   40.42, 27.1, 3.85, 3.85, 3.86,-123.61,  -2.31,  -0.02, -11.61,   9.07,  18.74,  -0.61,   0.41,   0.30,   4.33, 3.87, 0.00, 0.00, 0.00, 0.00, 1, 1, 11,  40.3870391, -87.5135183,   206.0, 2025,  4, 12, 16, 21, 32,        0,        0,   0,   0,   1.2,   0.8,   0.9, 33, 31, 20,  0,  0, 29,  0,  0,  0,  0,  0,  0, 25, 32,  0,  0, 26,  0, 33,  0,  0, 25,  0, 28,  0,  0,  0,  0,  0, 29,  0,  0
6, 11115, 4,N0CALL,     0.34, 3,   boost,  110.32,  99951.00,  115.01,    4.71,   41.53, 27.1, 3.85, 3.85, 3.85,-123.25,  -3.42,   0.54, -13.38,   9.69,  19.23,  -0.61,   0.41,   0.30,   4.54, 3.87, 0.01, 0.00, 0.00, 0.00, 1, 1, 11,  40.3870391, -87.5135183,   206.0, 2025,  4, 12, 16, 21, 32,        0,        0,   0,   0,   1.2,   0.8,   0.9, 33, 31, 20,  0,  0, 29,  0,  0,  0,  0,  0,  0, 25, 32,  0,  0, 26,  0, 33,  0,  0, 25,  0, 28,  0,  0,  0,  0,  0, 29,  0,  0
6, 11115, 4,N0CALL,     0.34, 3,   boost,  110.32,  99951.00,  115.01,    4.71,   41.53, 27.1, 3.85, 3.85, 3.85,-123.25,  -3.42,   0.54, -13.38,   9.69,  19.23,  -0.61,   0.41,   0.30,   4.54, 3.87, 0.01, 0.00, 0.00, 0.00, 1, 1, 11,  40.3870391, -87.5135183,   206.0, 2025,  4, 12, 16, 21, 32,        0,        0,   0,   0,   1.2,   0.8,   0.9, 33, 31, 20,  0,  0, 29,  0,  0,  0,  0,  0,  0, 25, 32,  0,  0, 26,  0, 33,  0,  0, 25,  0, 28,  0,  0,  0,  0,  0, 29,  0,  0
6, 11115, 4,N0CALL,     0.35, 3,   boost,  110.82,  99939.00,  116.02,    5.72,   42.64, 27.1, 3.85, 3.85, 3.85,-123.54,  -2.74,   0.74, -14.91,   9.99,  19.84,  -0.61,   0.42,   0.30,   4.75, 3.87, 0.01, 0.00, 0.00, 0.00, 1, 1, 11,  40.3870391, -87.5135183,   206.0, 2025,  4, 12, 16, 21, 32,        0,        0,   0,   0,   1.2,   0.8,   0.9, 33, 31, 20,  0,  0, 29,  0,  0,  0,  0,  0,  0, 25, 32,  0,  0, 26,  0, 33,  0,  0, 25,  0, 28,  0,  0,  0,  0,  0, 29,  0,  0
6, 11115, 4,N0CALL,     0.36, 3,   boost,  111.31,  99939.00,  116.02,    5.72,   43.75, 27.1, 3.85, 3.85, 3.85,-123.79,  -1.53,   0.94, -16.13,  10.30,  20.15,  -0.61,   0.42,   0.30,   4.97, 3.87, 0.01, 0.00, 0.00, 0.00, 1, 1, 11,  40.3870391, -87.5135183,   206.0, 2025,  4, 12, 16, 21, 32,        0,        0,   0,   0,   1.2,   0.8,   0.9, 33, 31, 20,  0,  0, 29,  0,  0,  0,  0,  0,  0, 25, 32,  0,  0, 26,  0, 33,  0,  0, 25,  0, 28,  0,  0,  0,  0,  0, 29,  0,  0
6, 11115, 4,N0CALL,     0.37, 3,   boost,  112.78,  99921.00,  117.53,    7.24,   44.86, 27.1, 3.85, 3.85, 3.85,-124.28,  -2.12,   0.12, -17.29,  10.66,  20.64,  -0.60,   0.42,   0.30,   5.20, 3.87, 0.01, 0.00, 0.00, 0.00, 1, 1, 11,  40.3870391, -87.5135183,   206.0, 2025,  4, 12, 16, 21, 32,        0,        0,   0,   0,   1.2,   0.8,   0.9, 33, 31, 20,  0,  0, 29,  0,  0,  0,  0,  0,  0, 25, 32,  0,  0, 26,  0, 33,  0,  0, 25,  0, 28,  0,  0,  0,  0,  0, 29,  0,  0
6, 11115, 4,N0CALL,     0.38, 3,   boost,  111.31,  99921.00,  117.53,    7.24,   45.98, 27.1, 3.85, 3.85, 3.85,-124.43,  -2.95,   0.44, -19.06,  11.27,  21.12,  -0.61,   0.42,   0.30,   5.43, 3.87, 0.01, 0.00, 0.00, 0.00, 1, 1, 11,  40.3870391, -87.5135183,   206.0, 2025,  4, 12, 16, 21, 32,        0,        0,   0,   0,   1.2,   0.8,   0.9, 33, 31, 20,  0,  0, 29,  0,  0,  0,  0,  0,  0, 25, 32,  0,  0, 26,  0, 33,  0,  0, 25,  0, 28,  0,  0,  0,  0,  0, 29,  0,  0
6, 11115, 4,N0CALL,     0.39, 3,   boost,  112.78,  99907.00,  118.71,    8.42,   47.09, 27.1, 3.85, 3.85, 3.85,-124.35,  -2.51,   0.48, -20.89,  11.64,  21.86,  -0.61,   0.42,   0.30,   5.68, 3.87, 0.01, 0.00, 0.00, 0.00, 1, 1, 11,  40.3870391, -87.5135183,   206.0, 2025,  4, 12, 16, 21, 32,        0,        0,   0,   0,   1.2,   0.8,   0.9, 33, 31, 20,  0,  0, 29,  0,  0,  0,  0,  0,  0, 25, 32,  0,  0, 26,  0, 33,  0,  0, 25,  0, 28,  0,  0,  0,  0,  0, 29,  0,  0
6, 11115, 4,N0CALL,     0.40, 3,   boost,  111.31,  99907.00,  118.71,    8.42,   48.21, 27.1, 3.85, 3.85, 3.85,-124.47,  -1.77,  -0.13, -22.60,  12.07,  21.80,  -0.60,   0.42,   0.31,   5.92, 3.87, 0.01, 0.00, 0.00, 0.00, 1, 1, 11,  40.3870391, -87.5135183,   206.0, 2025,  4, 12, 16, 21, 32,        0,        0,   0,   0,   1.2,   0.8,   0.9, 33, 31, 20,  0,  0, 29,  0,  0,  0,  0,  0,  0, 25, 32,  0,  0, 26,  0, 33,  0,  0, 25,  0, 28,  0,  0,  0,  0,  0, 29,  0,  0
6, 11115, 4,N0CALL,     0.41, 3,   boost,  112.78,  99900.00,  119.30,    9.01,   49.32, 27.1, 3.85, 3.85, 3.85,-124.74,  -2.13,  -0.20, -24.18,  12.31,  22.28,  -0.60,   0.42,   0.31,   6.17, 3.87, 0.01, 0.00, 0.00, 0.00, 1, 1, 11,  40.3870391, -87.5135183,   206.0, 2025,  4, 12, 16, 21, 32,        0,        0,   0,   0,   1.2,   0.8,   0.9, 33, 31, 20,  0,  0, 29,  0,  0,  0,  0,  0,  0, 25, 32,  0,  0, 26,  0, 33,  0,  0, 25,  0, 28,  0,  0,  0,  0,  0, 29,  0,  0
6, 11115, 4,N0CALL,     0.42, 3,   boost,  112.29,  99900.00,  119.30,    9.01,   50.45, 27.1, 3.85, 3.85, 3.85,-125.48,  -2.89,   0.57, -26.26,  12.61,  22.34,  -0.60,   0.42,   0.31,   6.42, 3.87, 0.01, 0.00, 0.00, 0.00, 1, 1, 11,  40.3870391, -87.5135183,   206.0, 2025,  4, 12, 16, 21, 32,        0,        0,   0,   0,   1.2,   0.8,   0.9, 33, 31, 20,  0,  0, 29,  0,  0,  0,  0,  0,  0, 25, 32,  0,  0, 26,  0, 33,  0,  0, 25,  0, 28,  0,  0,  0,  0,  0, 29,  0,  0
6, 11115, 4,N0CALL,     0.43, 3,   boost,  113.76,  99893.00,  119.89,    9.60,   51.57, 27.1, 3.85, 3.85, 3.85,-125.73,  -2.17,   0.40, -27.79,  12.00,  23.14,  -0.60,   0.42,   0.31,   6.68, 3.87, 0.01, 0.00, 0.00, 0.00, 1, 1, 11,  40.3870391, -87.5135183,   206.0, 2025,  4, 12, 16, 21, 32,        0,        0,   0,   0,   1.2,   0.8,   0.9, 33, 31, 20,  0,  0, 29,  0,  0,  0,  0,  0,  0, 25, 32,  0,  0, 26,  0, 33,  0,  0, 25,  0, 28,  0,  0,  0,  0,  0, 29,  0,  0
6, 11115, 4,N0CALL,     0.44, 3,   boost,  115.72,  99893.00,  119.89,    9.60,   52.71, 27.1, 3.85, 3.85, 3.85,-126.59,  -1.49,  -0.04, -29.43,  12.61,  23.26,  -0.60,   0.42,   0.31,   6.94, 3.87, 0.01, 0.00, 0.00, 0.00, 1, 1, 11,  40.3870391, -87.5135183,   206.0, 2025,  4, 12, 16, 21, 32,        0,        0,   0,   0,   1.2,   0.8,   0.9, 33, 31, 20,  0,  0, 29,  0,  0,  0,  0,  0,  0, 25, 32,  0,  0, 26,  0, 33,  0,  0, 25,  0, 28,  0,  0,  0,  0,  0, 29,  0,  0
6, 11115, 4,N0CALL,     0.45, 3,   boost,  115.72,  99875.00,  121.41,   11.11,   53.85, 27.1, 3.85, 3.85, 3.85,-127.52,  -1.93,   0.01, -30.96,  13.04,  23.57,  -0.60,   0.42,   0.31,   7.20, 3.87, 0.01, 0.00, 0.00, 0.00, 1, 1, 11,  40.3870391, -87.5135183,   206.0, 2025,  4, 12, 16, 21, 32,        0,        0,   0,   0,   1.2,   0.8,   0.9, 33, 31, 20,  0,  0, 29,  0,  0,  0,  0,  0,  0, 25, 32,  0,  0, 26,  0, 33,  0,  0, 25,  0, 28,  0,  0,  0,  0,  0, 29,  0,  0
6, 11115, 4,N0CALL,     0.46, 3,   boost,  115.23,  99875.00,  121.41,   11.11,   55.00, 27.1, 3.85, 3.85, 3.85,-128.15,  -2.63,   0.43, -33.16,  13.29,  23.81,  -0.60,   0.43,   0.32,   7.47, 3.87, 0.01, 0.00, 0.00, 0.00, 1, 1, 11,  40.3870391, -87.5135183,   206.0, 2025,  4, 12, 16, 21, 32,        0,        0,   0,   0,   1.2,   0.8,   0.9, 33, 31, 20,  0,  0, 29,  0,  0,  0,  0,  0,  0, 25, 32,  0,  0, 26,  0, 33,  0,  0, 25,  0, 28,  0,  0,  0,  0,  0, 29,  0,  0
6, 11115, 4,N0CALL,     0.47, 3,   boost,  116.70,  99870.00,  121.83,   11.53,   56.15, 27.1, 3.85, 3.85, 3.85,-128.94,  -2.05,  -0.33, -34.93,  13.59,  24.11,  -0.60,   0.43,   0.32,   7.75, 3.87, 0.01, 0.00, 0.00, 0.00, 1, 1, 11,  40.3870391, -87.5135183,   206.0, 2025,  4, 12, 16, 21, 32,        0,        0,   0,   0,   1.2,   0.8,   0.9, 33, 31, 20,  0,  0, 29,  0,  0,  0,  0,  0,  0, 25, 32,  0,  0, 26,  0, 33,  0,  0, 25,  0, 28,  0,  0,  0,  0,  0, 29,  0,  0
6, 11115, 4,N0CALL,     0.48, 3,   boost,  116.70,  99870.00,  121.83,   11.53,   57.30, 27.1, 3.85, 3.85, 3.85,-129.85,  -1.49,  -0.57, -36.51,  13.29,  24.36,  -0.60,   0.43,   0.32,   8.02, 3.87, 0.01, 0.00, 0.00, 0.00, 1, 1, 11,  40.3870391, -87.5135183,   206.0, 2025,  4, 12, 16, 21, 32,        0,        0,   0,   0,   1.2,   0.8,   0.9, 33, 31, 20,  0,  0, 29,  0,  0,  0,  0,  0,  0, 25, 32,  0,  0, 26,  0, 33,  0,  0, 25,  0, 28,  0,  0,  0,  0,  0, 29,  0,  0
6, 11115, 4,N0CALL,     0.49, 3,   boost,  118.66,  99857.00,  122.92,   12.63,   58.46, 27.1, 3.85, 3.85, 3.85,-130.68,  -2.43,  -0.04, -38.41,  13.41,  24.60,  -0.59,   0.43,   0.32,   8.30, 3.87, 0.01, 0.00, 0.00, 0.00, 1, 1, 11,  40.3870391, -87.5135183,   206.0, 2025,  4, 12, 16, 21, 32,        0,        0,   0,   0,   1.2,   0.8,   0.9, 33, 31, 20,  0,  0, 29,  0,  0,  0,  0,  0,  0, 25, 32,  0,  0, 26,  0, 33,  0,  0, 25,  0, 28,  0,  0,  0,  0,  0, 29,  0,  0
6, 11115, 4,N0CALL,     0.50, 3,   boost,  118.17,  99857.00,  122.92,   12.63,   59.63, 27.1, 3.85, 3.85, 3.85,-131.58,  -1.92,  -0.48, -40.48,  13.53,  24.85,  -0.59,   0.43,   0.32,   8.58, 3.87, 0.01, 0.00, 0.00, 0.00, 1, 1, 11,  40.3870391, -87.5135183,   206.0, 2025,  4, 12, 16, 21, 32,        0,        0,   0,   0,   1.2,   0.8,   0.9, 33, 31, 20,  0,  0, 29,  0,  0,  0,  0,  0,  0, 25, 32,  0,  0, 26,  0, 33,  0,  0, 25,  0, 28,  0,  0,  0,  0,  0, 29,  0,  0
6, 11115, 4,N0CALL,     0.51, 3,   boost,  118.66,  99836.00,  124.69,   14.40,   60.80, 27.1, 3.85, 3.85, 3.85,-132.14,  -1.40,  -0.47, -42.31,  13.35,  24.79,  -0.59,   0.43,   0.32,   8.86, 3.87, 0.01, 0.00, 0.00, 0.00, 1, 1, 11,  40.3870391, -87.5135183,   206.0, 2025,  4, 12, 16, 21, 32,        0,        0,   0,   0,   1.2,   0.8,   0.9, 33, 31, 20,  0,  0, 29,  0,  0,  0,  0,  0,  0, 25, 32,  0,  0, 26,  0, 33,  0,  0, 25,  0, 28,  0,  0,  0,  0,  0, 29,  0,  0
6, 11115, 4,N0CALL,     0.52, 3,   boost,  118.17,  99836.00,  124.69,   14.40,   61.97, 27.1, 3.85, 3.85, 3.85,-132.07,  -1.49,  -0.50, -44.02,  13.04,  24.73,  -0.59,   0.43,   0.33,   9.14, 3.87, 0.01, 0.00, 0.00, 0.00, 1, 1, 11,  40.3870391, -87.5135183,   206.0, 2025,  4, 12, 16, 21, 32,        0,        0,   0,   0,   1.2,   0.8,   0.9, 33, 31, 20,  0,  0, 29,  0,  0,  0,  0,  0,  0, 25, 32,  0,  0, 26,  0, 33,  0,  0, 25,  0, 28,  0,  0,  0,  0,  0, 29,  0,  0
6, 11115, 4,N0CALL,     0.53, 3,   boost,  118.66,  99822.00,  125.87,   15.58,   63.14, 27.1, 3.85, 3.85, 3.85,-132.87,  -1.95,  -0.60, -45.49,  12.92,  24.91,  -0.59,   0.43,   0.33,   9.42, 3.87, 0.01, 0.00, 0.00, 0.00, 1, 1, 11,  40.3870391, -87.5135183,   206.0, 2025,  4, 12, 16, 21, 32,        0,        0,   0,   0,   1.2,   0.8,   0.9, 33, 31, 20,  0,  0, 29,  0,  0,  0,  0,  0,  0, 25, 32,  0,  0, 26,  0, 33,  0,  0, 25,  0, 28,  0,  0,  0,  0,  0, 29,  0,  0
6, 11115, 4,N0CALL,     0.54, 3,   boost,  119.64,  99822.00,  125.87,   15.58,   64.32, 27.1, 3.85, 3.85, 3.85,-133.15,  -1.67,  -0.42, -47.99,  12.98,  24.85,  -0.59,   0.43,   0.33,   9.70, 3.87, 0.01, 0.00, 0.00, 0.00, 1, 1, 11,  40.3870391, -87.5135183,   206.0, 2025,  4, 12, 16, 21, 32,        0,        0,   0,   0,   1.2,   0.8,   0.9, 33, 31, 20,  0,  0, 29,  0,  0,  0,  0,  0,  0, 25, 32,  0,  0, 26,  0, 33,  0,  0, 25,  0, 28,  0,  0,  0,  0,  0, 29,  0,  0
6, 11115, 4,N0CALL,     0.55, 3,   boost,  120.13,  99807.00,  127.14,   16.84,   65.50, 27.1, 3.85, 3.85, 3.85,-133.78,  -1.19,  -0.77, -49.70,  12.68,  24.97,  -0.59,   0.43,   0.33,   9.98, 3.87, 0.01, 0.00, 0.00, 0.00, 1, 1, 11,  40.3870391, -87.5135183,   206.0, 2025,  4, 12, 16, 21, 32,        0,        0,   0,   0,   1.2,   0.8,   0.9, 33, 31, 20,  0,  0, 29,  0,  0,  0,  0,  0,  0, 25, 32,  0,  0, 26,  0, 33,  0,  0, 25,  0, 28,  0,  0,  0,  0,  0, 29,  0,  0
