#version,serial,flight,call,time,rssi,lqi,state,state_name,acceleration,pressure,altitude,height,speed,temperature,drogue_voltage,main_voltage,battery_voltage,accel_x,accel_y,accel_z,gyro_roll,gyro_pitch,gyro_yaw,mag_x,mag_y,mag_z,tilt,pyro,igniter_a,igniter_b,igniter_c,igniter_d,connected,locked,nsat,latitude,longitude,altitude,year,month,day,hour,minute,second,pad_dist,pad_range,pad_az,pad_el,pdop,hdop,vdop,sat01,sat02,sat03,sat04,sat05,sat06,sat07,sat08,sat09,sat10,sat11,sat12,sat13,sat14,sat15,sat16,sat17,sat18,sat19,sat20,sat21,sat22,sat23,sat24,sat25,sat26,sat27,sat28,sat29,sat30,sat31,sat32
6, 16162, 3,N0CALL,    -1.83, -81,   7, 3,   boost,    0.98,  99116.00,  185.53,    0.25,    0.00, 17.3, 4.11, 4.11, 4.08,  -9.81,  -0.55,  -0.35,  -1.40,  -0.55,   0.73,  -0.36,   0.07,  -0.10,   3.00, 4.08, 0.00, 0.00, 0.00, 0.00, 1, 1, 15,  41.7770687, -86.5781874,   191.0, 2026,  3,  8, 15, 39,  6,        0,        0, 228,   0,   0.9,   0.5,   0.7, 42, 46,  0,  0,  0,  0, 36, 45,  0,  0,  0,  0, 33, 32, 43,  0, 43,  0, 42,  0,  0,  0,  0,  0,  0,  0,  0,  0,  0, 26,  0,  0
6, 16162, 3,N0CALL,    -1.83, -81,   6, 3,   boost,    0.98,  99116.00,  185.53,    0.25,    0.00, 17.3, 4.11, 4.11, 4.08,  -9.81,  -0.55,  -0.35,  -1.40,  -0.55,   0.73,  -0.36,   0.07,  -0.10,   3.00, 4.08, 0.00, 0.00, 0.00, 0.00, 1, 1, 15,  41.7770687, -86.5781874,   191.0, 2026,  3,  8, 15, 39,  6,        0,        0, 228,   0,   0.9,   0.5,   0.7, 42, 46,  0,  0,  0,  0, 36, 45,  0,  0,  0,  0, 33, 32, 43,  0, 43,  0, 42,  0,  0,  0,  0,  0,  0,  0,  0,  0,  0, 26,  0,  0
6, 16162, 3,N0CALL,    -1.77, -81,   6, 3,   boost,    0.98,  99116.00,  185.53,    0.25,    0.00, 17.3, 4.11, 4.11, 4.08,  -9.81,  -0.55,  -0.35,  -1.40,  -0.55,   0.73,  -0.36,   0.07,  -0.10,   3.00, 4.08, 0.00, 0.00, 0.00, 0.00, 1, 1, 15,  41.7770687, -86.5781874,   191.0, 2026,  3,  8, 15, 39,  6,        0,        0, 228,   0,   0.9,   0.5,   0.7, 42, 46,  0,  0,  0,  0, 36, 45,  0,  0,  0,  0, 33, 32, 43,  0, 43,  0, 42,  0,  0,  0,  0,  0,  0,  0,  0,  0,  0, 26,  0,  0
6, 16162, 3,N0CALL,    -1.74, -82,  13, 3,   boost,    0.98,  99116.00,  185.53,    0.25,    0.00, 17.3, 4.11, 4.11, 4.08,  -9.81,  -0.55,  -0.35,  -1.40,  -0.55,   0.73,  -0.36,   0.07,  -0.10,   3.00, 4.08, 0.00, 0.00, 0.00, 0.00, 1, 1, 15,  41.7770687, -86.5781874,   191.0, 2026,  3,  8, 15, 39,  6,        0,        0, 228,   0,   0.9,   0.5,   0.7, 42, 46,  0,  0,  0,  0, 36, 45,  0,  0,  0,  0, 33, 32, 43,  0, 43,  0, 42,  0,  0,  0,  0,  0,  0,  0,  0,  0,  0, 26,  0,  0
6, 16162, 3,N0CALL,    -0.87, -72,   7, 3,   boost,    0.98,  99116.00,  185.53,    0.25,    0.00, 17.3, 4.11, 4.11, 4.08,  -9.81,  -0.55,  -0.35,  -1.40,  -0.55,   0.73,  -0.36,   0.07,  -0.10,   3.00, 4.08, 0.00, 0.00, 0.00, 0.00, 1, 1, 15,  41.7770689, -86.5781871,   191.0, 2026,  3,  8, 15, 39,  7,        0,        0,   0,   0,   1.0,   0.5,   0.8, 42, 46,  0,  0,  0,  0, 36, 44,  0,  0,  0,  0, 32, 31, 43,  0, 43,  0, 42,  0,  0,  0,  0,  0,  0,  0,  0,  0,  0, 26,  0,  0
6, 16162, 3,N0CALL,    -0.76, -82,   5, 3,   boost,    1.47,  99114.00,  185.70,    0.42,    1.22, 17.3, 4.11, 4.11, 4.08,  -9.79,   0.06,  -0.46,  -0.24,  -0.67,   0.31,  -0.36,   0.07,  -0.10,   3.00, 4.08, 0.00, 0.00, 0.00, 0.00, 1, 1, 15,  41.7770689, -86.5781871,   191.0, 2026,  3,  8, 15, 39,  7,        0,        0,   0,   0,   1.0,   0.5,   0.8, 42, 46,  0,  0,  0,  0, 36, 44,  0,  0,  0,  0, 32, 31, 43,  0, 43,  0, 42,  0,  0,  0,  0,  0,  0,  0,  0,  0,  0, 26,  0,  0
6, 16162, 3,N0CALL,    -0.73, -82,   7, 3,   boost,    1.47,  99114.00,  185.70,    0.42,    1.22, 17.3, 3.99, 4.11, 4.09,  -9.79,   0.06,  -0.46,  -0.24,  -0.67,   0.31,  -0.36,   0.07,  -0.10,   3.00, 4.10, 0.00, 0.00, 0.00, 0.00, 1, 1, 15,  41.7770689, -86.5781871,   191.0, 2026,  3,  8, 15, 39,  7,        0,        0,   0,   0,   1.0,   0.5,   0.8, 42, 46,  0,  0,  0,  0, 36, 44,  0,  0,  0,  0, 32, 31, 43,  0, 43,  0, 42,  0,  0,  0,  0,  0,  0,  0,  0,  0,  0, 26,  0,  0
6, 16162, 3,N0CALL,    -0.03, -86,   9, 3,   boost,  117.68,  99131.00,  184.26,   -1.02,   44.64, 17.3, 3.99, 4.11, 4.09,-131.19,   0.60,   1.73,   2.44,  15.32,  -0.06,  -0.36,   0.07,  -0.09,   3.00, 4.10, 0.00, 0.00, 0.00, 0.00, 1, 1, 15,  41.7770689, -86.5781871,   191.0, 2026,  3,  8, 15, 39,  7,        0,        0,   0,   0,   1.0,   0.5,   0.8, 42, 46,  0,  0,  0,  0, 36, 44,  0,  0,  0,  0, 32, 31, 43,  0, 43,  0, 42,  0,  0,  0,  0,  0,  0,  0,  0,  0,  0, 26,  0,  0
6, 16162, 3,N0CALL,     0.00, -82,  17, 3,   boost,  117.68,  99131.00,  184.26,   -1.02,   44.64, 17.3, 3.99, 3.99, 4.08,-131.19,   0.60,   1.73,   2.44,  15.32,  -0.06,  -0.36,   0.07,  -0.09,   3.00, 4.09, 0.00, 0.00, 0.00, 0.00, 1, 1, 15,  41.7770689, -86.5781871,   191.0, 2026,  3,  8, 15, 39,  7,        0,        0,   0,   0,   1.0,   0.5,   0.8, 42, 46,  0,  0,  0,  0, 36, 44,  0,  0,  0,  0, 32, 31, 43,  0, 43,  0, 42,  0,  0,  0,  0,  0,  0,  0,  0,  0,  0, 26,  0,  0
6, 16162, 3,N0CALL,     0.07, -79,   5, 3,   boost,  143.67,  99094.00,  187.39,    2.12,   57.69, 17.3, 3.99, 3.99, 4.08,-151.78,  -1.21,  16.48, -60.55,  -3.11,   6.23,  -0.36,   0.06,  -0.09,   3.00, 4.09, 0.00, 0.00, 0.00, 0.00, 1, 1, 15,  41.7770689, -86.5781871,   191.0, 2026,  3,  8, 15, 39,  7,        0,        0,   0,   0,   1.0,   0.5,   0.8, 42, 46,  0,  0,  0,  0, 36, 44,  0,  0,  0,  0, 32, 31, 43,  0, 43,  0, 42,  0,  0,  0,  0,  0,  0,  0,  0,  0,  0, 26,  0,  0
6, 16162, 3,N0CALL,     0.10, -78,   7, 3,   boost,  143.67,  99094.00,  187.39,    2.12,   57.69, 17.3, 4.11, 4.11, 4.08,-151.78,  -1.21,  16.48, -60.55,  -3.11,   6.23,  -0.36,   0.06,  -0.09,   3.00, 4.09, 0.00, 0.00, 0.00, 0.00, 1, 1, 15,  41.7770689, -86.5781871,   191.0, 2026,  3,  8, 15, 39,  7,        0,        0,   0,   0,   1.0,   0.5,   0.8, 42, 46,  0,  0,  0,  0, 36, 44,  0,  0,  0,  0, 32, 31, 43,  0, 43,  0, 42,  0,  0,  0,  0,  0,  0,  0,  0,  0,  0, 26,  0,  0
6, 16162, 3,N0CALL,     0.11, -71,   5, 3,   boost,  143.67,  99094.00,  187.39,    2.12,   57.69, 17.3, 4.11, 4.11, 4.08,-151.78,  -1.21,  16.48, -60.55,  -3.11,   6.23,  -0.36,   0.06,  -0.09,   3.00, 4.09, 0.00, 0.00, 0.00, 0.00, 1, 1, 15,  41.7770671, -86.5781800,   191.0, 2026,  3,  8, 15, 39,  8,        1,        1, 109,   0,   1.2,   0.6,   1.0, 42, 46,  0,  0,  0,  0, 36, 44,  0,  0,  0,  0, 32, 31, 43,  0, 43,  0, 42,  0,  0,  0,  0,  0,  0,  0,  0,  0,  0, 26,  0,  0
6, 16162, 3,N0CALL,     0.18, -73,   5, 3,   boost,  143.67,  99037.00,  192.22,    6.95,   73.46, 17.3, 4.11, 4.11, 4.08,-161.25,  -4.43,   2.28,  58.17,   0.12,   0.43,  -0.36,   0.07,  -0.11,   4.00, 4.09, 0.00, 0.00, 0.00, 0.00, 1, 1, 15,  41.7770671, -86.5781800,   191.0, 2026,  3,  8, 15, 39,  8,        1,        1, 109,   0,   1.2,   0.6,   1.0, 42, 46,  0,  0,  0,  0, 36, 44,  0,  0,  0,  0, 32, 31, 43,  0, 43,  0, 42,  0,  0,  0,  0,  0,  0,  0,  0,  0,  0, 26,  0,  0
6, 16162, 3,N0CALL,     0.21, -73,  11, 3,   boost,  143.67,  99037.00,  192.22,    6.95,   73.46, 17.3, 4.11, 4.11, 4.08,-161.25,  -4.43,   2.28,  58.17,   0.12,   0.43,  -0.36,   0.07,  -0.11,   4.00, 4.10, 0.00, 0.00, 0.00, 0.00, 1, 1, 15,  41.7770671, -86.5781800,   191.0, 2026,  3,  8, 15, 39,  8,        1,        1, 109,   0,   1.2,   0.6,   1.0, 42, 46,  0,  0,  0,  0, 36, 44,  0,  0,  0,  0, 32, 31, 43,  0, 43,  0, 42,  0,  0,  0,  0,  0,  0,  0,  0,  0,  0, 26,  0,  0
6, 16162, 3,N0CALL,     0.29, -70,   7, 3,   boost,  147.59,  99023.00,  193.41,    8.14,   89.44, 17.3, 4.11, 4.11, 4.08,-160.05,  -3.45,  -1.80,  56.21,  -2.26,   2.08,  -0.37,   0.09,  -0.14,   4.00, 4.10, 0.00, 0.00, 0.00, 0.00, 1, 1, 15,  41.7770671, -86.5781800,   191.0, 2026,  3,  8, 15, 39,  8,        1,        1, 109,   0,   1.2,   0.6,   1.0, 42, 46,  0,  0,  0,  0, 36, 44,  0,  0,  0,  0, 32, 31, 43,  0, 43,  0, 42,  0,  0,  0,  0,  0,  0,  0,  0,  0,  0, 26,  0,  0
6, 16162, 3,N0CALL,     0.32, -71,   9, 3,   boost,  147.59,  99023.00,  193.41,    8.14,   89.44, 17.3, 3.99, 4.11, 4.08,-160.05,  -3.45,  -1.80,  56.21,  -2.26,   2.08,  -0.37,   0.09,  -0.14,   4.00, 4.09, 0.00, 0.00, 0.00, 0.00, 1, 1, 15,  41.7770671, -86.5781800,   191.0, 2026,  3,  8, 15, 39,  8,        1,        1, 109,   0,   1.2,   0.6,   1.0, 40, 44,  0,  0,  0,  0, 34, 43,  0,  0,  0,  0, 31, 30, 41,  0, 41,  0, 40,  0,  0,  0,  0,  0,  0,  0,  0,  0,  0, 29,  0,  0
6, 16162, 3,N0CALL,     0.32, -70,   4, 3,   boost,  147.59,  99023.00,  193.41,    8.14,   89.44, 17.3, 3.99, 4.11, 4.08,-160.05,  -3.45,  -1.80,  56.21,  -2.26,   2.08,  -0.37,   0.09,  -0.14,   4.00, 4.09, 0.00, 0.00, 0.00, 0.00, 1, 1, 15,  41.7770671, -86.5781800,   191.0, 2026,  3,  8, 15, 39,  8,        1,        1, 109,   0,   1.2,   0.6,   1.0, 40, 44,  0,  0,  0,  0, 34, 43,  0,  0,  0,  0, 31, 30, 41,  0, 41,  0, 40,  0,  0,  0,  0,  0,  0,  0,  0,  0,  0, 29,  0,  0
6, 16162, 3,N0CALL,     0.40, -71,   7, 3,   boost,  147.59,  98971.00,  197.82,   12.55,  105.63, 17.3, 3.99, 4.11, 4.08,-159.35,  -2.36,  -2.08,  -5.25,  -5.55,  -3.23,  -0.37,   0.09,  -0.15,   4.00, 4.09, 0.00, 0.00, 0.00, 0.00, 1, 1, 15,  41.7770671, -86.5781800,   191.0, 2026,  3,  8, 15, 39,  8,        1,        1, 109,   0,   1.2,   0.6,   1.0, 40, 44,  0,  0,  0,  0, 34, 43,  0,  0,  0,  0, 31, 30, 41,  0, 41,  0, 40,  0,  0,  0,  0,  0,  0,  0,  0,  0,  0, 29,  0,  0
6, 16162, 3,N0CALL,     0.43, -72,   5, 3,   boost,  147.59,  98971.00,  197.82,   12.55,  105.63, 17.3, 4.11, 4.11, 4.08,-159.35,  -2.36,  -2.08,  -5.25,  -5.55,  -3.23,  -0.37,   0.09,  -0.15,   4.00, 4.08, 0.00, 0.00, 0.00, 0.00, 1, 1, 15,  41.7770671, -86.5781800,   191.0, 2026,  3,  8, 15, 39,  8,        1,        1, 109,   0,   1.2,   0.6,   1.0, 40, 44,  0,  0,  0,  0, 34, 43,  0,  0,  0,  0, 31, 30, 41,  0, 41,  0, 40,  0,  0,  0,  0,  0,  0,  0,  0,  0,  0, 29,  0,  0
6, 16162, 3,N0CALL,     0.43, -73,   8, 3,   boost,  147.59,  98971.00,  197.82,   12.55,  105.63, 17.3, 4.11, 4.11, 4.08,-159.35,  -2.36,  -2.08,  -5.25,  -5.55,  -3.23,  -0.37,   0.09,  -0.15,   4.00, 4.08, 0.00, 0.00, 0.00, 0.00, 1, 1, 15,  41.7770671, -86.5781800,   191.0, 2026,  3,  8, 15, 39,  8,        1,        1, 109,   0,   1.2,   0.6,   1.0, 40, 44,  0,  0,  0,  0, 34, 43,  0,  0,  0,  0, 31, 30, 41,  0, 41,  0, 40,  0,  0,  0,  0,  0,  0,  0,  0,  0,  0, 29,  0,  0
6, 16162, 3,N0CALL,     0.51, -77,   8, 3,   boost,  147.10,  98928.00,  201.47,   16.20,  121.80, 17.3, 4.11, 4.11, 4.08,-159.06,  -2.07,  -1.44, -36.74,  -9.64,  -7.63,  -0.37,   0.08,  -0.14,   4.00, 4.08, 0.00, 0.00, 0.00, 0.00, 1, 1, 15,  41.7770671, -86.5781800,   191.0, 2026,  3,  8, 15, 39,  8,        1,        1, 109,   0,   1.2,   0.6,   1.0, 40, 44,  0,  0,  0,  0, 34, 43,  0,  0,  0,  0, 31, 30, 41,  0, 41,  0, 40,  0,  0,  0,  0,  0,  0,  0,  0,  0,  0, 29,  0,  0
6, 16162, 3,N0CALL,     0.54, -78,   7, 3,   boost,  147.10,  98928.00,  201.47,   16.20,  121.80, 17.3, 4.11, 4.11, 4.08,-159.06,  -2.07,  -1.44, -36.74,  -9.64,  -7.63,  -0.37,   0.08,  -0.14,   4.00, 4.09, 0.00, 0.00, 0.00, 0.00, 1, 1, 15,  41.7770671, -86.5781800,   191.0, 2026,  3,  8, 15, 39,  8,        1,        1, 109,   0,   1.2,   0.6,   1.0, 40, 44,  0,  0,  0,  0, 34, 43,  0,  0,  0,  0, 31, 30, 41,  0, 41,  0, 40,  0,  0,  0,  0,  0,  0,  0,  0,  0,  0, 29,  0,  0
6, 16162, 3,N0CALL,     0.62, -75,   6, 3,   boost,  145.63,  98812.00,  211.32,   26.05,  137.85, 17.3, 4.11, 4.11, 4.08,-158.23,  -2.84,  -0.47, -12.39, -11.11,  -2.93,  -0.37,   0.07,  -0.15,   5.00, 4.09, 0.00, 0.00, 0.00, 0.00, 1, 1, 15,  41.7770671, -86.5781800,   191.0, 2026,  3,  8, 15, 39,  8,        1,        1, 109,   0,   1.2,   0.6,   1.0, 40, 44,  0,  0,  0,  0, 34, 43,  0,  0,  0,  0, 31, 30, 41,  0, 41,  0, 40,  0,  0,  0,  0,  0,  0,  0,  0,  0,  0, 29,  0,  0
6, 16162, 3,N0CALL,     0.65, -73,   5, 3,   boost,  145.63,  98812.00,  211.32,   26.05,  137.85, 17.3, 3.99, 4.11, 4.08,-158.23,  -2.84,  -0.47, -12.39, -11.11,  -2.93,  -0.37,   0.07,  -0.15,   5.00, 4.08, 0.00, 0.00, 0.00, 0.00, 1, 1, 15,  41.7770671, -86.5781800,   191.0, 2026,  3,  8, 15, 39,  8,        1,        1, 109,   0,   1.2,   0.6,   1.0, 40, 44,  0,  0,  0,  0, 34, 43,  0,  0,  0,  0, 31, 30, 41,  0, 41,  0, 40,  0,  0,  0,  0,  0,  0,  0,  0,  0,  0, 29,  0,  0
6, 16162, 3,N0CALL,     0.73, -72,   6, 3,   boost,  144.16,  98728.00,  218.46,   33.19,  153.70, 17.3, 3.99, 4.11, 4.08,-156.20,  -3.55,  -0.29,  18.07,  -4.58,   1.89,  -0.37,   0.07,  -0.16,   6.00, 4.08, 0.00, 0.00, 0.00, 0.00, 1, 1, 15,  41.7770671, -86.5781800,   191.0, 2026,  3,  8, 15, 39,  8,        1,        1, 109,   0,   1.2,   0.6,   1.0, 40, 44,  0,  0,  0,  0, 34, 43,  0,  0,  0,  0, 31, 30, 41,  0, 41,  0, 40,  0,  0,  0,  0,  0,  0,  0,  0,  0,  0, 29,  0,  0
6, 16162, 3,N0CALL,     0.76, -73,  10, 3,   boost,  144.16,  98728.00,  218.46,   33.19,  153.70, 17.3, 3.99, 4.11, 4.08,-156.20,  -3.55,  -0.29,  18.07,  -4.58,   1.89,  -0.37,   0.07,  -0.16,   6.00, 4.07, 0.00, 0.00, 0.00, 0.00, 1, 1, 15,  41.7770671, -86.5781800,   191.0, 2026,  3,  8, 15, 39,  8,        1,        1, 109,   0,   1.2,   0.6,   1.0, 40, 44,  0,  0,  0,  0, 34, 43,  0,  0,  0,  0, 31, 30, 41,  0, 41,  0, 40,  0,  0,  0,  0,  0,  0,  0,  0,  0,  0, 29,  0,  0
6, 16162, 3,N0CALL,     0.87, -81,   7, 3,   boost,  144.16,  98728.00,  218.46,   33.19,  153.70, 17.3, 3.99, 4.11, 4.08,-156.20,  -3.55,  -0.29,  18.07,  -4.58,   1.89,  -0.37,   0.07,  -0.16,   6.00, 4.08, 0.00, 0.00, 0.00, 0.00, 1, 1, 15,  41.7770671, -86.5781800,   191.0, 2026,  3,  8, 15, 39,  8,        1,        1, 109,   0,   1.2,   0.6,   1.0, 40, 44,  0,  0,  0,  0, 34, 43,  0,  0,  0,  0, 31, 30, 41,  0, 41,  0, 40,  0,  0,  0,  0,  0,  0,  0,  0,  0,  0, 29,  0,  0
6, 16162, 3,N0CALL,     0.95, -72,   7, 3,   boost,  140.73,  98459.00,  241.35,   56.08,  184.86, 17.3, 3.99, 4.11, 4.08,-152.61,  -0.64,  -0.61,  80.02,   2.38,  -1.95,  -0.37,   0.08,  -0.19,   6.00, 4.08, 0.00, 0.00, 0.00, 0.00, 1, 1, 15,  41.7770671, -86.5781800,   191.0, 2026,  3,  8, 15, 39,  8,        1,        1, 109,   0,   1.2,   0.6,   1.0, 40, 44,  0,  0,  0,  0, 34, 43,  0,  0,  0,  0, 31, 30, 41,  0, 41,  0, 40,  0,  0,  0,  0,  0,  0,  0,  0,  0,  0, 29,  0,  0
6, 16162, 3,N0CALL,     0.98, -73,   9, 3,   boost,  140.73,  98459.00,  241.35,   56.08,  184.86, 17.3, 3.99, 4.11, 4.08,-152.61,  -0.64,  -0.61,  80.02,   2.38,  -1.95,  -0.37,   0.08,  -0.19,   6.00, 4.10, 0.00, 0.00, 0.00, 0.00, 1, 1, 15,  41.7770671, -86.5781800,   191.0, 2026,  3,  8, 15, 39,  8,        1,        1, 109,   0,   1.2,   0.6,   1.0, 40, 44,  0,  0,  0,  0, 34, 43,  0,  0,  0,  0, 31, 30, 41,  0, 41,  0, 40,  0,  0,  0,  0,  0,  0,  0,  0,  0,  0, 29,  0,  0
6, 16162, 3,N0CALL,     1.06, -75,   6, 3,   boost,  137.78,  98291.00,  255.68,   70.40,  200.09, 17.3, 3.99, 4.11, 4.08,-150.34,  -3.05,  -1.16, 105.16,  -1.53,  -4.88,  -0.38,   0.08,  -0.23,   6.00, 4.10, 0.00, 0.00, 0.00, 0.00, 1, 1, 15,  41.7770671, -86.5781800,   191.0, 2026,  3,  8, 15, 39,  8,        1,        1, 109,   0,   1.2,   0.6,   1.0, 40, 44,  0,  0,  0,  0, 34, 43,  0,  0,  0,  0, 31, 30, 41,  0, 41,  0, 40,  0,  0,  0,  0,  0,  0,  0,  0,  0,  0, 29,  0,  0
6, 16162, 3,N0CALL,     1.09, -76,   5, 3,   boost,  137.78,  98291.00,  255.68,   70.40,  200.09, 17.3, 4.11, 4.11, 4.08,-150.34,  -3.05,  -1.16, 105.16,  -1.53,  -4.88,  -0.38,   0.08,  -0.23,   6.00, 4.08, 0.00, 0.00, 0.00, 0.00, 1, 1, 15,  41.7770671, -86.5781800,   191.0, 2026,  3,  8, 15, 39,  8,        1,        1, 109,   0,   1.2,   0.6,   1.0, 40, 44,  0,  0,  0,  0, 34, 43,  0,  0,  0,  0, 31, 30, 41,  0, 41,  0, 40,  0,  0,  0,  0,  0,  0,  0,  0,  0,  0, 29,  0,  0
6, 16162, 3,N0CALL,     1.17, -76,   7, 3,   boost,  130.92,  98144.00,  268.22,   82.95,  214.76, 17.3, 4.11, 4.11, 4.08,-144.15,  -4.66,   1.15, 132.51,  -3.60,  -4.27,  -0.38,   0.07,  -0.27,   7.00, 4.08, 0.00, 0.00, 0.00, 0.00, 1, 1, 15,  41.7770671, -86.5781800,   191.0, 2026,  3,  8, 15, 39,  8,        1,        1, 109,   0,   1.2,   0.6,   1.0, 40, 44,  0,  0,  0,  0, 34, 43,  0,  0,  0,  0, 31, 30, 41,  0, 41,  0, 40,  0,  0,  0,  0,  0,  0,  0,  0,  0,  0, 29,  0,  0
6, 16162, 3,N0CALL,     1.20, -77,  10, 3,   boost,  130.92,  98144.00,  268.22,   82.95,  214.76, 17.3, 3.99, 4.11, 4.08,-144.15,  -4.66,   1.15, 132.51,  -3.60,  -4.27,  -0.38,   0.07,  -0.27,   7.00, 4.08, 0.00, 0.00, 0.00, 0.00, 1, 1, 15,  41.7770671, -86.5781800,   191.0, 2026,  3,  8, 15, 39,  8,        1,        1, 109,   0,   1.2,   0.6,   1.0, 40, 44,  0,  0,  0,  0, 34, 43,  0,  0,  0,  0, 31, 30, 41,  0, 41,  0, 40,  0,  0,  0,  0,  0,  0,  0,  0,  0,  0, 29,  0,  0
6, 16162, 3,N0CALL,     1.28, -73,   6, 3,   boost,  123.56,  97963.00,  283.70,   98.42,  228.66, 17.3, 3.99, 4.11, 4.08,-135.58,  -2.96,  -0.59, 169.01,  -0.67,  11.23,  -0.38,   0.05,  -0.32,   6.00, 4.08, 0.00, 0.00, 0.00, 0.00, 1, 1, 15,  41.7770671, -86.5781800,   191.0, 2026,  3,  8, 15, 39,  8,        1,        1, 109,   0,   1.2,   0.6,   1.0, 40, 44,  0,  0,  0,  0, 34, 43,  0,  0,  0,  0, 31, 30, 41,  0, 41,  0, 40,  0,  0,  0,  0,  0,  0,  0,  0,  0,  0, 29,  0,  0
6, 16162, 3,N0CALL,     1.31, -72,   6, 3,   boost,  123.56,  97963.00,  283.70,   98.42,  228.66, 17.3, 3.99, 4.11, 4.08,-135.58,  -2.96,  -0.59, 169.01,  -0.67,  11.23,  -0.38,   0.05,  -0.32,   6.00, 4.08, 0.00, 0.00, 0.00, 0.00, 1, 1, 15,  41.7770671, -86.5781800,   191.0, 2026,  3,  8, 15, 39,  8,        1,        1, 109,   0,   1.2,   0.6,   1.0, 40, 44,  0,  0,  0,  0, 34, 43,  0,  0,  0,  0, 31, 30, 41,  0, 41,  0, 40,  0,  0,  0,  0,  0,  0,  0,  0,  0,  0, 29,  0,  0
6, 16162, 3,N0CALL,     1.39, -73,   8, 3,   boost,  113.76,  97753.00,  301.68,  116.41,  241.64, 17.3, 3.99, 4.11, 4.08,-128.26,   0.61,  -0.46, 171.45,  -0.37,  -1.83,  -0.38,   0.02,  -0.36,   6.00, 4.08, 0.00, 0.00, 0.00, 0.00, 1, 1, 15,  41.7770671, -86.5781800,   191.0, 2026,  3,  8, 15, 39,  8,        1,        1, 109,   0,   1.2,   0.6,   1.0, 40, 44,  0,  0,  0,  0, 34, 43,  0,  0,  0,  0, 31, 30, 41,  0, 41,  0, 40,  0,  0,  0,  0,  0,  0,  0,  0,  0,  0, 29,  0,  0
6, 16162, 3,N0CALL,     1.42, -74,   5, 3,   boost,  113.76,  97753.00,  301.68,  116.41,  241.64, 17.3, 3.99, 4.11, 4.08,-128.26,   0.61,  -0.46, 171.45,  -0.37,  -1.83,  -0.38,   0.02,  -0.36,   6.00, 4.10, 0.00, 0.00, 0.00, 0.00, 1, 1, 15,  41.7770671, -86.5781800,   191.0, 2026,  3,  8, 15, 39,  8,        1,        1, 109,   0,   1.2,   0.6,   1.0, 38, 41,  0,  0,  0,  0, 34, 43,  0,  0,  0,  0, 31, 30, 39,  0, 41,  0, 40,  0,  0, 19,  0,  0,  0,  0,  0,  0,  0, 27,  0,  0
6, 16162, 3,N0CALL,     1.42, -74,   6, 3,   boost,  113.76,  97753.00,  301.68,  116.41,  241.64, 17.3, 3.99, 4.11, 4.08,-128.26,   0.61,  -0.46, 171.45,  -0.37,  -1.83,  -0.38,   0.02,  -0.36,   6.00, 4.10, 0.00, 0.00, 0.00, 0.00, 1, 1, 15,  41.7770671, -86.5781800,   191.0, 2026,  3,  8, 15, 39,  8,        1,        1, 109,   0,   1.2,   0.6,   1.0, 38, 41,  0,  0,  0,  0, 34, 43,  0,  0,  0,  0, 31, 30, 39,  0, 41,  0, 40,  0,  0, 19,  0,  0,  0,  0,  0,  0,  0, 27,  0,  0
6, 16162, 3,N0CALL,     1.50, -79,  13, 3,   boost,  111.31,  97528.00,  320.98,  135.70,  253.93, 17.3, 3.99, 4.11, 4.08,-122.09,  -5.46,  -2.28, 185.36,  -3.91,  -0.06,  -0.39,  -0.04,  -0.39,   7.00, 4.10, 0.00, 0.00, 0.00, 0.00, 1, 1, 15,  41.7770671, -86.5781800,   191.0, 2026,  3,  8, 15, 39,  8,        1,        1, 109,   0,   1.2,   0.6,   1.0, 38, 41,  0,  0,  0,  0, 34, 43,  0,  0,  0,  0, 31, 30, 39,  0, 41,  0, 40,  0,  0, 19,  0,  0,  0,  0,  0,  0,  0, 27,  0,  0
6, 16162, 3,N0CALL,     1.53, -82,  15, 3,   boost,  111.31,  97528.00,  320.98,  135.70,  253.93, 17.3, 3.99, 3.99, 4.08,-122.09,  -5.46,  -2.28, 185.36,  -3.91,  -0.06,  -0.39,  -0.04,  -0.39,   7.00, 4.11, 0.00, 0.00, 0.00, 0.00, 1, 1, 15,  41.7770671, -86.5781800,   191.0, 2026,  3,  8, 15, 39,  8,        1,        1, 109,   0,   1.2,   0.6,   1.0, 38, 41,  0,  0,  0,  0, 34, 43,  0,  0,  0,  0, 31, 30, 39,  0, 41,  0, 40,  0,  0, 19,  0,  0,  0,  0,  0,  0,  0, 27,  0,  0
6, 16162, 3,N0CALL,     1.61, -86,  16, 3,   boost,  104.44,  97328.00,  338.16,  152.89,  265.71, 17.3, 3.99, 3.99, 4.08,-115.55,   0.68,   1.80, 221.44,  -6.47,   8.54,  -0.38,  -0.10,  -0.40,   6.00, 4.11, 0.00, 0.00, 0.00, 0.00, 1, 1, 15,  41.7770671, -86.5781800,   191.0, 2026,  3,  8, 15, 39,  8,        1,        1, 109,   0,   1.2,   0.6,   1.0, 38, 41,  0,  0,  0,  0, 34, 43,  0,  0,  0,  0, 31, 30, 39,  0, 41,  0, 40,  0,  0, 19,  0,  0,  0,  0,  0,  0,  0, 27,  0,  0
6, 16162, 3,N0CALL,     1.64, -82,   8, 3,   boost,  104.44,  97328.00,  338.16,  152.89,  265.71, 17.3, 4.11, 4.11, 4.08,-115.55,   0.68,   1.80, 221.44,  -6.47,   8.54,  -0.38,  -0.10,  -0.40,   6.00, 4.09, 0.00, 0.00, 0.00, 0.00, 1, 1, 15,  41.7770671, -86.5781800,   191.0, 2026,  3,  8, 15, 39,  8,        1,        1, 109,   0,   1.2,   0.6,   1.0, 38, 41,  0,  0,  0,  0, 34, 43,  0,  0,  0,  0, 31, 30, 39,  0, 41,  0, 40,  0,  0, 19,  0,  0,  0,  0,  0,  0,  0, 27,  0,  0
6, 16162, 3,N0CALL,     1.72, -80,   7, 3,   boost,   97.58,  97064.00,  360.89,  175.62,  276.75, 17.3, 4.11, 4.11, 4.08,-109.63,   0.13,   0.50, 228.33,  14.59,   1.46,  -0.39,  -0.18,  -0.36,   6.00, 4.09, 0.00, 0.00, 0.00, 0.00, 1, 1, 15,  41.7770671, -86.5781800,   191.0, 2026,  3,  8, 15, 39,  8,        1,        1, 109,   0,   1.2,   0.6,   1.0, 38, 41,  0,  0,  0,  0, 34, 43,  0,  0,  0,  0, 31, 30, 39,  0, 41,  0, 40,  0,  0, 19,  0,  0,  0,  0,  0,  0,  0, 27,  0,  0
6, 16162, 3,N0CALL,     1.75, -78,   7, 3,   boost,   97.58,  97064.00,  360.89,  175.62,  276.75, 17.3, 4.11, 4.11, 4.09,-109.63,   0.13,   0.50, 228.33,  14.59,   1.46,  -0.39,  -0.18,  -0.36,   6.00, 4.08, 0.00, 0.00, 0.00, 0.00, 1, 1, 15,  41.7770671, -86.5781800,   191.0, 2026,  3,  8, 15, 39,  8,        1,        1, 109,   0,   1.2,   0.6,   1.0, 38, 41,  0,  0,  0,  0, 34, 43,  0,  0,  0,  0, 31, 30, 39,  0, 41,  0, 40,  0,  0, 19,  0,  0,  0,  0,  0,  0,  0, 27,  0,  0
6, 16162, 3,N0CALL,     1.83, -76,   7, 3,   boost,   95.12,  96841.00,  380.13,  194.86,  287.29, 17.3, 4.11, 4.11, 4.09,-103.98,  -1.61,   0.52, 222.72,  -4.58,   2.20,  -0.38,  -0.23,  -0.30,   6.00, 4.08, 0.00, 0.00, 0.00, 0.00, 1, 1, 15,  41.7770671, -86.5781800,   191.0, 2026,  3,  8, 15, 39,  8,        1,        1, 109,   0,   1.2,   0.6,   1.0, 38, 41,  0,  0,  0,  0, 34, 43,  0,  0,  0,  0, 31, 30, 39,  0, 41,  0, 40,  0,  0, 19,  0,  0,  0,  0,  0,  0,  0, 27,  0,  0
6, 16162, 3,N0CALL,     1.86, -78,  12, 3,   boost,   95.12,  96841.00,  380.13,  194.86,  287.29, 17.3, 3.99, 4.11, 4.08,-103.98,  -1.61,   0.52, 222.72,  -4.58,   2.20,  -0.38,  -0.23,  -0.30,   6.00, 4.10, 0.00, 0.00, 0.00, 0.00, 1, 1, 15,  41.7770671, -86.5781800,   191.0, 2026,  3,  8, 15, 39,  8,        1,        1, 109,   0,   1.2,   0.6,   1.0, 38, 41,  0,  0,  0,  0, 34, 43,  0,  0,  0,  0, 31, 30, 39,  0, 41,  0, 40,  0,  0, 19,  0,  0,  0,  0,  0,  0,  0, 27,  0,  0
6, 16162, 3,N0CALL,     1.94, -75,   7, 3,   boost,   83.85,  96560.00,  404.42,  219.15,  297.07, 17.3, 3.99, 4.11, 4.08, -98.55,  -4.75,   6.70, 210.69,   5.25,   6.10,  -0.38,  -0.26,  -0.22,   6.00, 4.10, 0.00, 0.00, 0.00, 0.00, 1, 1, 15,  41.7770671, -86.5781800,   191.0, 2026,  3,  8, 15, 39,  8,        1,        1, 109,   0,   1.2,   0.6,   1.0, 38, 41,  0,  0,  0,  0, 34, 43,  0,  0,  0,  0, 31, 30, 39,  0, 41,  0, 40,  0,  0, 19,  0,  0,  0,  0,  0,  0,  0, 27,  0,  0
6, 16162, 3,N0CALL,     1.97, -78,   7, 3,   boost,   83.85,  96560.00,  404.42,  219.15,  297.07, 17.3, 4.11, 4.11, 4.08, -98.55,  -4.75,   6.70, 210.69,   5.25,   6.10,  -0.38,  -0.26,  -0.22,   6.00, 4.10, 0.00, 0.00, 0.00, 0.00, 1, 1, 15,  41.7770671, -86.5781800,   191.0, 2026,  3,  8, 15, 39,  8,        1,        1, 109,   0,   1.2,   0.6,   1.0, 38, 41,  0,  0,  0,  0, 34, 43,  0,  0,  0,  0, 31, 30, 39,  0, 41,  0, 40,  0,  0, 19,  0,  0,  0,  0,  0,  0,  0, 27,  0,  0
6, 16162, 3,N0CALL,     2.05, -77,   8, 3,   boost,   26.97,  96280.00,  428.69,  243.41,  303.12, 17.3, 4.11, 4.11, 4.08, -36.26,   5.22,  -2.77, 235.23,   9.77,   2.20,  -0.38,  -0.25,  -0.12,   7.00, 4.10, 0.00, 0.00, 0.00, 0.00, 1, 1, 15,  41.7770671, -86.5781800,   191.0, 2026,  3,  8, 15, 39,  8,        1,        1, 109,   0,   1.2,   0.6,   1.0, 38, 41,  0,  0,  0,  0, 34, 43,  0,  0,  0,  0, 31, 30, 39,  0, 41,  0, 40,  0,  0, 19,  0,  0,  0,  0,  0,  0,  0, 27,  0,  0
6, 16162, 3,N0CALL,     2.08, -78,   8, 3,   boost,   26.97,  96280.00,  428.69,  243.41,  303.12, 17.3, 3.99, 4.11, 4.08, -36.26,   5.22,  -2.77, 235.23,   9.77,   2.20,  -0.38,  -0.25,  -0.12,   7.00, 4.08, 0.00, 0.00, 0.00, 0.00, 1, 1, 15,  41.7770671, -86.5781800,   191.0, 2026,  3,  8, 15, 39,  8,        1,        1, 109,   0,   1.2,   0.6,   1.0, 38, 41,  0,  0,  0,  0, 34, 43,  0,  0,  0,  0, 31, 30, 39,  0, 41,  0, 40,  0,  0, 19,  0,  0,  0,  0,  0,  0,  0, 27,  0,  0
6, 16162, 3,N0CALL,     2.16, -80,   4, 3,   boost,  -31.38,  95962.00,  456.31,  271.04,  302.88, 17.3, 3.99, 4.11, 4.08,  18.35,  -2.55,   8.02, 236.57,   2.38,   5.74,  -0.37,  -0.21,  -0.06,   7.00, 4.08, 0.00, 0.00, 0.00, 0.00, 1, 0,  0,  41.7770671, -86.5781800,   191.0, 2026,  3,  8, 15, 39,  8,        1,        1, 109,   0,  23.1,  23.1,  23.1, 38, 41,  0,  0,  0,  0, 34, 43,  0,  0,  0,  0, 31, 30, 39,  0, 41,  0, 40,  0,  0, 19,  0,  0,  0,  0,  0,  0,  0, 27,  0,  0
6, 16162, 3,N0CALL,     2.16, -82,   7, 3,   boost,  -31.38,  95962.00,  456.31,  271.04,  302.88, 17.3, 3.99, 4.11, 4.08,  18.35,  -2.55,   8.02, 236.57,   2.38,   5.74,  -0.37,  -0.21,  -0.06,   7.00, 4.08, 0.00, 0.00, 0.00, 0.00, 1, 0,  0,  41.7770671, -86.5781800,   191.0, 2026,  3,  8, 15, 39,  8,        1,        1, 109,   0,  23.1,  23.1,  23.1, 38, 41,  0,  0,  0,  0, 34, 43,  0,  0,  0,  0, 31, 30, 39,  0, 41,  0, 40,  0,  0, 19,  0,  0,  0,  0,  0,  0,  0, 27,  0,  0
6, 16162, 3,N0CALL,     2.19, -81,   6, 3,   boost,  -31.38,  95962.00,  456.31,  271.04,  302.88, 17.3, 3.99, 4.11, 4.08,  18.35,  -2.55,   8.02, 236.57,   2.38,   5.74,  -0.37,  -0.21,  -0.06,   7.00, 4.09, 0.00, 0.00, 0.00, 0.00, 1, 0,  0,  41.7770671, -86.5781800,   191.0, 2026,  3,  8, 15, 39,  8,        1,        1, 109,   0,  23.1,  23.1,  23.1, 38, 41,  0,  0,  0,  0, 34, 43,  0,  0,  0,  0, 31, 30, 39,  0, 41,  0, 40,  0,  0, 19,  0,  0,  0,  0,  0,  0,  0, 27,  0,  0
6, 16162, 3,N0CALL,     2.27, -84,  12, 3,   boost,  -34.32,  95656.00,  482.96,  297.69,  299.28, 17.3, 3.99, 4.11, 4.08,  23.08,   2.82,   6.13, 287.29,   3.11,   5.43,  -0.37,  -0.12,  -0.02,   8.00, 4.09, 0.00, 0.00, 0.00, 0.00, 1, 0,  0,  41.7770671, -86.5781800,   191.0, 2026,  3,  8, 15, 39,  8,        1,        1, 109,   0,  23.1,  23.1,  23.1, 38, 41,  0,  0,  0,  0, 34, 43,  0,  0,  0,  0, 31, 30, 39,  0, 41,  0, 40,  0,  0, 19,  0,  0,  0,  0,  0,  0,  0, 27,  0,  0
6, 16162, 3,N0CALL,     2.30, -85,   8, 5,   coast,  -34.32,  95656.00,  482.96,  297.69,  299.28, 17.3, 3.99, 4.11, 4.08,  23.08,   2.82,   6.13, 287.29,   3.11,   5.43,  -0.37,  -0.12,  -0.02,   8.00, 4.09, 0.00, 0.00, 0.00, 0.00, 1, 0,  0,  41.7770671, -86.5781800,   191.0, 2026,  3,  8, 15, 39,  8,        1,        1, 109,   0,  23.1,  23.1,  23.1, 38, 41,  0,  0,  0,  0, 34, 43,  0,  0,  0,  0, 31, 30, 39,  0, 41,  0, 40,  0,  0, 19,  0,  0,  0,  0,  0,  0,  0, 27,  0,  0
6, 16162, 3,N0CALL,     2.38, -89,  14, 5,   coast,  -31.87,  95313.00,  512.92,  327.65,  295.67, 17.3, 3.99, 4.11, 4.08,  21.17,   0.99,   4.67, 284.48,  -1.40,   4.21,  -0.37,  -0.03,  -0.04,   9.00, 4.09, 0.00, 0.00, 0.00, 0.00, 1, 0,  0,  41.7770671, -86.5781800,   191.0, 2026,  3,  8, 15, 39,  8,        1,        1, 109,   0,  23.1,  23.1,  23.1, 38, 41,  0,  0,  0,  0, 34, 43,  0,  0,  0,  0, 31, 30, 39,  0, 41,  0, 40,  0,  0, 19,  0,  0,  0,  0,  0,  0,  0, 27,  0,  0
6, 16162, 3,N0CALL,     2.60, -89,  18, 5,   coast,  -31.38,  94627.00,  573.10,  387.83,  288.77, 17.3, 3.99, 4.11, 4.08,  21.21,  -1.34,   5.87, 291.99,   5.19,   2.99,  -0.37,   0.09,  -0.21,   9.00, 4.09, 0.00, 0.00, 0.00, 0.00, 1, 0,  0,  41.7770671, -86.5781800,   191.0, 2026,  3,  8, 15, 39,  8,        1,        1, 109,   0,  23.1,  23.1,  23.1, 38, 41,  0,  0,  0,  0, 34, 43,  0,  0,  0,  0, 31, 30, 39,  0, 41,  0, 40,  0,  0, 19,  0,  0,  0,  0,  0,  0,  0, 27,  0,  0
6, 16162, 3,N0CALL,     2.71, -87,  16, 5,   coast,  -27.46,  94330.00,  599.27,  413.99,  285.56, 17.3, 3.99, 4.11, 4.08,  19.58,   8.74,   3.34, 284.55,  -0.79,   3.05,  -0.37,   0.07,  -0.30,   8.00, 4.09, 0.00, 0.00, 0.00, 0.00, 1, 0,  0,  41.7770671, -86.5781800,   191.0, 2026,  3,  8, 15, 39,  8,        1,        1, 109,   0,  23.1,  23.1,  23.1, 38, 41,  0,  0,  0,  0, 34, 43,  0,  0,  0,  0, 31, 30, 39,  0, 41,  0, 40,  0,  0, 19,  0,  0,  0,  0,  0,  0,  0, 27,  0,  0
6, 16162, 3,N0CALL,     2.74, -86,  11, 5,   coast,  -27.46,  94330.00,  599.27,  413.99,  285.56, 17.3, 3.99, 4.11, 4.08,  19.58,   8.74,   3.34, 284.55,  -0.79,   3.05,  -0.37,   0.07,  -0.30,   8.00, 4.06, 0.00, 0.00, 0.00, 0.00, 1, 0,  0,  41.7770671, -86.5781800,   191.0, 2026,  3,  8, 15, 39,  8,        1,        1, 109,   0,  23.1,  23.1,  23.1, 38, 41,  0,  0,  0,  0, 34, 43,  0,  0,  0,  0, 31, 30, 39,  0, 41,  0, 40,  0,  0, 19,  0,  0,  0,  0,  0,  0,  0, 27,  0,  0
6, 16162, 3,N0CALL,     2.82, -85,  10, 5,   coast,  -27.46,  93960.00,  631.95,  446.68,  282.56, 17.3, 3.99, 4.11, 4.08,  19.39,  -2.00,   5.90, 283.26,   3.97,  -2.81,  -0.38,   0.00,  -0.37,   9.00, 4.06, 0.00, 0.00, 0.00, 0.00, 1, 0,  0,  41.7770671, -86.5781800,   191.0, 2026,  3,  8, 15, 39,  8,        1,        1, 109,   0,  23.1,  23.1,  23.1, 38, 41,  0,  0,  0,  0, 34, 43,  0,  0,  0,  0, 31, 30, 39,  0, 41,  0, 40,  0,  0, 19,  0,  0,  0,  0,  0,  0,  0, 27,  0,  0
6, 16162, 3,N0CALL,     2.85, -85,  17, 5,   coast,  -27.46,  93960.00,  631.95,  446.68,  282.56, 17.3, 4.11, 4.11, 4.08,  19.39,  -2.00,   5.90, 283.26,   3.97,  -2.81,  -0.38,   0.00,  -0.37,   9.00, 4.09, 0.00, 0.00, 0.00, 0.00, 1, 0,  0,  41.7770671, -86.5781800,   191.0, 2026,  3,  8, 15, 39,  8,        1,        1, 109,   0,  23.1,  23.1,  23.1, 38, 41,  0,  0,  0,  0, 34, 43,  0,  0,  0,  0, 31, 30, 39,  0, 41,  0, 40,  0,  0, 19,  0,  0,  0,  0,  0,  0,  0, 27,  0,  0
6, 16162, 3,N0CALL,     2.93, -86,  10, 5,   coast,  -26.97,  93676.00,  657.12,  471.84,  279.59, 17.3, 4.11, 4.11, 4.08,  18.58,   3.14,   3.66, 275.82,  -0.49,  11.60,  -0.38,  -0.08,  -0.39,   8.00, 4.09, 0.00, 0.00, 0.00, 0.00, 1, 0,  0,  41.7770671, -86.5781800,   191.0, 2026,  3,  8, 15, 39,  8,        1,        1, 109,   0,  23.1,  23.1,  23.1, 38, 41,  0,  0,  0,  0, 34, 43,  0,  0,  0,  0, 31, 30, 39,  0, 41,  0, 40,  0,  0, 19,  0,  0,  0,  0,  0,  0,  0, 27,  0,  0
6, 16162, 3,N0CALL,     3.07, -86,   9, 5,   coast,  -26.97,  93676.00,  657.12,  471.84,  279.59, 17.3, 3.99, 4.11, 4.08,  18.58,   3.14,   3.66, 275.82,  -0.49,  11.60,  -0.38,  -0.08,  -0.39,   8.00, 4.10, 0.00, 0.00, 0.00, 0.00, 1, 0,  0,  41.7770671, -86.5781800,   191.0, 2026,  3,  8, 15, 39,  8,        1,        1, 109,   0,  23.1,  23.1,  23.1, 38, 41,  0,  0,  0,  0, 34, 43,  0,  0,  0,  0, 31, 30, 39,  0, 41,  0, 40,  0,  0, 19,  0,  0,  0,  0,  0,  0,  0, 27,  0,  0
6, 16162, 3,N0CALL,     3.15, -86,   8, 5,   coast,  -28.93,  92921.00,  724.31,  539.03,  273.48, 17.3, 3.99, 4.11, 4.08,  18.39,   2.39,   1.86, 272.09, -12.88, -11.66,  -0.37,  -0.24,  -0.28,   8.00, 4.10, 0.00, 0.00, 0.00, 0.00, 1, 0,  0,  41.7770671, -86.5781800,   191.0, 2026,  3,  8, 15, 39,  8,        1,        1, 109,   0,  23.1,  23.1,  23.1, 38, 41,  0,  0,  0,  0, 34, 43,  0,  0,  0,  0, 31, 30, 39,  0, 41,  0, 40,  0,  0, 19,  0,  0,  0,  0,  0,  0,  0, 27,  0,  0
6, 16162, 3,N0CALL,     3.18, -85,  11, 5,   coast,  -28.93,  92921.00,  724.31,  539.03,  273.48, 17.3, 3.99, 4.11, 4.08,  18.39,   2.39,   1.86, 272.09, -12.88, -11.66,  -0.37,  -0.24,  -0.28,   8.00, 4.07, 0.00, 0.00, 0.00, 0.00, 1, 0,  0,  41.7770671, -86.5781800,   191.0, 2026,  3,  8, 15, 39,  8,        1,        1, 109,   0,  23.1,  23.1,  23.1, 38, 41,  0,  0,  0,  0, 34, 43,  0,  0,  0,  0, 31, 30, 39,  0, 41,  0, 40,  0,  0, 19,  0,  0,  0,  0,  0,  0,  0, 27,  0,  0
6, 16162, 3,N0CALL,     3.26, -87,  10, 5,   coast,  -28.93,  92660.00,  747.64,  562.37,  270.32, 17.3, 3.99, 4.11, 4.08,  17.74,  -0.93,   4.11, 268.37,  17.27,   9.34,  -0.37,  -0.27,  -0.18,   9.00, 4.07, 0.00, 0.00, 0.00, 0.00, 1, 0,  0,  41.7770671, -86.5781800,   191.0, 2026,  3,  8, 15, 39,  8,        1,        1, 109,   0,  23.1,  23.1,  23.1, 38, 41,  0,  0,  0,  0, 34, 43,  0,  0,  0,  0, 31, 30, 39,  0, 41,  0, 40,  0,  0, 19,  0,  0,  0,  0,  0,  0,  0, 27,  0,  0
6, 16162, 3,N0CALL,     3.29, -86,  13, 5,   coast,  -28.93,  92660.00,  747.64,  562.37,  270.32, 17.3, 3.99, 4.11, 4.08,  17.74,  -0.93,   4.11, 268.37,  17.27,   9.34,  -0.37,  -0.27,  -0.18,   9.00, 4.08, 0.00, 0.00, 0.00, 0.00, 1, 0,  0,  41.7770671, -86.5781800,   191.0, 2026,  3,  8, 15, 39,  8,        1,        1, 109,   0,  23.1,  23.1,  23.1, 38, 41,  0,  0,  0,  0, 34, 43,  0,  0,  0,  0, 31, 30, 39,  0, 41,  0, 40,  0,  0, 19,  0,  0,  0,  0,  0,  0,  0, 27,  0,  0
6, 16162, 3,N0CALL,     3.37, -85,  15, 5,   coast,  -26.48,  92386.00,  772.19,  586.92,  267.30, 17.3, 3.99, 4.11, 4.08,  16.91,   5.35,   0.63, 279.11,   2.62,   5.86,  -0.37,  -0.23,  -0.08,  11.00, 4.08, 0.00, 0.00, 0.00, 0.00, 1, 0,  0,  41.7770671, -86.5781800,   191.0, 2026,  3,  8, 15, 39,  8,        1,        1, 109,   0,  23.1,  23.1,  23.1, 38, 41,  0,  0,  0,  0, 34, 43,  0,  0,  0,  0, 31, 30, 39,  0, 41,  0, 40,  0,  0, 19,  0,  0,  0,  0,  0,  0,  0, 27,  0,  0
6, 16162, 3,N0CALL,     3.40, -85,  13, 5,   coast,  -26.48,  92386.00,  772.19,  586.92,  267.30, 17.3, 3.99, 4.11, 4.08,  16.91,   5.35,   0.63, 279.11,   2.62,   5.86,  -0.37,  -0.23,  -0.08,  11.00, 4.08, 0.00, 0.00, 0.00, 0.00, 1, 0,  0,  41.7770671, -86.5781800,   191.0, 2026,  3,  8, 15, 39,  8,        1,        1, 109,   0,  23.1,  23.1,  23.1, 38, 41,  0,  0,  0,  0, 34, 43,  0,  0,  0,  0, 31, 30, 39,  0, 41,  0, 40,  0,  0, 19,  0,  0,  0,  0,  0,  0,  0, 27,  0,  0
6, 16162, 3,N0CALL,     3.48, -83,   6, 5,   coast,  -25.99,  92091.00,  798.69,  613.41,  264.45, 17.3, 3.99, 4.11, 4.08,  16.89,  -0.83,   0.19, 278.44,   8.06,  -4.21,  -0.36,  -0.17,  -0.02,  10.00, 4.08, 0.00, 0.00, 0.00, 0.00, 1, 0,  0,  41.7770671, -86.5781800,   191.0, 2026,  3,  8, 15, 39,  8,        1,        1, 109,   0,  23.1,  23.1,  23.1, 38, 41,  0,  0,  0,  0, 34, 43,  0,  0,  0,  0, 31, 30, 39,  0, 41,  0, 40,  0,  0, 19,  0,  0,  0,  0,  0,  0,  0, 27,  0,  0
6, 16162, 3,N0CALL,     3.51, -83,   8, 5,   coast,  -25.99,  92091.00,  798.69,  613.41,  264.45, 17.3, 4.11, 4.11, 4.08,  16.89,  -0.83,   0.19, 278.44,   8.06,  -4.21,  -0.36,  -0.17,  -0.02,  10.00, 4.10, 0.00, 0.00, 0.00, 0.00, 1, 0,  0,  41.7770671, -86.5781800,   191.0, 2026,  3,  8, 15, 39,  8,        1,        1, 109,   0,  23.1,  23.1,  23.1, 38, 41,  0,  0,  0,  0, 34, 43,  0,  0,  0,  0, 31, 30, 39,  0, 41,  0, 40,  0,  0, 19,  0,  0,  0,  0,  0,  0,  0, 27,  0,  0
6, 16162, 3,N0CALL,     3.59, -83,  10, 5,   coast,  -26.97,  91844.00,  820.92,  635.65,  261.57, 17.3, 4.11, 4.11, 4.08,  16.46,   1.88,   1.89, 273.74,   2.32,  10.93,  -0.36,  -0.07,  -0.01,  11.00, 4.10, 0.00, 0.00, 0.00, 0.00, 1, 0,  0,  41.7770671, -86.5781800,   191.0, 2026,  3,  8, 15, 39,  8,        1,        1, 109,   0,  23.1,  23.1,  23.1, 38, 41,  0,  0,  0,  0, 34, 43,  0,  0,  0,  0, 31, 30, 39,  0, 41,  0, 40,  0,  0, 19,  0,  0,  0,  0,  0,  0,  0, 27,  0,  0
6, 16162, 3,N0CALL,     3.62, -84,  11, 5,   coast,  -26.97,  91844.00,  820.92,  635.65,  261.57, 17.3, 3.99, 4.11, 4.08,  16.46,   1.88,   1.89, 273.74,   2.32,  10.93,  -0.36,  -0.07,  -0.01,  11.00, 4.09, 0.00, 0.00, 0.00, 0.00, 1, 0,  0,  41.7770671, -86.5781800,   191.0, 2026,  3,  8, 15, 39,  8,        1,        1, 109,   0,  23.1,  23.1,  23.1, 20, 18,  0,  0,  0,  0, 14, 22,  0,  0,  0,  0, 18, 16, 19,  0, 22,  0, 39,  0,  0,  7,  0,  0,  0,  0,  0,  0,  0, 12,  0,  0
6, 16162, 3,N0CALL,     3.62, -83,  11, 5,   coast,  -26.97,  91844.00,  820.92,  635.65,  261.57, 17.3, 3.99, 4.11, 4.08,  16.46,   1.88,   1.89, 273.74,   2.32,  10.93,  -0.36,  -0.07,  -0.01,  11.00, 4.09, 0.00, 0.00, 0.00, 0.00, 1, 0,  0,  41.7770671, -86.5781800,   191.0, 2026,  3,  8, 15, 39,  8,        1,        1, 109,   0,  23.1,  23.1,  23.1, 20, 18,  0,  0,  0,  0, 14, 22,  0,  0,  0,  0, 18, 16, 19,  0, 22,  0, 39,  0,  0,  7,  0,  0,  0,  0,  0,  0,  0, 12,  0,  0
6, 16162, 3,N0CALL,     3.70, -85,  10, 5,   coast,  -27.95,  91513.00,  850.80,  665.53,  258.58, 17.3, 3.99, 4.11, 4.08,  15.71,   0.44,   4.47, 272.40,   3.78,  -0.43,  -0.36,   0.02,  -0.05,  12.00, 4.09, 0.00, 0.00, 0.00, 0.00, 1, 0,  0,  41.7770671, -86.5781800,   191.0, 2026,  3,  8, 15, 39,  8,        1,        1, 109,   0,  23.1,  23.1,  23.1, 20, 18,  0,  0,  0,  0, 14, 22,  0,  0,  0,  0, 18, 16, 19,  0, 22,  0, 39,  0,  0,  7,  0,  0,  0,  0,  0,  0,  0, 12,  0,  0
6, 16162, 3,N0CALL,     3.73, -86,  12, 5,   coast,  -27.95,  91513.00,  850.80,  665.53,  258.58, 17.3, 4.11, 4.11, 4.08,  15.71,   0.44,   4.47, 272.40,   3.78,  -0.43,  -0.36,   0.02,  -0.05,  12.00, 4.10, 0.00, 0.00, 0.00, 0.00, 1, 0,  0,  41.7770671, -86.5781800,   191.0, 2026,  3,  8, 15, 39,  8,        1,        1, 109,   0,  23.1,  23.1,  23.1, 20, 18,  0,  0,  0,  0, 14, 22,  0,  0,  0,  0, 18, 16, 19,  0, 22,  0, 39,  0,  0,  7,  0,  0,  0,  0,  0,  0,  0, 12,  0,  0
6, 16162, 3,N0CALL,     3.81, -88,  17, 5,   coast,  -24.52,  91285.00,  871.43,  686.16,  255.73, 17.3, 4.11, 4.11, 4.08,  15.27,   0.46,   2.52, 263.49,   2.87,   5.62,  -0.36,   0.08,  -0.13,  11.00, 4.10, 0.00, 0.00, 0.00, 0.00, 1, 0,  0,  41.7770671, -86.5781800,   191.0, 2026,  3,  8, 15, 39,  8,        1,        1, 109,   0,  23.1,  23.1,  23.1, 20, 18,  0,  0,  0,  0, 14, 22,  0,  0,  0,  0, 18, 16, 19,  0, 22,  0, 39,  0,  0,  7,  0,  0,  0,  0,  0,  0,  0, 12,  0,  0
6, 16162, 3,N0CALL,     4.14, -83,   9, 5,   coast,  -22.06,  90427.00,  949.45,  764.18,  248.13, 17.3, 4.11, 4.11, 4.08,  14.18,   0.68,   2.10, 256.96,   0.00,   4.46,  -0.37,   0.01,  -0.39,  11.00, 4.10, 0.00, 0.00, 0.00, 0.00, 1, 0,  0,  41.7770671, -86.5781800,   191.0, 2026,  3,  8, 15, 39,  8,        1,        1, 109,   0,  23.1,  23.1,  23.1, 20, 18,  0,  0,  0,  0, 14, 22,  0,  0,  0,  0, 18, 16, 19,  0, 22,  0, 39,  0,  0,  7,  0,  0,  0,  0,  0,  0,  0, 12,  0,  0
6, 16162, 3,N0CALL,     4.17, -83,   8, 5,   coast,  -22.06,  90427.00,  949.45,  764.18,  248.13, 17.3, 3.99, 4.11, 4.08,  14.18,   0.68,   2.10, 256.96,   0.00,   4.46,  -0.37,   0.01,  -0.39,  11.00, 4.09, 0.00, 0.00, 0.00, 0.00, 1, 0,  0,  41.7770671, -86.5781800,   191.0, 2026,  3,  8, 15, 39,  8,        1,        1, 109,   0,  23.1,  23.1,  23.1, 20, 18,  0,  0,  0,  0, 14, 22,  0,  0,  0,  0, 18, 16, 19,  0, 22,  0, 39,  0,  0,  7,  0,  0,  0,  0,  0,  0,  0, 12,  0,  0
6, 16162, 3,N0CALL,     4.25, -83,  15, 5,   coast,  -23.05,  90194.00,  970.74,  785.47,  245.67, 17.3, 3.99, 4.11, 4.08,  13.84,   1.12,   3.17, 252.75,   5.86,   0.73,  -0.37,  -0.07,  -0.41,  10.00, 4.09, 0.00, 0.00, 0.00, 0.00, 1, 0,  0,  41.7770671, -86.5781800,   191.0, 2026,  3,  8, 15, 39,  8,        1,        1, 109,   0,  23.1,  23.1,  23.1, 20, 18,  0,  0,  0,  0, 14, 22,  0,  0,  0,  0, 18, 16, 19,  0, 22,  0, 39,  0,  0,  7,  0,  0,  0,  0,  0,  0,  0, 12,  0,  0
6, 16162, 3,N0CALL,     4.28, -83,   7, 5,   coast,  -23.05,  90194.00,  970.74,  785.47,  245.67, 17.3, 4.11, 4.11, 4.08,  13.84,   1.12,   3.17, 252.75,   5.86,   0.73,  -0.37,  -0.07,  -0.41,  10.00, 4.10, 0.00, 0.00, 0.00, 0.00, 1, 0,  0,  41.7770671, -86.5781800,   191.0, 2026,  3,  8, 15, 39,  8,        1,        1, 109,   0,  23.1,  23.1,  23.1, 20, 18,  0,  0,  0,  0, 14, 22,  0,  0,  0,  0, 18, 16, 19,  0, 22,  0, 39,  0,  0,  7,  0,  0,  0,  0,  0,  0,  0, 12,  0,  0
6, 16162, 3,N0CALL,     4.36, -86,   9, 5,   coast,  -22.56,  89907.00,  997.03,  811.75,  243.19, 17.3, 4.11, 4.11, 4.08,  13.43,   0.34,   2.77, 262.45,  -1.16,   1.71,  -0.37,  -0.16,  -0.38,  10.00, 4.10, 0.00, 0.00, 0.00, 0.00, 1, 0,  0,  41.7770671, -86.5781800,   191.0, 2026,  3,  8, 15, 39,  8,        1,        1, 109,   0,  23.1,  23.1,  23.1, 20, 18,  0,  0,  0,  0, 14, 22,  0,  0,  0,  0, 18, 16, 19,  0, 22,  0, 39,  0,  0,  7,  0,  0,  0,  0,  0,  0,  0, 12,  0,  0
6, 16162, 3,N0CALL,     4.39, -86,  14, 5,   coast,  -22.56,  89907.00,  997.03,  811.75,  243.19, 17.3, 4.11, 4.11, 4.08,  13.43,   0.34,   2.77, 262.45,  -1.16,   1.71,  -0.37,  -0.16,  -0.38,  10.00, 4.10, 0.00, 0.00, 0.00, 0.00, 1, 0,  0,  41.7770671, -86.5781800,   191.0, 2026,  3,  8, 15, 39,  8,        1,        1, 109,   0,  23.1,  23.1,  23.1, 20, 18,  0,  0,  0,  0, 14, 22,  0,  0,  0,  0, 18, 16, 19,  0, 22,  0, 39,  0,  0,  7,  0,  0,  0,  0,  0,  0,  0, 12,  0,  0
6, 16162, 3,N0CALL,     4.58, -88,  13, 5,   coast,  -23.05,  89409.00, 1042.80,  857.52,  238.21, 17.3, 4.11, 4.11, 4.08,  12.71,   0.93,   2.52, 243.47,   4.88,   3.78,  -0.37,  -0.27,  -0.22,  10.00, 4.10, 0.00, 0.00, 0.00, 0.00, 1, 0,  0,  41.7770671, -86.5781800,   191.0, 2026,  3,  8, 15, 39,  8,        1,        1, 109,   0,  23.1,  23.1,  23.1, 20, 18,  0,  0,  0,  0, 14, 22,  0,  0,  0,  0, 18, 16, 19,  0, 22,  0, 39,  0,  0,  7,  0,  0,  0,  0,  0,  0,  0, 12,  0,  0
6, 16162, 3,N0CALL,     4.61, -87,  13, 5,   coast,  -23.05,  89409.00, 1042.80,  857.52,  238.21, 17.3, 4.11, 4.11, 4.08,  12.71,   0.93,   2.52, 243.47,   4.88,   3.78,  -0.37,  -0.27,  -0.22,  10.00, 4.09, 0.00, 0.00, 0.00, 0.00, 1, 0,  0,  41.7770671, -86.5781800,   191.0, 2026,  3,  8, 15, 39,  8,        1,        1, 109,   0,  23.1,  23.1,  23.1, 20, 18,  0,  0,  0,  0, 14, 22,  0,  0,  0,  0, 18, 16, 19,  0, 22,  0, 39,  0,  0,  7,  0,  0,  0,  0,  0,  0,  0, 12,  0,  0
6, 16162, 3,N0CALL,     4.69, -88,  12, 5,   coast,  -21.57,  89187.00, 1063.27,  877.99,  235.78, 17.3, 4.11, 4.11, 4.08,  12.53,   0.98,   0.42, 245.00,   5.31,   1.83,  -0.36,  -0.27,  -0.12,  11.00, 4.09, 0.00, 0.00, 0.00, 0.00, 1, 0,  0,  41.7770671, -86.5781800,   191.0, 2026,  3,  8, 15, 39,  8,        1,        1, 109,   0,  23.1,  23.1,  23.1, 20, 18,  0,  0,  0,  0, 14, 22,  0,  0,  0,  0, 18, 16, 19,  0, 22,  0, 39,  0,  0,  7,  0,  0,  0,  0,  0,  0,  0, 12,  0,  0
6, 16162, 3,N0CALL,     4.72, -86,  11, 5,   coast,  -21.57,  89187.00, 1063.27,  877.99,  235.78, 17.3, 4.11, 4.11, 4.08,  12.53,   0.98,   0.42, 245.00,   5.31,   1.83,  -0.36,  -0.27,  -0.12,  11.00, 4.07, 0.00, 0.00, 0.00, 0.00, 1, 0,  0,  41.7770671, -86.5781800,   191.0, 2026,  3,  8, 15, 39,  8,        1,        1, 109,   0,  23.1,  23.1,  23.1, 14, 25,  0,  0,  0,  0, 10, 39,  0,  0,  0,  0, 12, 10, 26,  0, 11,  0, 36,  0,  0,  9,  0,  0,  0,  0,  0,  0,  0,  0,  0,  0
6, 16162, 3,N0CALL,     4.72, -85,  13, 5,   coast,  -21.57,  89187.00, 1063.27,  877.99,  235.78, 17.3, 4.11, 4.11, 4.08,  12.53,   0.98,   0.42, 245.00,   5.31,   1.83,  -0.36,  -0.27,  -0.12,  11.00, 4.07, 0.00, 0.00, 0.00, 0.00, 1, 0,  0,  41.7770671, -86.5781800,   191.0, 2026,  3,  8, 15, 39,  8,        1,        1, 109,   0,  23.1,  23.1,  23.1, 14, 25,  0,  0,  0,  0, 10, 39,  0,  0,  0,  0, 12, 10, 26,  0, 11,  0, 36,  0,  0,  9,  0,  0,  0,  0,  0,  0,  0,  0,  0,  0
6, 16162, 3,N0CALL,     4.80, -86,  10, 5,   coast,  -23.54,  88915.00, 1088.40,  903.13,  233.33, 17.3, 4.11, 4.11, 4.08,  12.05,   0.12,   2.39, 237.73,   5.13,   1.71,  -0.36,  -0.22,  -0.05,  11.00, 4.07, 0.00, 0.00, 0.00, 0.00, 1, 0,  0,  41.7770671, -86.5781800,   191.0, 2026,  3,  8, 15, 39,  8,        1,        1, 109,   0,  23.1,  23.1,  23.1, 14, 25,  0,  0,  0,  0, 10, 39,  0,  0,  0,  0, 12, 10, 26,  0, 11,  0, 36,  0,  0,  9,  0,  0,  0,  0,  0,  0,  0,  0,  0,  0
6, 16162, 3,N0CALL,     4.83, -85,  12, 5,   coast,  -23.54,  88915.00, 1088.40,  903.13,  233.33, 17.3, 4.11, 4.11, 4.08,  12.05,   0.12,   2.39, 237.73,   5.13,   1.71,  -0.36,  -0.22,  -0.05,  11.00, 4.08, 0.00, 0.00, 0.00, 0.00, 1, 0,  0,  41.7770671, -86.5781800,   191.0, 2026,  3,  8, 15, 39,  8,        1,        1, 109,   0,  23.1,  23.1,  23.1, 14, 25,  0,  0,  0,  0, 10, 39,  0,  0,  0,  0, 12, 10, 26,  0, 11,  0, 36,  0,  0,  9,  0,  0,  0,  0,  0,  0,  0,  0,  0,  0
6, 16162, 3,N0CALL,     4.94, -84,  13, 5,   coast,  -23.54,  88915.00, 1088.40,  903.13,  233.33, 17.3, 4.11, 4.11, 4.08,  12.05,   0.12,   2.39, 237.73,   5.13,   1.71,  -0.36,  -0.22,  -0.05,  11.00, 4.08, 0.00, 0.00, 0.00, 0.00, 1, 0,  0,  41.7770671, -86.5781800,   191.0, 2026,  3,  8, 15, 39,  8,        1,        1, 109,   0,  23.1,  23.1,  23.1, 14, 25,  0,  0,  0,  0, 10, 39,  0,  0,  0,  0, 12, 10, 26,  0, 11,  0, 36,  0,  0,  9,  0,  0,  0,  0,  0,  0,  0,  0,  0,  0
6, 16162, 3,N0CALL,     5.02, -86,   9, 5,   coast,  -21.57,  88437.00, 1132.73,  947.46,  228.42, 17.3, 4.11, 4.11, 4.08,  11.39,   0.14,   2.84, 233.22,   4.52,   2.50,  -0.35,  -0.06,   0.00,  12.00, 4.08, 0.00, 0.00, 0.00, 0.00, 1, 0,  0,  41.7770671, -86.5781800,   191.0, 2026,  3,  8, 15, 39,  8,        1,        1, 109,   0,  23.1,  23.1,  23.1, 14, 25,  0,  0,  0,  0, 10, 39,  0,  0,  0,  0, 12, 10, 26,  0, 11,  0, 36,  0,  0,  9,  0,  0,  0,  0,  0,  0,  0,  0,  0,  0
6, 16162, 3,N0CALL,     5.05, -87,  13, 5,   coast,  -21.57,  88437.00, 1132.73,  947.46,  228.42, 17.3, 4.11, 4.11, 4.08,  11.39,   0.14,   2.84, 233.22,   4.52,   2.50,  -0.35,  -0.06,   0.00,  12.00, 4.09, 0.00, 0.00, 0.00, 0.00, 1, 0,  0,  41.7770671, -86.5781800,   191.0, 2026,  3,  8, 15, 39,  8,        1,        1, 109,   0,  23.1,  23.1,  23.1, 14, 25,  0,  0,  0,  0, 10, 39,  0,  0,  0,  0, 12, 10, 26,  0, 11,  0, 36,  0,  0,  9,  0,  0,  0,  0,  0,  0,  0,  0,  0,  0
6, 16162, 3,N0CALL,     5.07, -86,   8, 5,   coast,  -21.57,  88437.00, 1132.73,  947.46,  228.42, 17.3, 4.11, 4.11, 4.08,  11.39,   0.14,   2.84, 233.22,   4.52,   2.50,  -0.35,  -0.06,   0.00,  12.00, 4.09, 0.00, 0.00, 0.00, 0.00, 1, 1, 11,  41.7766214, -86.5789979,  1090.0, 2026,  3,  8, 15, 39, 13,       84,      903, 233,  85,   1.5,   0.7,   1.3, 14, 25,  0,  0,  0,  0, 10, 39,  0,  0,  0,  0, 12, 10, 26,  0, 11,  0, 36,  0,  0,  9,  0,  0,  0,  0,  0,  0,  0,  0,  0,  0
6, 16162, 3,N0CALL,     5.13, -88,  15, 5,   coast,  -22.06,  88223.00, 1152.64,  967.37,  226.05, 17.3, 4.11, 4.11, 4.08,  11.13,   0.31,   2.74, 235.47,   1.89,   3.17,  -0.35,   0.02,  -0.04,  12.00, 4.09, 0.00, 0.00, 0.00, 0.00, 1, 1, 11,  41.7766214, -86.5789979,  1090.0, 2026,  3,  8, 15, 39, 13,       84,      903, 233,  85,   1.5,   0.7,   1.3, 14, 25,  0,  0,  0,  0, 10, 39,  0,  0,  0,  0, 12, 10, 26,  0, 11,  0, 36,  0,  0,  9,  0,  0,  0,  0,  0,  0,  0,  0,  0,  0
6, 16162, 3,N0CALL,     5.24, -88,  21, 5,   coast,  -22.06,  87982.00, 1175.11,  989.83,  223.65, 17.3, 4.11, 4.11, 4.08,  10.83,  -0.50,   1.47, 231.45,   0.79,   4.27,  -0.36,   0.08,  -0.11,  12.00, 4.09, 0.00, 0.00, 0.00, 0.00, 1, 1, 11,  41.7766214, -86.5789979,  1090.0, 2026,  3,  8, 15, 39, 13,       84,      903, 233,  85,   1.5,   0.7,   1.3, 14, 25,  0,  0,  0,  0, 10, 39,  0,  0,  0,  0, 12, 10, 26,  0, 11,  0, 36,  0,  0,  9,  0,  0,  0,  0,  0,  0,  0,  0,  0,  0
6, 16162, 3,N0CALL,     5.35, -89,  13, 5,   coast,  -17.65,  87779.00, 1194.07, 1008.80,  221.49, 17.3, 4.11, 4.11, 4.08,  10.53,   1.13,   1.44, 221.68,   2.81,   3.97,  -0.36,   0.11,  -0.20,  12.00, 4.09, 0.00, 0.00, 0.00, 0.00, 1, 1, 11,  41.7766214, -86.5789979,  1090.0, 2026,  3,  8, 15, 39, 13,       84,      903, 233,  85,   1.5,   0.7,   1.3, 14, 25,  0,  0,  0,  0, 10, 39,  0,  0,  0,  0, 12, 10, 26,  0, 11,  0, 36,  0,  0,  9,  0,  0,  0,  0,  0,  0,  0,  0,  0,  0
6, 16162, 3,N0CALL,     5.38, -89,  13, 5,   coast,  -17.65,  87779.00, 1194.07, 1008.80,  221.49, 17.3, 3.99, 4.11, 4.08,  10.53,   1.13,   1.44, 221.68,   2.81,   3.97,  -0.36,   0.11,  -0.20,  12.00, 4.08, 0.00, 0.00, 0.00, 0.00, 1, 1, 11,  41.7766214, -86.5789979,  1090.0, 2026,  3,  8, 15, 39, 13,       84,      903, 233,  85,   1.5,   0.7,   1.3, 14, 25,  0,  0,  0,  0, 10, 39,  0,  0,  0,  0, 12, 10, 26,  0, 11,  0, 36,  0,  0,  9,  0,  0,  0,  0,  0,  0,  0,  0,  0,  0
6, 16162, 3,N0CALL,     5.46, -88,  11, 5,   coast,  -18.14,  87532.00, 1217.19, 1031.92,  219.54, 17.3, 3.99, 4.11, 4.08,  10.45,  -0.47,   0.28, 234.07,   3.66,   3.36,  -0.36,   0.10,  -0.29,  12.00, 4.08, 0.00, 0.00, 0.00, 0.00, 1, 1, 11,  41.7766214, -86.5789979,  1090.0, 2026,  3,  8, 15, 39, 13,       84,      903, 233,  85,   1.5,   0.7,   1.3, 14, 25,  0,  0,  0,  0, 10, 39,  0,  0,  0,  0, 12, 10, 26,  0, 11,  0, 36,  0,  0,  9,  0,  0,  0,  0,  0,  0,  0,  0,  0,  0
6, 16162, 3,N0CALL,     5.57, -87,  10, 5,   coast,  -19.61,  87344.00, 1234.82, 1049.55,  217.49, 17.3, 3.99, 4.11, 4.08,   9.99,   0.52,   1.59, 226.26,   1.34,   3.60,  -0.36,   0.06,  -0.36,  12.00, 4.08, 0.00, 0.00, 0.00, 0.00, 1, 1, 11,  41.7766214, -86.5789979,  1090.0, 2026,  3,  8, 15, 39, 13,       84,      903, 233,  85,   1.5,   0.7,   1.3, 14, 25,  0,  0,  0,  0, 10, 39,  0,  0,  0,  0, 12, 10, 26,  0, 11,  0, 36,  0,  0,  9,  0,  0,  0,  0,  0,  0,  0,  0,  0,  0
6, 16162, 3,N0CALL,     5.68, -86,  15, 5,   coast,  -19.12,  87116.00, 1256.25, 1070.98,  215.38, 17.3, 3.99, 4.11, 4.08,   9.72,   0.48,   1.17, 223.39,   1.83,   2.38,  -0.37,  -0.01,  -0.41,  11.00, 4.08, 0.00, 0.00, 0.00, 0.00, 1, 1, 11,  41.7766214, -86.5789979,  1090.0, 2026,  3,  8, 15, 39, 13,       84,      903, 233,  85,   1.5,   0.7,   1.3, 14, 25,  0,  0,  0,  0, 10, 39,  0,  0,  0,  0, 12, 10, 26,  0, 11,  0, 36,  0,  0,  9,  0,  0,  0,  0,  0,  0,  0,  0,  0,  0
6, 16162, 3,N0CALL,     5.79, -87,   9, 5,   coast,  -19.61,  86911.00, 1275.55, 1090.28,  213.27, 17.3, 3.99, 4.11, 4.08,   9.71,  -0.59,   1.01, 223.02,   1.65,   3.36,  -0.37,  -0.09,  -0.42,  11.00, 4.08, 0.00, 0.00, 0.00, 0.00, 1, 1, 11,  41.7766214, -86.5789979,  1090.0, 2026,  3,  8, 15, 39, 13,       84,      903, 233,  85,   1.5,   0.7,   1.3, 14, 25,  0,  0,  0,  0, 10, 39,  0,  0,  0,  0, 12, 10, 26,  0, 11,  0, 36,  0,  0,  9,  0,  0,  0,  0,  0,  0,  0,  0,  0,  0
6, 16162, 3,N0CALL,     5.82, -86,  10, 5,   coast,  -19.61,  86911.00, 1275.55, 1090.28,  213.27, 17.3, 3.99, 4.11, 4.08,   9.71,  -0.59,   1.01, 223.02,   1.65,   3.36,  -0.37,  -0.09,  -0.42,  11.00, 4.08, 0.00, 0.00, 0.00, 0.00, 1, 1, 11,  41.7766214, -86.5789979,  1090.0, 2026,  3,  8, 15, 39, 13,       84,      903, 233,  85,   1.5,   0.7,   1.3, 15, 22,  0,  0,  0,  0,  8, 32,  0,  0,  0,  0, 23, 31, 24,  0,  9,  0, 31,  0,  0,  8,  0,  0,  0,  0,  0,  0,  0,  0,  0,  0
6, 16162, 3,N0CALL,     5.82, -86,  13, 5,   coast,  -19.61,  86911.00, 1275.55, 1090.28,  213.27, 17.3, 3.99, 4.11, 4.08,   9.71,  -0.59,   1.01, 223.02,   1.65,   3.36,  -0.37,  -0.09,  -0.42,  11.00, 4.08, 0.00, 0.00, 0.00, 0.00, 1, 1, 11,  41.7766214, -86.5789979,  1090.0, 2026,  3,  8, 15, 39, 13,       84,      903, 233,  85,   1.5,   0.7,   1.3, 15, 22,  0,  0,  0,  0,  8, 32,  0,  0,  0,  0, 23, 31, 24,  0,  9,  0, 31,  0,  0,  8,  0,  0,  0,  0,  0,  0,  0,  0,  0,  0
6, 16162, 3,N0CALL,     5.90, -88,  18, 5,   coast,  -18.14,  86686.00, 1296.78, 1111.51,  211.21, 17.3, 3.99, 4.11, 4.08,   9.35,   0.83,   0.47, 215.52,   1.65,   2.56,  -0.37,  -0.17,  -0.39,  11.00, 4.08, 0.00, 0.00, 0.00, 0.00, 1, 1, 11,  41.7766214, -86.5789979,  1090.0, 2026,  3,  8, 15, 39, 13,       84,      903, 233,  85,   1.5,   0.7,   1.3, 15, 22,  0,  0,  0,  0,  8, 32,  0,  0,  0,  0, 23, 31, 24,  0,  9,  0, 31,  0,  0,  8,  0,  0,  0,  0,  0,  0,  0,  0,  0,  0
6, 16162, 3,N0CALL,     5.93, -90,  14, 5,   coast,  -18.14,  86686.00, 1296.78, 1111.51,  211.21, 17.3, 3.99, 4.11, 4.08,   9.35,   0.83,   0.47, 215.52,   1.65,   2.56,  -0.37,  -0.17,  -0.39,  11.00, 4.08, 0.00, 0.00, 0.00, 0.00, 1, 1, 11,  41.7766214, -86.5789979,  1090.0, 2026,  3,  8, 15, 39, 13,       84,      903, 233,  85,   1.5,   0.7,   1.3, 15, 22,  0,  0,  0,  0,  8, 32,  0,  0,  0,  0, 23, 31, 24,  0,  9,  0, 31,  0,  0,  8,  0,  0,  0,  0,  0,  0,  0,  0,  0,  0
6, 16162, 3,N0CALL,     6.12, -90,  15, 5,   coast,  -18.14,  86281.00, 1335.11, 1149.84,  207.25, 17.3, 3.99, 4.11, 4.08,   9.05,   0.04,   0.38, 208.56,   2.44,  -1.59,  -0.36,  -0.28,  -0.26,  11.00, 4.08, 0.00, 0.00, 0.00, 0.00, 1, 1, 11,  41.7766214, -86.5789979,  1090.0, 2026,  3,  8, 15, 39, 13,       84,      903, 233,  85,   1.5,   0.7,   1.3, 15, 22,  0,  0,  0,  0,  8, 32,  0,  0,  0,  0, 23, 31, 24,  0,  9,  0, 31,  0,  0,  8,  0,  0,  0,  0,  0,  0,  0,  0,  0,  0
6, 16162, 3,N0CALL,     6.45, -86,   8, 5,   coast,  -17.65,  85706.00, 1389.77, 1204.50,  201.39, 17.3, 3.99, 4.11, 4.08,   8.11,   0.42,   1.16, 202.15,   2.75,   1.28,  -0.35,  -0.23,  -0.02,  11.00, 4.08, 0.00, 0.00, 0.00, 0.00, 1, 1, 11,  41.7766214, -86.5789979,  1090.0, 2026,  3,  8, 15, 39, 13,       84,      903, 233,  85,   1.5,   0.7,   1.3, 15, 22,  0,  0,  0,  0,  8, 32,  0,  0,  0,  0, 23, 31, 24,  0,  9,  0, 31,  0,  0,  8,  0,  0,  0,  0,  0,  0,  0,  0,  0,  0
6, 16162, 3,N0CALL,     6.48, -86,  14, 5,   coast,  -17.65,  85706.00, 1389.77, 1204.50,  201.39, 17.3, 3.99, 4.11, 4.08,   8.11,   0.42,   1.16, 202.15,   2.75,   1.28,  -0.35,  -0.23,  -0.02,  11.00, 4.10, 0.00, 0.00, 0.00, 0.00, 1, 1, 11,  41.7766214, -86.5789979,  1090.0, 2026,  3,  8, 15, 39, 13,       84,      903, 233,  85,   1.5,   0.7,   1.3, 15, 22,  0,  0,  0,  0,  8, 32,  0,  0,  0,  0, 23, 31, 24,  0,  9,  0, 31,  0,  0,  8,  0,  0,  0,  0,  0,  0,  0,  0,  0,  0
6, 16162, 3,N0CALL,     6.56, -87,   7, 5,   coast,  -15.69,  85514.00, 1408.09, 1222.82,  199.58, 17.3, 3.99, 4.11, 4.08,   7.90,  -0.42,   0.96, 203.43,   1.83,   2.01,  -0.35,  -0.16,   0.02,  12.00, 4.10, 0.00, 0.00, 0.00, 0.00, 1, 1, 11,  41.7766214, -86.5789979,  1090.0, 2026,  3,  8, 15, 39, 13,       84,      903, 233,  85,   1.5,   0.7,   1.3, 15, 22,  0,  0,  0,  0,  8, 32,  0,  0,  0,  0, 23, 31, 24,  0,  9,  0, 31,  0,  0,  8,  0,  0,  0,  0,  0,  0,  0,  0,  0,  0
6, 16162, 3,N0CALL,     6.70, -87,  13, 5,   coast,  -15.69,  85514.00, 1408.09, 1222.82,  199.58, 17.3, 3.99, 4.11, 4.08,   7.90,  -0.42,   0.96, 203.43,   1.83,   2.01,  -0.35,  -0.16,   0.02,  12.00, 4.08, 0.00, 0.00, 0.00, 0.00, 1, 1, 11,  41.7766214, -86.5789979,  1090.0, 2026,  3,  8, 15, 39, 13,       84,      903, 233,  85,   1.5,   0.7,   1.3, 15, 22,  0,  0,  0,  0,  8, 32,  0,  0,  0,  0, 23, 31, 24,  0,  9,  0, 31,  0,  0,  8,  0,  0,  0,  0,  0,  0,  0,  0,  0,  0
6, 16162, 3,N0CALL,     7.14, -88,  14, 5,   coast,  -15.69,  85514.00, 1408.09, 1222.82,  199.58, 17.3, 3.99, 4.11, 4.08,   7.90,  -0.42,   0.96, 203.43,   1.83,   2.01,  -0.35,  -0.16,   0.02,  12.00, 4.09, 0.00, 0.00, 0.00, 0.00, 1, 1, 11,  41.7766214, -86.5789979,  1090.0, 2026,  3,  8, 15, 39, 13,       84,      903, 233,  85,   1.5,   0.7,   1.3, 15, 22,  0,  0,  0,  0,  8, 32,  0,  0,  0,  0, 23, 31, 24,  0,  9,  0, 31,  0,  0,  8,  0,  0,  0,  0,  0,  0,  0,  0,  0,  0
6, 16162, 3,N0CALL,     7.22, -88,  14, 5,   coast,  -16.67,  84426.00, 1512.54, 1327.26,  188.99, 17.3, 3.99, 4.11, 4.08,   6.75,  -0.11,   1.31, 187.87,   1.83,   0.73,  -0.36,   0.11,  -0.29,  12.00, 4.09, 0.00, 0.00, 0.00, 0.00, 1, 1, 11,  41.7766214, -86.5789979,  1090.0, 2026,  3,  8, 15, 39, 13,       84,      903, 233,  85,   1.5,   0.7,   1.3, 15, 22,  0,  0,  0,  0,  8, 32,  0,  0,  0,  0, 23, 31, 24,  0,  9,  0, 31,  0,  0,  8,  0,  0,  0,  0,  0,  0,  0,  0,  0,  0
6, 16162, 3,N0CALL,     7.33, -88,   9, 5,   coast,  -16.18,  84264.00, 1528.18, 1342.91,  187.20, 17.3, 3.99, 4.11, 4.08,   6.49,   0.16,   1.37, 184.45,   3.72,   1.95,  -0.36,   0.08,  -0.35,  12.00, 4.09, 0.00, 0.00, 0.00, 0.00, 1, 1, 11,  41.7766214, -86.5789979,  1090.0, 2026,  3,  8, 15, 39, 13,       84,      903, 233,  85,   1.5,   0.7,   1.3, 15, 22,  0,  0,  0,  0,  8, 32,  0,  0,  0,  0, 23, 31, 24,  0,  9,  0, 31,  0,  0,  8,  0,  0,  0,  0,  0,  0,  0,  0,  0,  0
6, 16162, 3,N0CALL,     7.36, -88,  10, 5,   coast,  -16.18,  84264.00, 1528.18, 1342.91,  187.20, 17.3, 3.99, 4.11, 4.08,   6.49,   0.16,   1.37, 184.45,   3.72,   1.95,  -0.36,   0.08,  -0.35,  12.00, 4.09, 0.00, 0.00, 0.00, 0.00, 1, 1, 11,  41.7766214, -86.5789979,  1090.0, 2026,  3,  8, 15, 39, 13,       84,      903, 233,  85,   1.5,   0.7,   1.3, 15, 22,  0,  0,  0,  0,  8, 32,  0,  0,  0,  0, 23, 31, 24,  0,  9,  0, 31,  0,  0,  8,  0,  0,  0,  0,  0,  0,  0,  0,  0,  0
6, 16162, 3,N0CALL,     7.58, -88,  13, 5,   coast,  -16.18,  84264.00, 1528.18, 1342.91,  187.20, 17.3, 4.11, 4.11, 4.08,   6.49,   0.16,   1.37, 184.45,   3.72,   1.95,  -0.36,   0.08,  -0.35,  12.00, 4.08, 0.00, 0.00, 0.00, 0.00, 1, 1, 11,  41.7766214, -86.5789979,  1090.0, 2026,  3,  8, 15, 39, 13,       84,      903, 233,  85,   1.5,   0.7,   1.3, 15, 22,  0,  0,  0,  0,  8, 32,  0,  0,  0,  0, 23, 31, 24,  0,  9,  0, 31,  0,  0,  8,  0,  0,  0,  0,  0,  0,  0,  0,  0,  0
6, 16162, 3,N0CALL,     7.66, -87,   8, 5,   coast,  -14.71,  83758.00, 1577.20, 1391.93,  182.14, 17.3, 4.11, 4.11, 4.08,   6.12,   0.29,   0.47, 180.24,   2.50,  -0.79,  -0.37,  -0.11,  -0.42,  11.00, 4.08, 0.00, 0.00, 0.00, 0.00, 1, 1, 11,  41.7766214, -86.5789979,  1090.0, 2026,  3,  8, 15, 39, 13,       84,      903, 233,  85,   1.5,   0.7,   1.3, 15, 22,  0,  0,  0,  0,  8, 32,  0,  0,  0,  0, 23, 31, 24,  0,  9,  0, 31,  0,  0,  8,  0,  0,  0,  0,  0,  0,  0,  0,  0,  0
6, 16162, 3,N0CALL,     7.69, -87,  12, 5,   coast,  -14.71,  83758.00, 1577.20, 1391.93,  182.14, 17.3, 3.99, 4.11, 4.08,   6.12,   0.29,   0.47, 180.24,   2.50,  -0.79,  -0.37,  -0.11,  -0.42,  11.00, 4.09, 0.00, 0.00, 0.00, 0.00, 1, 1, 11,  41.7766214, -86.5789979,  1090.0, 2026,  3,  8, 15, 39, 13,       84,      903, 233,  85,   1.5,   0.7,   1.3, 15, 22,  0,  0,  0,  0,  8, 32,  0,  0,  0,  0, 23, 31, 24,  0,  9,  0, 31,  0,  0,  8,  0,  0,  0,  0,  0,  0,  0,  0,  0,  0
6, 16162, 3,N0CALL,     7.88, -92,  13, 5,   coast,  -15.69,  83432.00, 1608.91, 1423.64,  178.82, 17.3, 3.99, 4.11, 4.08,   5.76,   0.23,   1.13, 173.10,   2.87,   1.28,  -0.36,  -0.23,  -0.34,  11.00, 4.09, 0.00, 0.00, 0.00, 0.00, 1, 1, 11,  41.7766214, -86.5789979,  1090.0, 2026,  3,  8, 15, 39, 13,       84,      903, 233,  85,   1.5,   0.7,   1.3, 15, 22,  0,  0,  0,  0,  8, 32,  0,  0,  0,  0, 23, 31, 24,  0,  9,  0, 31,  0,  0,  8,  0,  0,  0,  0,  0,  0,  0,  0,  0,  0
6, 16162, 3,N0CALL,     8.21, -91,  15, 5,   coast,  -15.20,  82975.00, 1653.54, 1468.26,  173.76, 17.3, 3.99, 4.11, 4.08,   5.36,  -0.07,   0.70, 165.16,   3.11,   1.83,  -0.36,  -0.29,  -0.14,  12.00, 4.09, 0.00, 0.00, 0.00, 0.00, 1, 1, 11,  41.7766214, -86.5789979,  1090.0, 2026,  3,  8, 15, 39, 13,       84,      903, 233,  85,   1.5,   0.7,   1.3, 15, 22,  0,  0,  0,  0,  8, 32,  0,  0,  0,  0, 23, 31, 24,  0,  9,  0, 31,  0,  0,  8,  0,  0,  0,  0,  0,  0,  0,  0,  0,  0
6, 16162, 3,N0CALL,     8.32, -90,  15, 5,   coast,  -15.69,  82817.00, 1669.01, 1483.74,  172.07, 17.3, 3.99, 4.11, 4.08,   5.28,   0.22,   0.08, 165.95,   1.34,   1.34,  -0.35,  -0.27,  -0.08,  12.00, 4.09, 0.00, 0.00, 0.00, 0.00, 1, 1, 11,  41.7766214, -86.5789979,  1090.0, 2026,  3,  8, 15, 39, 13,       84,      903, 233,  85,   1.5,   0.7,   1.3, 15, 22,  0,  0,  0,  0,  8, 32,  0,  0,  0,  0, 23, 31, 24,  0,  9,  0, 31,  0,  0,  8,  0,  0,  0,  0,  0,  0,  0,  0,  0,  0
6, 16162, 3,N0CALL,     8.46, -88,  19, 5,   coast,  -15.69,  82817.00, 1669.01, 1483.74,  172.07, 17.3, 4.11, 4.11, 4.08,   5.28,   0.22,   0.08, 165.95,   1.34,   1.34,  -0.35,  -0.27,  -0.08,  12.00, 4.10, 0.00, 0.00, 0.00, 0.00, 1, 1, 11,  41.7766214, -86.5789979,  1090.0, 2026,  3,  8, 15, 39, 13,       84,      903, 233,  85,   1.5,   0.7,   1.3, 15, 22,  0,  0,  0,  0,  8, 32,  0,  0,  0,  0, 23, 31, 24,  0,  9,  0, 31,  0,  0,  8,  0,  0,  0,  0,  0,  0,  0,  0,  0,  0
6, 16162, 3,N0CALL,     8.54, -88,  11, 5,   coast,  -13.24,  82517.00, 1698.46, 1513.18,  168.91, 17.3, 4.11, 4.11, 4.08,   4.96,  -0.12,   0.24, 158.08,   2.14,   1.65,  -0.35,  -0.18,   0.01,  13.00, 4.10, 0.00, 0.00, 0.00, 0.00, 1, 1, 11,  41.7766214, -86.5789979,  1090.0, 2026,  3,  8, 15, 39, 13,       84,      903, 233,  85,   1.5,   0.7,   1.3, 15, 22,  0,  0,  0,  0,  8, 32,  0,  0,  0,  0, 23, 31, 24,  0,  9,  0, 31,  0,  0,  8,  0,  0,  0,  0,  0,  0,  0,  0,  0,  0
