#version,serial,flight,call,time,state,state_name,acceleration,pressure,altitude,height,speed,temperature,drogue_voltage,main_voltage,battery_voltage,accel_x,accel_y,accel_z,gyro_roll,gyro_pitch,gyro_yaw,mag_x,mag_y,mag_z,tilt,pyro,igniter_a,igniter_b,igniter_c,igniter_d,connected,locked,nsat,latitude,longitude,altitude,year,month,day,hour,minute,second,pad_dist,pad_range,pad_az,pad_el,pdop,hdop,vdop,sat01,sat02,sat03,sat04,sat05,sat06,sat07,sat08,sat09,sat10,sat11,sat12,sat13,sat14,sat15,sat16,sat17,sat18,sat19,sat20,sat21,sat22,sat23,sat24,sat25,sat26,sat27,sat28,sat29,sat30,sat31,sat32
6, 16162, 3,N0CALL,    -0.30, 3,   boost,    0.49,  99103.00,  186.63,    1.36,    0.00, 17.3, 4.09, 4.10, 4.08,  -9.97,  -0.22,  -0.36,   0.00,  -0.84,  -0.42,  -0.36,   0.07,  -0.10,   3.11, 4.10, 0.00, 0.00, 0.00, 0.00, 1, 1, 15,  41.7770689, -86.5781871,   191.0, 2026,  3,  8, 15, 39,  7,        0,        0,   0,   0,   1.0,   0.5,   0.8, 40, 44,  0,  0,  0,  0, 34, 43,  0,  0,  0,  0, 31, 30, 41,  0, 41,  0, 40,  0,  0,  0,  0,  0,  0,  0,  0,  0,  0, 29,  0,  0
6, 16162, 3,N0CALL,    -0.29, 3,   boost,   -0.49,  99106.00,  186.37,    1.10,    0.00, 17.3, 4.09, 4.10, 4.08,  -9.90,  -0.11,  -0.42,   0.18,  -1.08,   0.01,  -0.36,   0.07,  -0.10,   3.11, 4.10, 0.00, 0.00, 0.00, 0.00, 1, 1, 15,  41.7770689, -86.5781871,   191.0, 2026,  3,  8, 15, 39,  7,        0,        0,   0,   0,   1.0,   0.5,   0.8, 40, 44,  0,  0,  0,  0, 34, 43,  0,  0,  0,  0, 31, 30, 41,  0, 41,  0, 40,  0,  0,  0,  0,  0,  0,  0,  0,  0,  0, 29,  0,  0
6, 16162, 3,N0CALL,    -0.28, 3,   boost,   -0.49,  99106.00,  186.37,    1.10,    0.00, 17.3, 4.09, 4.10, 4.08,  -9.85,  -0.12,  -0.69,   0.43,  -0.65,  -0.24,  -0.36,   0.07,  -0.10,   3.11, 4.10, 0.00, 0.00, 0.00, 0.00, 1, 1, 15,  41.7770689, -86.5781871,   191.0, 2026,  3,  8, 15, 39,  7,        0,        0,   0,   0,   1.0,   0.5,   0.8, 40, 44,  0,  0,  0,  0, 34, 43,  0,  0,  0,  0, 31, 30, 41,  0, 41,  0, 40,  0,  0,  0,  0,  0,  0,  0,  0,  0,  0, 29,  0,  0
6, 16162, 3,N0CALL,    -0.27, 3,   boost,    1.47,  99115.00,  185.61,    0.34,    0.00, 17.3, 4.09, 4.10, 4.08,  -9.90,  -0.09,  -0.49,  -0.24,  -0.29,  -0.05,  -0.36,   0.07,  -0.10,   3.11, 4.10, 0.00, 0.00, 0.00, 0.00, 1, 1, 15,  41.7770689, -86.5781871,   191.0, 2026,  3,  8, 15, 39,  7,        0,        0,   0,   0,   1.0,   0.5,   0.8, 40, 44,  0,  0,  0,  0, 34, 43,  0,  0,  0,  0, 31, 30, 41,  0, 41,  0, 40,  0,  0,  0,  0,  0,  0,  0,  0,  0,  0, 29,  0,  0
6, 16162, 3,N0CALL,    -0.26, 3,   boost,   -0.00,  99115.00,  185.61,    0.34,    0.00, 17.3, 4.09, 4.10, 4.08,  -9.91,   0.04,  -0.55,  -0.49,  -0.29,   0.19,  -0.36,   0.07,  -0.10,   3.11, 4.10, 0.00, 0.00, 0.00, 0.00, 1, 1, 15,  41.7770689, -86.5781871,   191.0, 2026,  3,  8, 15, 39,  7,        0,        0,   0,   0,   1.0,   0.5,   0.8, 40, 44,  0,  0,  0,  0, 34, 43,  0,  0,  0,  0, 31, 30, 41,  0, 41,  0, 40,  0,  0,  0,  0,  0,  0,  0,  0,  0,  0, 29,  0,  0
6, 16162, 3,N0CALL,    -0.25, 3,   boost,   -0.00,  99106.00,  186.37,    1.10,    0.00, 17.3, 4.09, 4.10, 4.08,  -9.83,  -0.16,  -0.46,  -0.49,  -0.29,   0.50,  -0.36,   0.07,  -0.10,   3.11, 4.10, 0.00, 0.00, 0.00, 0.00, 1, 1, 15,  41.7770689, -86.5781871,   191.0, 2026,  3,  8, 15, 39,  7,        0,        0,   0,   0,   1.0,   0.5,   0.8, 40, 44,  0,  0,  0,  0, 34, 43,  0,  0,  0,  0, 31, 30, 41,  0, 41,  0, 40,  0,  0,  0,  0,  0,  0,  0,  0,  0,  0, 29,  0,  0
6, 16162, 3,N0CALL,    -0.24, 3,   boost,   -0.49,  99106.00,  186.37,    1.10,    0.00, 17.3, 4.09, 4.10, 4.08,  -9.87,  -0.22,  -0.32,  -0.12,   0.32,   0.31,  -0.36,   0.07,  -0.10,   3.11, 4.10, 0.00, 0.00, 0.00, 0.00, 1, 1, 15,  41.7770689, -86.5781871,   191.0, 2026,  3,  8, 15, 39,  7,        0,        0,   0,   0,   1.0,   0.5,   0.8, 40, 44,  0,  0,  0,  0, 34, 43,  0,  0,  0,  0, 31, 30, 41,  0, 41,  0, 40,  0,  0,  0,  0,  0,  0,  0,  0,  0,  0, 29,  0,  0
6, 16162, 3,N0CALL,    -0.23, 3,   boost,   -0.00,  99110.00,  186.04,    0.76,    0.00, 17.3, 4.09, 4.10, 4.08,  -9.96,  -0.31,  -0.42,   0.18,   0.14,   0.43,  -0.36,   0.07,  -0.10,   3.11, 4.10, 0.00, 0.00, 0.00, 0.00, 1, 1, 15,  41.7770689, -86.5781871,   191.0, 2026,  3,  8, 15, 39,  7,        0,        0,   0,   0,   1.0,   0.5,   0.8, 40, 44,  0,  0,  0,  0, 34, 43,  0,  0,  0,  0, 31, 30, 41,  0, 41,  0, 40,  0,  0,  0,  0,  0,  0,  0,  0,  0,  0, 29,  0,  0
6, 16162, 3,N0CALL,    -0.22, 3,   boost,   -1.47,  99110.00,  186.04,    0.76,    0.00, 17.3, 4.09, 4.10, 4.08,  -9.94,  -0.42,  -0.27,  -0.06,   0.14,   0.19,  -0.36,   0.07,  -0.10,   3.11, 4.10, 0.00, 0.00, 0.00, 0.00, 1, 1, 15,  41.7770689, -86.5781871,   191.0, 2026,  3,  8, 15, 39,  7,        0,        0,   0,   0,   1.0,   0.5,   0.8, 40, 44,  0,  0,  0,  0, 34, 43,  0,  0,  0,  0, 31, 30, 41,  0, 41,  0, 40,  0,  0,  0,  0,  0,  0,  0,  0,  0,  0, 29,  0,  0
6, 16162, 3,N0CALL,    -0.21, 3,   boost,   -0.98,  99118.00,  185.36,    0.08,    0.00, 17.3, 4.09, 4.10, 4.08,  -9.84,  -0.35,  -0.28,  -1.16,   0.26,   0.13,  -0.36,   0.07,  -0.10,   3.11, 4.10, 0.00, 0.00, 0.00, 0.00, 1, 1, 15,  41.7770689, -86.5781871,   191.0, 2026,  3,  8, 15, 39,  7,        0,        0,   0,   0,   1.0,   0.5,   0.8, 40, 44,  0,  0,  0,  0, 34, 43,  0,  0,  0,  0, 31, 30, 41,  0, 41,  0, 40,  0,  0,  0,  0,  0,  0,  0,  0,  0,  0, 29,  0,  0
6, 16162, 3,N0CALL,    -0.20, 3,   boost,   -0.00,  99118.00,  185.36,    0.08,    0.00, 17.3, 4.09, 4.10, 4.08,  -9.95,  -0.51,  -0.20,  -1.77,  -0.23,   0.13,  -0.36,   0.07,  -0.10,   3.11, 4.10, 0.00, 0.00, 0.00, 0.00, 1, 1, 15,  41.7770689, -86.5781871,   191.0, 2026,  3,  8, 15, 39,  7,        0,        0,   0,   0,   1.0,   0.5,   0.8, 40, 44,  0,  0,  0,  0, 34, 43,  0,  0,  0,  0, 31, 30, 41,  0, 41,  0, 40,  0,  0,  0,  0,  0,  0,  0,  0,  0,  0, 29,  0,  0
6, 16162, 3,N0CALL,    -0.19, 3,   boost,    0.49,  99106.00,  186.37,    1.10,    0.00, 17.3, 4.09, 4.10, 4.08,  -9.95,  -0.48,  -0.08,  -2.56,  -0.35,   0.07,  -0.36,   0.07,  -0.10,   3.11, 4.10, 0.00, 0.00, 0.00, 0.00, 1, 1, 15,  41.7770689, -86.5781871,   191.0, 2026,  3,  8, 15, 39,  7,        0,        0,   0,   0,   1.0,   0.5,   0.8, 40, 44,  0,  0,  0,  0, 34, 43,  0,  0,  0,  0, 31, 30, 41,  0, 41,  0, 40,  0,  0,  0,  0,  0,  0,  0,  0,  0,  0, 29,  0,  0
6, 16162, 3,N0CALL,    -0.18, 3,   boost,   -1.47,  99106.00,  186.37,    1.10,    0.00, 17.3, 4.09, 4.10, 4.08,  -9.86,  -0.54,  -0.17,  -2.56,   0.08,   0.31,  -0.36,   0.07,  -0.10,   3.11, 4.10, 0.00, 0.00, 0.00, 0.00, 1, 1, 15,  41.7770689, -86.5781871,   191.0, 2026,  3,  8, 15, 39,  7,        0,        0,   0,   0,   1.0,   0.5,   0.8, 40, 44,  0,  0,  0,  0, 34, 43,  0,  0,  0,  0, 31, 30, 41,  0, 41,  0, 40,  0,  0,  0,  0,  0,  0,  0,  0,  0,  0, 29,  0,  0
6, 16162, 3,N0CALL,    -0.17, 3,   boost,   -0.49,  99109.00,  186.12,    0.85,    0.00, 17.3, 4.09, 4.10, 4.08,  -9.90,  -0.52,   0.03,  -0.55,  -0.41,   0.01,  -0.36,   0.07,  -0.10,   3.11, 4.10, 0.00, 0.00, 0.00, 0.00, 1, 1, 15,  41.7770689, -86.5781871,   191.0, 2026,  3,  8, 15, 39,  7,        0,        0,   0,   0,   1.0,   0.5,   0.8, 40, 44,  0,  0,  0,  0, 34, 43,  0,  0,  0,  0, 31, 30, 41,  0, 41,  0, 40,  0,  0,  0,  0,  0,  0,  0,  0,  0,  0, 29,  0,  0
6, 16162, 3,N0CALL,    -0.16, 3,   boost,   -0.00,  99109.00,  186.12,    0.85,    0.00, 17.3, 4.09, 4.10, 4.08,  -9.88,  -0.44,  -0.04,   0.80,  -0.53,   0.31,  -0.36,   0.07,  -0.10,   3.11, 4.10, 0.00, 0.00, 0.00, 0.00, 1, 1, 15,  41.7770689, -86.5781871,   191.0, 2026,  3,  8, 15, 39,  7,        0,        0,   0,   0,   1.0,   0.5,   0.8, 40, 44,  0,  0,  0,  0, 34, 43,  0,  0,  0,  0, 31, 30, 41,  0, 41,  0, 40,  0,  0,  0,  0,  0,  0,  0,  0,  0,  0, 29,  0,  0
6, 16162, 3,N0CALL,    -0.15, 3,   boost,   -0.00,  99105.00,  186.46,    1.19,    0.00, 17.3, 4.09, 4.10, 4.08,  -9.85,  -0.43,  -0.16,   2.38,  -0.35,   0.19,  -0.36,   0.07,  -0.10,   3.11, 4.10, 0.00, 0.00, 0.00, 0.00, 1, 1, 15,  41.7770689, -86.5781871,   191.0, 2026,  3,  8, 15, 39,  7,        0,        0,   0,   0,   1.0,   0.5,   0.8, 40, 44,  0,  0,  0,  0, 34, 43,  0,  0,  0,  0, 31, 30, 41,  0, 41,  0, 40,  0,  0,  0,  0,  0,  0,  0,  0,  0,  0, 29,  0,  0
6, 16162, 3,N0CALL,    -0.14, 3,   boost,   -0.00,  99105.00,  186.46,    1.19,    0.00, 17.3, 4.09, 4.10, 4.08,  -9.83,  -0.39,  -0.12,   3.05,  -0.78,   0.62,  -0.36,   0.07,  -0.10,   3.11, 4.10, 0.00, 0.00, 0.00, 0.00, 1, 1, 15,  41.7770689, -86.5781871,   191.0, 2026,  3,  8, 15, 39,  7,        0,        0,   0,   0,   1.0,   0.5,   0.8, 40, 44,  0,  0,  0,  0, 34, 43,  0,  0,  0,  0, 31, 30, 41,  0, 41,  0, 40,  0,  0,  0,  0,  0,  0,  0,  0,  0,  0, 29,  0,  0
6, 16162, 3,N0CALL,    -0.13, 3,   boost,   -0.98,  99111.00,  185.95,    0.68,    0.00, 17.3, 4.09, 4.10, 4.08,  -9.89,  -0.39,  -0.29,   2.75,  -0.96,   0.37,  -0.36,   0.07,  -0.10,   3.11, 4.10, 0.00, 0.00, 0.00, 0.00, 1, 1, 15,  41.7770689, -86.5781871,   191.0, 2026,  3,  8, 15, 39,  7,        0,        0,   0,   0,   1.0,   0.5,   0.8, 40, 44,  0,  0,  0,  0, 34, 43,  0,  0,  0,  0, 31, 30, 41,  0, 41,  0, 40,  0,  0,  0,  0,  0,  0,  0,  0,  0,  0, 29,  0,  0
6, 16162, 3,N0CALL,    -0.12, 3,   boost,   -0.00,  99111.00,  185.95,    0.68,    0.00, 17.3, 4.09, 4.10, 4.08,  -9.96,  -0.44,  -0.47,   1.71,  -0.78,   0.37,  -0.36,   0.07,  -0.10,   3.11, 4.10, 0.00, 0.00, 0.00, 0.00, 1, 1, 15,  41.7770689, -86.5781871,   191.0, 2026,  3,  8, 15, 39,  7,        0,        0,   0,   0,   1.0,   0.5,   0.8, 40, 44,  0,  0,  0,  0, 34, 43,  0,  0,  0,  0, 31, 30, 41,  0, 41,  0, 40,  0,  0,  0,  0,  0,  0,  0,  0,  0,  0, 29,  0,  0
6, 16162, 3,N0CALL,    -0.11, 3,   boost,    0.49,  99101.00,  186.80,    1.53,    0.00, 17.3, 4.09, 4.10, 4.08, -10.01,  -0.28,  -0.59,   0.73,  -0.23,   0.37,  -0.36,   0.07,  -0.10,   3.11, 4.10, 0.00, 0.00, 0.00, 0.00, 1, 1, 15,  41.7770689, -86.5781871,   191.0, 2026,  3,  8, 15, 39,  7,        0,        0,   0,   0,   1.0,   0.5,   0.8, 40, 44,  0,  0,  0,  0, 34, 43,  0,  0,  0,  0, 31, 30, 41,  0, 41,  0, 40,  0,  0,  0,  0,  0,  0,  0,  0,  0,  0, 29,  0,  0
6, 16162, 3,N0CALL,    -0.10, 3,   boost,    0.49,  99101.00,  186.80,    1.53,    0.00, 17.3, 4.09, 4.10, 4.08,  -9.92,  -0.48,  -0.66,  -0.18,  -0.59,   0.37,  -0.36,   0.07,  -0.10,   3.11, 4.10, 0.00, 0.00, 0.00, 0.00, 1, 1, 15,  41.7770689, -86.5781871,   191.0, 2026,  3,  8, 15, 39,  7,        0,        0,   0,   0,   1.0,   0.5,   0.8, 40, 44,  0,  0,  0,  0, 34, 43,  0,  0,  0,  0, 31, 30, 41,  0, 41,  0, 40,  0,  0,  0,  0,  0,  0,  0,  0,  0,  0, 29,  0,  0
6, 16162, 3,N0CALL,    -0.09, 3,   boost,    0.98,  99101.00,  186.80,    1.53,    0.01, 17.3, 4.09, 4.10, 4.08,  -9.75,  -0.27,  -0.77,  -0.91,  -0.16,   0.31,  -0.36,   0.07,  -0.10,   3.11, 4.10, 0.00, 0.00, 0.00, 0.00, 1, 1, 15,  41.7770689, -86.5781871,   191.0, 2026,  3,  8, 15, 39,  7,        0,        0,   0,   0,   1.0,   0.5,   0.8, 40, 44,  0,  0,  0,  0, 34, 43,  0,  0,  0,  0, 31, 30, 41,  0, 41,  0, 40,  0,  0,  0,  0,  0,  0,  0,  0,  0,  0, 29,  0,  0
6, 16162, 3,N0CALL,    -0.08, 3,   boost,    0.49,  99101.00,  186.80,    1.53,    0.07, 17.3, 4.09, 4.10, 4.08,  -9.75,  -0.27,  -0.61,  -1.40,   0.14,   0.31,  -0.36,   0.07,  -0.10,   3.11, 4.10, 0.00, 0.00, 0.00, 0.00, 1, 1, 15,  41.7770689, -86.5781871,   191.0, 2026,  3,  8, 15, 39,  7,        0,        0,   0,   0,   1.0,   0.5,   0.8, 40, 44,  0,  0,  0,  0, 34, 43,  0,  0,  0,  0, 31, 30, 41,  0, 41,  0, 40,  0,  0,  0,  0,  0,  0,  0,  0,  0,  0, 29,  0,  0
6, 16162, 3,N0CALL,    -0.07, 3,   boost,    0.49,  99106.00,  186.37,    1.10,    0.23, 17.3, 4.09, 4.10, 4.08,  -9.93,  -0.30,  -0.64,  -1.28,  -0.16,   0.56,  -0.36,   0.07,  -0.10,   3.11, 4.10, 0.00, 0.00, 0.00, 0.00, 1, 1, 15,  41.7770689, -86.5781871,   191.0, 2026,  3,  8, 15, 39,  7,        0,        0,   0,   0,   1.0,   0.5,   0.8, 40, 44,  0,  0,  0,  0, 34, 43,  0,  0,  0,  0, 31, 30, 41,  0, 41,  0, 40,  0,  0,  0,  0,  0,  0,  0,  0,  0,  0, 29,  0,  0
6, 16162, 3,N0CALL,    -0.06, 3,   boost,   -0.00,  99106.00,  186.37,    1.10,    0.59, 17.3, 4.09, 4.10, 4.08,  -9.91,  -0.32,  -0.66,  -0.36,   0.02,   0.31,  -0.36,   0.07,  -0.10,   3.11, 4.10, 0.00, 0.00, 0.00, 0.00, 1, 1, 15,  41.7770689, -86.5781871,   191.0, 2026,  3,  8, 15, 39,  7,        0,        0,   0,   0,   1.0,   0.5,   0.8, 40, 44,  0,  0,  0,  0, 34, 43,  0,  0,  0,  0, 31, 30, 41,  0, 41,  0, 40,  0,  0,  0,  0,  0,  0,  0,  0,  0,  0, 29,  0,  0
6, 16162, 3,N0CALL,    -0.05, 3,   boost,  101.01,  99116.00,  185.53,    0.25,    1.21, 17.3, 4.09, 4.10, 4.08,  -9.91,  -0.52,  -0.43,   0.37,  -0.04,   0.98,  -0.36,   0.07,  -0.10,   3.11, 4.10, 0.00, 0.00, 0.00, 0.00, 1, 1, 15,  41.7770689, -86.5781871,   191.0, 2026,  3,  8, 15, 39,  7,        0,        0,   0,   0,   1.0,   0.5,   0.8, 40, 44,  0,  0,  0,  0, 34, 43,  0,  0,  0,  0, 31, 30, 41,  0, 41,  0, 40,  0,  0,  0,  0,  0,  0,  0,  0,  0,  0, 29,  0,  0
6, 16162, 3,N0CALL,    -0.04, 3,   boost,  141.71,  99116.00,  185.53,    0.25,    2.09, 17.3, 4.09, 4.10, 4.08, -28.72,   0.29,  -2.08,  -5.61,  -2.91,  -0.79,  -0.36,   0.07,  -0.10,   3.11, 4.10, 0.00, 0.00, 0.00, 0.00, 1, 1, 15,  41.7770689, -86.5781871,   191.0, 2026,  3,  8, 15, 39,  7,        0,        0,   0,   0,   1.0,   0.5,   0.8, 40, 44,  0,  0,  0,  0, 34, 43,  0,  0,  0,  0, 31, 30, 41,  0, 41,  0, 40,  0,  0,  0,  0,  0,  0,  0,  0,  0,  0, 29,  0,  0
6, 16162, 3,N0CALL,    -0.03, 3,   boost,  138.76,  99242.00,  174.85,  -10.42,    3.18, 17.3, 4.09, 4.10, 4.08,-136.36,  -0.62,   3.69, -22.22,   6.55,   0.25,  -0.36,   0.07,  -0.10,   3.11, 4.10, 0.00, 0.00, 0.00, 0.00, 1, 1, 15,  41.7770689, -86.5781871,   191.0, 2026,  3,  8, 15, 39,  7,        0,        0,   0,   0,   1.0,   0.5,   0.8, 40, 44,  0,  0,  0,  0, 34, 43,  0,  0,  0,  0, 31, 30, 41,  0, 41,  0, 40,  0,  0,  0,  0,  0,  0,  0,  0,  0,  0, 29,  0,  0
6, 16162, 3,N0CALL,    -0.02, 3,   boost,  136.31,  99242.00,  174.85,  -10.42,    4.41, 17.3, 4.09, 4.10, 4.08,-153.69,  -5.79,   8.85, -20.57,  18.39,   1.47,  -0.36,   0.07,  -0.09,   3.11, 4.10, 0.00, 0.00, 0.00, 0.00, 1, 1, 15,  41.7770689, -86.5781871,   191.0, 2026,  3,  8, 15, 39,  7,        0,        0,   0,   0,   1.0,   0.5,   0.8, 40, 44,  0,  0,  0,  0, 34, 43,  0,  0,  0,  0, 31, 30, 41,  0, 41,  0, 40,  0,  0,  0,  0,  0,  0,  0,  0,  0,  0, 29,  0,  0
6, 16162, 3,N0CALL,    -0.01, 3,   boost,  122.09,  99131.00,  184.26,   -1.02,    5.67, 17.3, 4.09, 4.10, 4.08,-146.34,  -2.09,   9.61, -30.45,  15.03,   2.63,  -0.36,   0.07,  -0.09,   3.11, 4.10, 0.00, 0.00, 0.00, 0.00, 1, 1, 15,  41.7770689, -86.5781871,   191.0, 2026,  3,  8, 15, 39,  7,        0,        0,   0,   0,   1.0,   0.5,   0.8, 40, 44,  0,  0,  0,  0, 34, 43,  0,  0,  0,  0, 31, 30, 41,  0, 41,  0, 40,  0,  0,  0,  0,  0,  0,  0,  0,  0,  0, 29,  0,  0
6, 16162, 3,N0CALL,     0.00, 3,   boost,  117.68,  99131.00,  184.26,   -1.02,    6.94, 17.3, 4.09, 4.10, 4.08,-131.27,   0.61,   1.77,   2.08,  15.09,  -0.12,  -0.36,   0.07,  -0.09,   3.11, 4.10, 0.00, 0.00, 0.00, 0.00, 1, 1, 15,  41.7770689, -86.5781871,   191.0, 2026,  3,  8, 15, 39,  7,        0,        0,   0,   0,   1.0,   0.5,   0.8, 40, 44,  0,  0,  0,  0, 34, 43,  0,  0,  0,  0, 31, 30, 41,  0, 41,  0, 40,  0,  0,  0,  0,  0,  0,  0,  0,  0,  0, 29,  0,  0
6, 16162, 3,N0CALL,     0.00, 3,   boost,  117.68,  99131.00,  184.26,   -1.02,    6.94, 17.3, 4.09, 4.10, 4.08,-131.27,   0.61,   1.77,   2.08,  15.09,  -0.12,  -0.36,   0.07,  -0.09,   3.11, 4.10, 0.00, 0.00, 0.00, 0.00, 1, 1, 15,  41.7770689, -86.5781871,   191.0, 2026,  3,  8, 15, 39,  7,        0,        0,   0,   0,   1.0,   0.5,   0.8, 40, 44,  0,  0,  0,  0, 34, 43,  0,  0,  0,  0, 31, 30, 41,  0, 41,  0, 40,  0,  0,  0,  0,  0,  0,  0,  0,  0,  0, 29,  0,  0
6, 16162, 3,N0CALL,     0.00, 3,   boost,  117.68,  99131.00,  184.26,   -1.02,    6.94, 17.3, 4.09, 4.10, 4.08,-131.27,   0.61,   1.77,   2.08,  15.09,  -0.12,  -0.36,   0.07,  -0.09,   3.11, 4.10, 0.00, 0.00, 0.00, 0.00, 1, 1, 15,  41.7770689, -86.5781871,   191.0, 2026,  3,  8, 15, 39,  7,        0,        0,   0,   0,   1.0,   0.5,   0.8, 40, 44,  0,  0,  0,  0, 34, 43,  0,  0,  0,  0, 31, 30, 41,  0, 41,  0, 40,  0,  0,  0,  0,  0,  0,  0,  0,  0,  0, 29,  0,  0
6, 16162, 3,N0CALL,     0.00, 3,   boost,  117.68,  99131.00,  184.26,   -1.02,    6.94, 17.3, 4.09, 4.10, 4.08,-131.27,   0.61,   1.77,   2.08,  15.09,  -0.12,  -0.36,   0.07,  -0.09,   3.11, 4.10, 0.00, 0.00, 0.00, 0.00, 1, 1, 15,  41.7770689, -86.5781871,   191.0, 2026,  3,  8, 15, 39,  7,        0,        0,   0,   0,   1.0,   0.5,   0.8, 40, 44,  0,  0,  0,  0, 34, 43,  0,  0,  0,  0, 31, 30, 41,  0, 41,  0, 40,  0,  0,  0,  0,  0,  0,  0,  0,  0,  0, 29,  0,  0
6, 16162, 3,N0CALL,     0.00, 3,   boost,  117.68,  99131.00,  184.26,   -1.02,    6.94, 17.3, 4.09, 4.10, 4.08,-131.27,   0.61,   1.77,   2.08,  15.09,  -0.12,  -0.36,   0.07,  -0.09,   3.11, 4.10, 0.00, 0.00, 0.00, 0.00, 1, 1, 15,  41.7770689, -86.5781871,   191.0, 2026,  3,  8, 15, 39,  7,        0,        0,   0,   0,   1.0,   0.5,   0.8, 40, 44,  0,  0,  0,  0, 34, 43,  0,  0,  0,  0, 31, 30, 41,  0, 41,  0, 40,  0,  0,  0,  0,  0,  0,  0,  0,  0,  0, 29,  0,  0
6, 16162, 3,N0CALL,     0.00, 3,   boost,  117.68,  99131.00,  184.26,   -1.02,    6.94, 17.3, 4.09, 4.10, 4.08,-131.27,   0.61,   1.77,   2.08,  15.09,  -0.12,  -0.36,   0.07,  -0.09,   3.12, 4.10, 0.00, 0.00, 0.00, 0.00, 1, 1, 15,  41.7770689, -86.5781871,   191.0, 2026,  3,  8, 15, 39,  7,        0,        0,   0,   0,   1.0,   0.5,   0.8, 40, 44,  0,  0,  0,  0, 34, 43,  0,  0,  0,  0, 31, 30, 41,  0, 41,  0, 40,  0,  0,  0,  0,  0,  0,  0,  0,  0,  0, 29,  0,  0
6, 16162, 3,N0CALL,     0.00, 3,   boost,  117.68,  99131.00,  184.26,   -1.02,    6.94, 17.3, 4.09, 4.10, 4.08,-131.27,   0.61,   1.77,   2.08,  15.09,  -0.12,  -0.36,   0.07,  -0.09,   3.12, 4.10, 0.00, 0.00, 0.00, 0.00, 1, 1, 15,  41.7770689, -86.5781871,   191.0, 2026,  3,  8, 15, 39,  7,        0,        0,   0,   0,   1.0,   0.5,   0.8, 40, 44,  0,  0,  0,  0, 34, 43,  0,  0,  0,  0, 31, 30, 41,  0, 41,  0, 40,  0,  0,  0,  0,  0,  0,  0,  0,  0,  0, 29,  0,  0
6, 16162, 3,N0CALL,     0.00, 3,   boost,  117.68,  99131.00,  184.26,   -1.02,    6.94, 17.3, 4.09, 4.10, 4.08,-131.27,   0.61,   1.77,   2.08,  15.09,  -0.12,  -0.36,   0.07,  -0.09,   3.12, 4.10, 0.00, 0.00, 0.00, 0.00, 1, 1, 15,  41.7770689, -86.5781871,   191.0, 2026,  3,  8, 15, 39,  7,        0,        0,   0,   0,   1.0,   0.5,   0.8, 40, 44,  0,  0,  0,  0, 34, 43,  0,  0,  0,  0, 31, 30, 41,  0, 41,  0, 40,  0,  0,  0,  0,  0,  0,  0,  0,  0,  0, 29,  0,  0
6, 16162, 3,N0CALL,     0.00, 3,   boost,  117.68,  99131.00,  184.26,   -1.02,    6.94, 17.3, 4.09, 4.10, 4.08,-131.27,   0.61,   1.77,   2.08,  15.09,  -0.12,  -0.36,   0.07,  -0.09,   3.13, 4.10, 0.00, 0.00, 0.00, 0.00, 1, 1, 15,  41.7770689, -86.5781871,   191.0, 2026,  3,  8, 15, 39,  7,        0,        0,   0,   0,   1.0,   0.5,   0.8, 40, 44,  0,  0,  0,  0, 34, 43,  0,  0,  0,  0, 31, 30, 41,  0, 41,  0, 40,  0,  0,  0,  0,  0,  0,  0,  0,  0,  0, 29,  0,  0
6, 16162, 3,N0CALL,     0.00, 3,   boost,  117.68,  99131.00,  184.26,   -1.02,    6.94, 17.3, 4.09, 4.10, 4.08,-131.27,   0.61,   1.77,   2.08,  15.09,  -0.12,  -0.36,   0.07,  -0.09,   3.13, 4.10, 0.00, 0.00, 0.00, 0.00, 1, 1, 15,  41.7770689, -86.5781871,   191.0, 2026,  3,  8, 15, 39,  7,        0,        0,   0,   0,   1.0,   0.5,   0.8, 40, 44,  0,  0,  0,  0, 34, 43,  0,  0,  0,  0, 31, 30, 41,  0, 41,  0, 40,  0,  0,  0,  0,  0,  0,  0,  0,  0,  0, 29,  0,  0
6, 16162, 3,N0CALL,     0.00, 3,   boost,  117.68,  99131.00,  184.26,   -1.02,    6.94, 17.3, 4.09, 4.10, 4.08,-131.27,   0.61,   1.77,   2.08,  15.09,  -0.12,  -0.36,   0.07,  -0.09,   3.13, 4.10, 0.00, 0.00, 0.00, 0.00, 1, 1, 15,  41.7770689, -86.5781871,   191.0, 2026,  3,  8, 15, 39,  7,        0,        0,   0,   0,   1.0,   0.5,   0.8, 40, 44,  0,  0,  0,  0, 34, 43,  0,  0,  0,  0, 31, 30, 41,  0, 41,  0, 40,  0,  0,  0,  0,  0,  0,  0,  0,  0,  0, 29,  0,  0
6, 16162, 3,N0CALL,     0.00, 3,   boost,  117.68,  99131.00,  184.26,   -1.02,    6.94, 17.3, 4.09, 4.10, 4.08,-131.27,   0.61,   1.77,   2.08,  15.09,  -0.12,  -0.36,   0.07,  -0.09,   3.13, 4.10, 0.00, 0.00, 0.00, 0.00, 1, 1, 15,  41.7770689, -86.5781871,   191.0, 2026,  3,  8, 15, 39,  7,        0,        0,   0,   0,   1.0,   0.5,   0.8, 40, 44,  0,  0,  0,  0, 34, 43,  0,  0,  0,  0, 31, 30, 41,  0, 41,  0, 40,  0,  0,  0,  0,  0,  0,  0,  0,  0,  0, 29,  0,  0
6, 16162, 3,N0CALL,     0.00, 3,   boost,  117.68,  99131.00,  184.26,   -1.02,    6.94, 17.3, 4.09, 4.10, 4.08,-131.27,   0.61,   1.77,   2.08,  15.09,  -0.12,  -0.36,   0.07,  -0.09,   3.14, 4.10, 0.00, 0.00, 0.00, 0.00, 1, 1, 15,  41.7770689, -86.5781871,   191.0, 2026,  3,  8, 15, 39,  7,        0,        0,   0,   0,   1.0,   0.5,   0.8, 40, 44,  0,  0,  0,  0, 34, 43,  0,  0,  0,  0, 31, 30, 41,  0, 41,  0, 40,  0,  0,  0,  0,  0,  0,  0,  0,  0,  0, 29,  0,  0
6, 16162, 3,N0CALL,     0.00, 3,   boost,  117.68,  99131.00,  184.26,   -1.02,    6.94, 17.3, 4.09, 4.10, 4.08,-131.27,   0.61,   1.77,   2.08,  15.09,  -0.12,  -0.36,   0.07,  -0.09,   3.13, 4.10, 0.00, 0.00, 0.00, 0.00, 1, 1, 15,  41.7770689, -86.5781871,   191.0, 2026,  3,  8, 15, 39,  7,        0,        0,   0,   0,   1.0,   0.5,   0.8, 40, 44,  0,  0,  0,  0, 34, 43,  0,  0,  0,  0, 31, 30, 41,  0, 41,  0, 40,  0,  0,  0,  0,  0,  0,  0,  0,  0,  0, 29,  0,  0
6, 16162, 3,N0CALL,     0.00, 3,   boost,  117.68,  99131.00,  184.26,   -1.02,    6.94, 17.3, 4.09, 4.10, 4.08,-131.27,   0.61,   1.77,   2.08,  15.09,  -0.12,  -0.36,   0.07,  -0.09,   3.14, 4.10, 0.00, 0.00, 0.00, 0.00, 1, 1, 15,  41.7770689, -86.5781871,   191.0, 2026,  3,  8, 15, 39,  7,        0,        0,   0,   0,   1.0,   0.5,   0.8, 40, 44,  0,  0,  0,  0, 34, 43,  0,  0,  0,  0, 31, 30, 41,  0, 41,  0, 40,  0,  0,  0,  0,  0,  0,  0,  0,  0,  0, 29,  0,  0
6, 16162, 3,N0CALL,     0.00, 3,   boost,  117.68,  99131.00,  184.26,   -1.02,    6.94, 17.3, 4.09, 4.10, 4.08,-131.27,   0.61,   1.77,   2.08,  15.09,  -0.12,  -0.36,   0.07,  -0.09,   3.14, 4.10, 0.00, 0.00, 0.00, 0.00, 1, 1, 15,  41.7770689, -86.5781871,   191.0, 2026,  3,  8, 15, 39,  7,        0,        0,   0,   0,   1.0,   0.5,   0.8, 40, 44,  0,  0,  0,  0, 34, 43,  0,  0,  0,  0, 31, 30, 41,  0, 41,  0, 40,  0,  0,  0,  0,  0,  0,  0,  0,  0,  0, 29,  0,  0
6, 16162, 3,N0CALL,     0.00, 3,   boost,  117.68,  99131.00,  184.26,   -1.02,    6.94, 17.3, 4.09, 4.10, 4.08,-131.27,   0.61,   1.77,   2.08,  15.09,  -0.12,  -0.36,   0.07,  -0.09,   3.14, 4.10, 0.00, 0.00, 0.00, 0.00, 1, 1, 15,  41.7770689, -86.5781871,   191.0, 2026,  3,  8, 15, 39,  7,        0,        0,   0,   0,   1.0,   0.5,   0.8, 40, 44,  0,  0,  0,  0, 34, 43,  0,  0,  0,  0, 31, 30, 41,  0, 41,  0, 40,  0,  0,  0,  0,  0,  0,  0,  0,  0,  0, 29,  0,  0
6, 16162, 3,N0CALL,     0.00, 3,   boost,  117.68,  99131.00,  184.26,   -1.02,    6.94, 17.3, 4.09, 4.10, 4.08,-131.27,   0.61,   1.77,   2.08,  15.09,  -0.12,  -0.36,   0.07,  -0.09,   3.14, 4.10, 0.00, 0.00, 0.00, 0.00, 1, 1, 15,  41.7770689, -86.5781871,   191.0, 2026,  3,  8, 15, 39,  7,        0,        0,   0,   0,   1.0,   0.5,   0.8, 40, 44,  0,  0,  0,  0, 34, 43,  0,  0,  0,  0, 31, 30, 41,  0, 41,  0, 40,  0,  0,  0,  0,  0,  0,  0,  0,  0,  0, 29,  0,  0
6, 16162, 3,N0CALL,     0.00, 3,   boost,  117.68,  99131.00,  184.26,   -1.02,    6.94, 17.3, 4.09, 4.10, 4.08,-131.27,   0.61,   1.77,   2.08,  15.09,  -0.12,  -0.36,   0.07,  -0.09,   3.15, 4.10, 0.00, 0.00, 0.00, 0.00, 1, 1, 15,  41.7770689, -86.5781871,   191.0, 2026,  3,  8, 15, 39,  7,        0,        0,   0,   0,   1.0,   0.5,   0.8, 40, 44,  0,  0,  0,  0, 34, 43,  0,  0,  0,  0, 31, 30, 41,  0, 41,  0, 40,  0,  0,  0,  0,  0,  0,  0,  0,  0,  0, 29,  0,  0
6, 16162, 3,N0CALL,     0.00, 3,   boost,  117.68,  99131.00,  184.26,   -1.02,    6.94, 17.3, 4.09, 4.10, 4.08,-131.27,   0.61,   1.77,   2.08,  15.09,  -0.12,  -0.36,   0.07,  -0.09,   3.15, 4.10, 0.00, 0.00, 0.00, 0.00, 1, 1, 15,  41.7770689, -86.5781871,   191.0, 2026,  3,  8, 15, 39,  7,        0,        0,   0,   0,   1.0,   0.5,   0.8, 40, 44,  0,  0,  0,  0, 34, 43,  0,  0,  0,  0, 31, 30, 41,  0, 41,  0, 40,  0,  0,  0,  0,  0,  0,  0,  0,  0,  0, 29,  0,  0
6, 16162, 3,N0CALL,     0.00, 3,   boost,  117.68,  99131.00,  184.26,   -1.02,    6.94, 17.3, 4.09, 4.10, 4.08,-131.27,   0.61,   1.77,   2.08,  15.09,  -0.12,  -0.36,   0.07,  -0.09,   3.16, 4.10, 0.00, 0.00, 0.00, 0.00, 1, 1, 15,  41.7770689, -86.5781871,   191.0, 2026,  3,  8, 15, 39,  7,        0,        0,   0,   0,   1.0,   0.5,   0.8, 40, 44,  0,  0,  0,  0, 34, 43,  0,  0,  0,  0, 31, 30, 41,  0, 41,  0, 40,  0,  0,  0,  0,  0,  0,  0,  0,  0,  0, 29,  0,  0
6, 16162, 3,N0CALL,     0.00, 3,   boost,  117.68,  99131.00,  184.26,   -1.02,    6.94, 17.3, 4.09, 4.10, 4.08,-131.27,   0.61,   1.77,   2.08,  15.09,  -0.12,  -0.36,   0.07,  -0.09,   3.17, 4.10, 0.00, 0.00, 0.00, 0.00, 1, 1, 15,  41.7770689, -86.5781871,   191.0, 2026,  3,  8, 15, 39,  7,        0,        0,   0,   0,   1.0,   0.5,   0.8, 40, 44,  0,  0,  0,  0, 34, 43,  0,  0,  0,  0, 31, 30, 41,  0, 41,  0, 40,  0,  0,  0,  0,  0,  0,  0,  0,  0,  0, 29,  0,  0
6, 16162, 3,N0CALL,     0.00, 3,   boost,  117.68,  99131.00,  184.26,   -1.02,    6.94, 17.3, 4.09, 4.10, 4.08,-131.27,   0.61,   1.77,   2.08,  15.09,  -0.12,  -0.36,   0.07,  -0.09,   3.18, 4.10, 0.00, 0.00, 0.00, 0.00, 1, 1, 15,  41.7770689, -86.5781871,   191.0, 2026,  3,  8, 15, 39,  7,        0,        0,   0,   0,   1.0,   0.5,   0.8, 40, 44,  0,  0,  0,  0, 34, 43,  0,  0,  0,  0, 31, 30, 41,  0, 41,  0, 40,  0,  0,  0,  0,  0,  0,  0,  0,  0,  0, 29,  0,  0
6, 16162, 3,N0CALL,     0.00, 3,   boost,  117.68,  99131.00,  184.26,   -1.02,    6.94, 17.3, 4.09, 4.10, 4.08,-131.27,   0.61,   1.77,   2.08,  15.09,  -0.12,  -0.36,   0.07,  -0.09,   3.18, 4.10, 0.00, 0.00, 0.00, 0.00, 1, 1, 15,  41.7770689, -86.5781871,   191.0, 2026,  3,  8, 15, 39,  7,        0,        0,   0,   0,   1.0,   0.5,   0.8, 40, 44,  0,  0,  0,  0, 34, 43,  0,  0,  0,  0, 31, 30, 41,  0, 41,  0, 40,  0,  0,  0,  0,  0,  0,  0,  0,  0,  0, 29,  0,  0
6, 16162, 3,N0CALL,     0.00, 3,   boost,  117.68,  99131.00,  184.26,   -1.02,    6.94, 17.3, 4.09, 4.10, 4.08,-131.27,   0.61,   1.77,   2.08,  15.09,  -0.12,  -0.36,   0.07,  -0.09,   3.19, 4.10, 0.00, 0.00, 0.00, 0.00, 1, 1, 15,  41.7770689, -86.5781871,   191.0, 2026,  3,  8, 15, 39,  7,        0,        0,   0,   0,   1.0,   0.5,   0.8, 40, 44,  0,  0,  0,  0, 34, 43,  0,  0,  0,  0, 31, 30, 41,  0, 41,  0, 40,  0,  0,  0,  0,  0,  0,  0,  0,  0,  0, 29,  0,  0
6, 16162, 3,N0CALL,     0.00, 3,   boost,  117.68,  99131.00,  184.26,   -1.02,    6.94, 17.3, 4.09, 4.10, 4.08,-131.27,   0.61,   1.77,   2.08,  15.09,  -0.12,  -0.36,   0.07,  -0.09,   3.19, 4.10, 0.00, 0.00, 0.00, 0.00, 1, 1, 15,  41.7770689, -86.5781871,   191.0, 2026,  3,  8, 15, 39,  7,        0,        0,   0,   0,   1.0,   0.5,   0.8, 40, 44,  0,  0,  0,  0, 34, 43,  0,  0,  0,  0, 31, 30, 41,  0, 41,  0, 40,  0,  0,  0,  0,  0,  0,  0,  0,  0,  0, 29,  0,  0
6, 16162, 3,N0CALL,     0.00, 3,   boost,  117.68,  99131.00,  184.26,   -1.02,    6.94, 17.3, 4.09, 4.10, 4.08,-131.27,   0.61,   1.77,   2.08,  15.09,  -0.12,  -0.36,   0.07,  -0.09,   3.19, 4.10, 0.00, 0.00, 0.00, 0.00, 1, 1, 15,  41.7770689, -86.5781871,   191.0, 2026,  3,  8, 15, 39,  7,        0,        0,   0,   0,   1.0,   0.5,   0.8, 40, 44,  0,  0,  0,  0, 34, 43,  0,  0,  0,  0, 31, 30, 41,  0, 41,  0, 40,  0,  0,  0,  0,  0,  0,  0,  0,  0,  0, 29,  0,  0
6, 16162, 3,N0CALL,     0.00, 3,   boost,  117.68,  99131.00,  184.26,   -1.02,    6.94, 17.3, 4.09, 4.10, 4.08,-131.27,   0.61,   1.77,   2.08,  15.09,  -0.12,  -0.36,   0.07,  -0.09,   3.20, 4.10, 0.00, 0.00, 0.00, 0.00, 1, 1, 15,  41.7770689, -86.5781871,   191.0, 2026,  3,  8, 15, 39,  7,        0,        0,   0,   0,   1.0,   0.5,   0.8, 40, 44,  0,  0,  0,  0, 34, 43,  0,  0,  0,  0, 31, 30, 41,  0, 41,  0, 40,  0,  0,  0,  0,  0,  0,  0,  0,  0,  0, 29,  0,  0
6, 16162, 3,N0CALL,     0.00, 3,   boost,  117.68,  99131.00,  184.26,   -1.02,    6.94, 17.3, 4.09, 4.10, 4.08,-131.27,   0.61,   1.77,   2.08,  15.09,  -0.12,  -0.36,   0.07,  -0.09,   3.20, 4.10, 0.00, 0.00, 0.00, 0.00, 1, 1, 15,  41.7770689, -86.5781871,   191.0, 2026,  3,  8, 15, 39,  7,        0,        0,   0,   0,   1.0,   0.5,   0.8, 40, 44,  0,  0,  0,  0, 34, 43,  0,  0,  0,  0, 31, 30, 41,  0, 41,  0, 40,  0,  0,  0,  0,  0,  0,  0,  0,  0,  0, 29,  0,  0
6, 16162, 3,N0CALL,     0.00, 3,   boost,  117.68,  99131.00,  184.26,   -1.02,    6.94, 17.3, 4.09, 4.10, 4.08,-131.27,   0.61,   1.77,   2.08,  15.09,  -0.12,  -0.36,   0.07,  -0.09,   3.21, 4.10, 0.00, 0.00, 0.00, 0.00, 1, 1, 15,  41.7770689, -86.5781871,   191.0, 2026,  3,  8, 15, 39,  7,        0,        0,   0,   0,   1.0,   0.5,   0.8, 40, 44,  0,  0,  0,  0, 34, 43,  0,  0,  0,  0, 31, 30, 41,  0, 41,  0, 40,  0,  0,  0,  0,  0,  0,  0,  0,  0,  0, 29,  0,  0
6, 16162, 3,N0CALL,     0.00, 3,   boost,  117.68,  99131.00,  184.26,   -1.02,    6.94, 17.3, 4.09, 4.10, 4.08,-131.27,   0.61,   1.77,   2.08,  15.09,  -0.12,  -0.36,   0.07,  -0.09,   3.22, 4.10, 0.00, 0.00, 0.00, 0.00, 1, 1, 15,  41.7770689, -86.5781871,   191.0, 2026,  3,  8, 15, 39,  7,        0,        0,   0,   0,   1.0,   0.5,   0.8, 40, 44,  0,  0,  0,  0, 34, 43,  0,  0,  0,  0, 31, 30, 41,  0, 41,  0, 40,  0,  0,  0,  0,  0,  0,  0,  0,  0,  0, 29,  0,  0
6, 16162, 3,N0CALL,     0.00, 3,   boost,  117.68,  99131.00,  184.26,   -1.02,    6.94, 17.3, 4.09, 4.10, 4.08,-131.27,   0.61,   1.77,   2.08,  15.09,  -0.12,  -0.36,   0.07,  -0.09,   3.19, 4.10, 0.00, 0.00, 0.00, 0.00, 1, 1, 15,  41.7770689, -86.5781871,   191.0, 2026,  3,  8, 15, 39,  7,        0,        0,   0,   0,   1.0,   0.5,   0.8, 40, 44,  0,  0,  0,  0, 34, 43,  0,  0,  0,  0, 31, 30, 41,  0, 41,  0, 40,  0,  0,  0,  0,  0,  0,  0,  0,  0,  0, 29,  0,  0
6, 16162, 3,N0CALL,     0.00, 3,   boost,  117.68,  99131.00,  184.26,   -1.02,    6.94, 17.3, 4.09, 4.10, 4.08,-131.27,   0.61,   1.77,   2.08,  15.09,  -0.12,  -0.36,   0.07,  -0.09,   3.10, 4.10, 0.00, 0.00, 0.00, 0.00, 1, 1, 15,  41.7770689, -86.5781871,   191.0, 2026,  3,  8, 15, 39,  7,        0,        0,   0,   0,   1.0,   0.5,   0.8, 40, 44,  0,  0,  0,  0, 34, 43,  0,  0,  0,  0, 31, 30, 41,  0, 41,  0, 40,  0,  0,  0,  0,  0,  0,  0,  0,  0,  0, 29,  0,  0
6, 16162, 3,N0CALL,     0.00, 3,   boost,  117.68,  99131.00,  184.26,   -1.02,    6.94, 17.3, 4.09, 4.10, 4.08,-131.27,   0.61,   1.77,   2.08,  15.09,  -0.12,  -0.36,   0.07,  -0.09,   3.05, 4.10, 0.00, 0.00, 0.00, 0.00, 1, 1, 15,  41.7770689, -86.5781871,   191.0, 2026,  3,  8, 15, 39,  7,        0,        0,   0,   0,   1.0,   0.5,   0.8, 40, 44,  0,  0,  0,  0, 34, 43,  0,  0,  0,  0, 31, 30, 41,  0, 41,  0, 40,  0,  0,  0,  0,  0,  0,  0,  0,  0,  0, 29,  0,  0
6, 16162, 3,N0CALL,     0.00, 3,   boost,  117.68,  99131.00,  184.26,   -1.02,    6.94, 17.3, 4.09, 4.10, 4.08,-131.27,   0.61,   1.77,   2.08,  15.09,  -0.12,  -0.36,   0.07,  -0.09,   2.98, 4.10, 0.00, 0.00, 0.00, 0.00, 1, 1, 15,  41.7770689, -86.5781871,   191.0, 2026,  3,  8, 15, 39,  7,        0,        0,   0,   0,   1.0,   0.5,   0.8, 40, 44,  0,  0,  0,  0, 34, 43,  0,  0,  0,  0, 31, 30, 41,  0, 41,  0, 40,  0,  0,  0,  0,  0,  0,  0,  0,  0,  0, 29,  0,  0
6, 16162, 3,N0CALL,     0.01, 3,   boost,  120.13,  99106.00,  186.37,    1.10,    8.20, 17.3, 4.09, 4.10, 4.08,-129.70,  -2.74,  19.52,  11.29,   8.50,  -2.74,  -0.36,   0.07,  -0.09,   2.92, 4.10, 0.00, 0.00, 0.00, 0.00, 1, 1, 15,  41.7770689, -86.5781871,   191.0, 2026,  3,  8, 15, 39,  7,        0,        0,   0,   0,   1.0,   0.5,   0.8, 40, 44,  0,  0,  0,  0, 34, 43,  0,  0,  0,  0, 31, 30, 41,  0, 41,  0, 40,  0,  0,  0,  0,  0,  0,  0,  0,  0,  0, 29,  0,  0
6, 16162, 3,N0CALL,     0.01, 3,   boost,  120.13,  99106.00,  186.37,    1.10,    8.20, 17.3, 4.09, 4.10, 4.08,-129.70,  -2.74,  19.52,  11.29,   8.50,  -2.74,  -0.36,   0.07,  -0.09,   2.92, 4.10, 0.00, 0.00, 0.00, 0.00, 1, 1, 15,  41.7770689, -86.5781871,   191.0, 2026,  3,  8, 15, 39,  7,        0,        0,   0,   0,   1.0,   0.5,   0.8, 40, 44,  0,  0,  0,  0, 34, 43,  0,  0,  0,  0, 31, 30, 41,  0, 41,  0, 40,  0,  0,  0,  0,  0,  0,  0,  0,  0,  0, 29,  0,  0
6, 16162, 3,N0CALL,     0.02, 3,   boost,  131.90,  99106.00,  186.37,    1.10,    9.47, 17.3, 4.07, 4.09, 4.08,-131.37,  -0.30, -20.72,  26.12,  -5.84,  -4.14,  -0.36,   0.07,  -0.09,   2.91, 4.08, 0.00, 0.01, 0.00, 0.00, 1, 1, 15,  41.7770689, -86.5781871,   191.0, 2026,  3,  8, 15, 39,  7,        0,        0,   0,   0,   1.0,   0.5,   0.8, 40, 44,  0,  0,  0,  0, 34, 43,  0,  0,  0,  0, 31, 30, 41,  0, 41,  0, 40,  0,  0,  0,  0,  0,  0,  0,  0,  0,  0, 29,  0,  0
6, 16162, 3,N0CALL,     0.02, 3,   boost,  131.90,  99106.00,  186.37,    1.10,    9.47, 17.3, 4.07, 4.09, 4.08,-131.37,  -0.30, -20.72,  26.12,  -5.84,  -4.14,  -0.36,   0.07,  -0.09,   2.91, 4.08, 0.00, 0.01, 0.00, 0.00, 1, 1, 15,  41.7770689, -86.5781871,   191.0, 2026,  3,  8, 15, 39,  7,        0,        0,   0,   0,   1.0,   0.5,   0.8, 40, 44,  0,  0,  0,  0, 34, 43,  0,  0,  0,  0, 31, 30, 41,  0, 41,  0, 40,  0,  0,  0,  0,  0,  0,  0,  0,  0,  0, 29,  0,  0
6, 16162, 3,N0CALL,     0.03, 3,   boost,  132.39,  99111.00,  185.95,    0.68,   10.75, 17.3, 4.07, 4.09, 4.08,-137.32,  -3.64,   0.51,  47.24, -13.96,  -4.02,  -0.36,   0.07,  -0.10,   2.94, 4.08, 0.00, 0.01, 0.00, 0.00, 1, 1, 15,  41.7770689, -86.5781871,   191.0, 2026,  3,  8, 15, 39,  7,        0,        0,   0,   0,   1.0,   0.5,   0.8, 40, 44,  0,  0,  0,  0, 34, 43,  0,  0,  0,  0, 31, 30, 41,  0, 41,  0, 40,  0,  0,  0,  0,  0,  0,  0,  0,  0,  0, 29,  0,  0
6, 16162, 3,N0CALL,     0.04, 3,   boost,  132.88,  99111.00,  185.95,    0.68,   12.06, 17.3, 4.07, 4.09, 4.08,-137.99,  -5.91,  19.76,  44.74, -15.36,  -3.41,  -0.36,   0.07,  -0.10,   2.98, 4.08, 0.00, 0.01, 0.00, 0.00, 1, 1, 15,  41.7770689, -86.5781871,   191.0, 2026,  3,  8, 15, 39,  7,        0,        0,   0,   0,   1.0,   0.5,   0.8, 40, 44,  0,  0,  0,  0, 34, 43,  0,  0,  0,  0, 31, 30, 41,  0, 41,  0, 40,  0,  0,  0,  0,  0,  0,  0,  0,  0,  0, 29,  0,  0
6, 16162, 3,N0CALL,     0.05, 3,   boost,  132.39,  99107.00,  186.29,    1.02,   13.39, 17.3, 4.07, 4.09, 4.08,-143.92,  -1.53,  -3.16,  -3.60, -17.01,  -1.15,  -0.36,   0.07,  -0.10,   3.07, 4.08, 0.00, 0.01, 0.00, 0.00, 1, 1, 15,  41.7770689, -86.5781871,   191.0, 2026,  3,  8, 15, 39,  7,        0,        0,   0,   0,   1.0,   0.5,   0.8, 40, 44,  0,  0,  0,  0, 34, 43,  0,  0,  0,  0, 31, 30, 41,  0, 41,  0, 40,  0,  0,  0,  0,  0,  0,  0,  0,  0,  0, 29,  0,  0
6, 16162, 3,N0CALL,     0.06, 3,   boost,  133.86,  99107.00,  186.29,    1.02,   14.73, 17.3, 4.07, 4.09, 4.08,-146.24,  -0.67,  -3.25, -49.50, -11.94,   1.11,  -0.36,   0.07,  -0.10,   3.15, 4.08, 0.00, 0.01, 0.00, 0.00, 1, 1, 15,  41.7770689, -86.5781871,   191.0, 2026,  3,  8, 15, 39,  7,        0,        0,   0,   0,   1.0,   0.5,   0.8, 40, 44,  0,  0,  0,  0, 34, 43,  0,  0,  0,  0, 31, 30, 41,  0, 41,  0, 40,  0,  0,  0,  0,  0,  0,  0,  0,  0,  0, 29,  0,  0
6, 16162, 3,N0CALL,     0.07, 3,   boost,  137.29,  99090.00,  187.73,    2.46,   16.10, 17.3, 4.07, 4.09, 4.08,-148.06,  -8.34,  19.31,-108.40, -10.42,   5.74,  -0.36,   0.06,  -0.09,   3.25, 4.08, 0.00, 0.01, 0.00, 0.00, 1, 1, 15,  41.7770689, -86.5781871,   191.0, 2026,  3,  8, 15, 39,  7,        0,        0,   0,   0,   1.0,   0.5,   0.8, 40, 44,  0,  0,  0,  0, 34, 43,  0,  0,  0,  0, 31, 30, 41,  0, 41,  0, 40,  0,  0,  0,  0,  0,  0,  0,  0,  0,  0, 29,  0,  0
6, 16162, 3,N0CALL,     0.08, 3,   boost,  143.18,  99090.00,  187.73,    2.46,   17.49, 17.3, 4.07, 4.09, 4.08,-150.18,   1.03,   3.92,-126.52, -15.24,   5.74,  -0.36,   0.06,  -0.09,   3.39, 4.08, 0.00, 0.01, 0.00, 0.00, 1, 1, 15,  41.7770689, -86.5781871,   191.0, 2026,  3,  8, 15, 39,  7,        0,        0,   0,   0,   1.0,   0.5,   0.8, 40, 44,  0,  0,  0,  0, 34, 43,  0,  0,  0,  0, 31, 30, 41,  0, 41,  0, 40,  0,  0,  0,  0,  0,  0,  0,  0,  0,  0, 29,  0,  0
6, 16162, 3,N0CALL,     0.09, 3,   boost,  141.22,  99094.00,  187.39,    2.12,   18.89, 17.3, 4.07, 4.09, 4.08,-150.71,  -4.55,   4.03,-121.52,  -2.06,   5.44,  -0.36,   0.06,  -0.09,   3.45, 4.08, 0.00, 0.01, 0.00, 0.00, 1, 1, 15,  41.7770689, -86.5781871,   191.0, 2026,  3,  8, 15, 39,  7,        0,        0,   0,   0,   1.0,   0.5,   0.8, 40, 44,  0,  0,  0,  0, 34, 43,  0,  0,  0,  0, 31, 30, 41,  0, 41,  0, 40,  0,  0,  0,  0,  0,  0,  0,  0,  0,  0, 29,  0,  0
6, 16162, 3,N0CALL,     0.10, 3,   boost,  143.67,  99094.00,  187.39,    2.12,   20.33, 17.3, 4.07, 4.09, 4.08,-151.86,  -1.19,  16.52, -60.91,  -3.34,   6.17,  -0.36,   0.06,  -0.09,   3.52, 4.08, 0.00, 0.01, 0.00, 0.00, 1, 1, 15,  41.7770689, -86.5781871,   191.0, 2026,  3,  8, 15, 39,  7,        0,        0,   0,   0,   1.0,   0.5,   0.8, 40, 44,  0,  0,  0,  0, 34, 43,  0,  0,  0,  0, 31, 30, 41,  0, 41,  0, 40,  0,  0,  0,  0,  0,  0,  0,  0,  0,  0, 29,  0,  0
6, 16162, 3,N0CALL,     0.11, 3,   boost,  143.67,  99075.00,  189.00,    3.73,   21.78, 17.3, 4.07, 4.09, 4.08,-151.71,   0.16,  10.30,   4.95,  -0.47,   4.10,  -0.36,   0.06,  -0.09,   3.55, 4.08, 0.00, 0.01, 0.00, 0.00, 1, 1, 15,  41.7770689, -86.5781871,   191.0, 2026,  3,  8, 15, 39,  7,        0,        0,   0,   0,   1.0,   0.5,   0.8, 40, 44,  0,  0,  0,  0, 34, 43,  0,  0,  0,  0, 31, 30, 41,  0, 41,  0, 40,  0,  0,  0,  0,  0,  0,  0,  0,  0,  0, 29,  0,  0
6, 16162, 3,N0CALL,     0.12, 3,   boost,  151.02,  99075.00,  189.00,    3.73,   23.25, 17.3, 4.07, 4.09, 4.08,-152.53,  -3.11, -20.66,  69.22,   0.20,   4.95,  -0.36,   0.06,  -0.09,   3.59, 4.08, 0.00, 0.01, 0.00, 0.00, 1, 1, 15,  41.7770689, -86.5781871,   191.0, 2026,  3,  8, 15, 39,  7,        0,        0,   0,   0,   1.0,   0.5,   0.8, 40, 44,  0,  0,  0,  0, 34, 43,  0,  0,  0,  0, 31, 30, 41,  0, 41,  0, 40,  0,  0,  0,  0,  0,  0,  0,  0,  0,  0, 29,  0,  0
6, 16162, 3,N0CALL,     0.13, 3,   boost,  160.83,  99083.00,  188.32,    3.05,   24.74, 17.3, 4.07, 4.09, 4.08,-158.11,  -8.40,  -3.06,  85.57,  -4.99,   7.76,  -0.36,   0.07,  -0.10,   3.69, 4.08, 0.00, 0.01, 0.00, 0.00, 1, 1, 15,  41.7770689, -86.5781871,   191.0, 2026,  3,  8, 15, 39,  7,        0,        0,   0,   0,   1.0,   0.5,   0.8, 40, 44,  0,  0,  0,  0, 34, 43,  0,  0,  0,  0, 31, 30, 41,  0, 41,  0, 40,  0,  0,  0,  0,  0,  0,  0,  0,  0,  0, 29,  0,  0
6, 16162, 3,N0CALL,     0.14, 3,   boost,  146.61,  99083.00,  188.32,    3.05,   26.22, 17.3, 4.07, 4.09, 4.08,-151.71,  -2.77, -36.11,  -2.20,  27.73,   9.89,  -0.36,   0.07,  -0.10,   3.62, 4.08, 0.00, 0.01, 0.00, 0.00, 1, 1, 15,  41.7770689, -86.5781871,   191.0, 2026,  3,  8, 15, 39,  7,        0,        0,   0,   0,   1.0,   0.5,   0.8, 40, 44,  0,  0,  0,  0, 34, 43,  0,  0,  0,  0, 31, 30, 41,  0, 41,  0, 40,  0,  0,  0,  0,  0,  0,  0,  0,  0,  0, 29,  0,  0
6, 16162, 3,N0CALL,     0.14, 3,   boost,  146.61,  99083.00,  188.32,    3.05,   26.22, 17.3, 4.07, 4.09, 4.08,-151.71,  -2.77, -36.11,  -2.20,  27.73,   9.89,  -0.36,   0.07,  -0.10,   3.62, 4.08, 0.00, 0.01, 0.00, 0.00, 1, 1, 15,  41.7770689, -86.5781871,   191.0, 2026,  3,  8, 15, 39,  7,        0,        0,   0,   0,   1.0,   0.5,   0.8, 40, 44,  0,  0,  0,  0, 34, 43,  0,  0,  0,  0, 31, 30, 41,  0, 41,  0, 40,  0,  0,  0,  0,  0,  0,  0,  0,  0,  0, 29,  0,  0
6, 16162, 3,N0CALL,     0.14, 3,   boost,  146.61,  99083.00,  188.32,    3.05,   26.22, 17.3, 4.07, 4.09, 4.08,-151.71,  -2.77, -36.11,  -2.20,  27.73,   9.89,  -0.36,   0.07,  -0.10,   3.62, 4.08, 0.00, 0.01, 0.00, 0.00, 1, 1, 15,  41.7770689, -86.5781871,   191.0, 2026,  3,  8, 15, 39,  7,        0,        0,   0,   0,   1.0,   0.5,   0.8, 40, 44,  0,  0,  0,  0, 34, 43,  0,  0,  0,  0, 31, 30, 41,  0, 41,  0, 40,  0,  0,  0,  0,  0,  0,  0,  0,  0,  0, 29,  0,  0
6, 16162, 3,N0CALL,     0.15, 3,   boost,  142.20,  99062.00,  190.10,    4.83,   27.69, 17.3, 4.07, 4.09, 4.08,-158.39,  -4.39,  23.75, -23.19,   1.36,   7.64,  -0.36,   0.07,  -0.10,   3.68, 4.08, 0.00, 0.01, 0.00, 0.00, 1, 1, 15,  41.7770671, -86.5781800,   191.0, 2026,  3,  8, 15, 39,  8,        1,        1, 109,   0,   1.2,   0.6,   1.0, 38, 41,  0,  0,  0,  0, 34, 43,  0,  0,  0,  0, 31, 30, 39,  0, 41,  0, 40,  0,  0, 19,  0,  0,  0,  0,  0,  0,  0, 27,  0,  0
6, 16162, 3,N0CALL,     0.16, 3,   boost,  142.69,  99062.00,  190.10,    4.83,   29.14, 17.3, 4.07, 4.09, 4.08,-155.50,  -3.71, -36.22,  64.82,  -7.92,   1.96,  -0.36,   0.07,  -0.10,   3.74, 4.08, 0.00, 0.01, 0.00, 0.00, 1, 1, 15,  41.7770671, -86.5781800,   191.0, 2026,  3,  8, 15, 39,  8,        1,        1, 109,   0,   1.2,   0.6,   1.0, 38, 41,  0,  0,  0,  0, 34, 43,  0,  0,  0,  0, 31, 30, 39,  0, 41,  0, 40,  0,  0, 19,  0,  0,  0,  0,  0,  0,  0, 27,  0,  0
6, 16162, 3,N0CALL,     0.17, 3,   boost,  143.18,  99055.00,  190.70,    5.42,   30.58, 17.3, 4.07, 4.09, 4.08,-155.84,  -4.27,  -7.87,  72.69, -30.01,   0.86,  -0.36,   0.07,  -0.10,   3.91, 4.08, 0.00, 0.01, 0.00, 0.00, 1, 1, 15,  41.7770671, -86.5781800,   191.0, 2026,  3,  8, 15, 39,  8,        1,        1, 109,   0,   1.2,   0.6,   1.0, 38, 41,  0,  0,  0,  0, 34, 43,  0,  0,  0,  0, 31, 30, 39,  0, 41,  0, 40,  0,  0, 19,  0,  0,  0,  0,  0,  0,  0, 27,  0,  0
6, 16162, 3,N0CALL,     0.18, 3,   boost,  144.16,  99055.00,  190.70,    5.42,   32.01, 17.3, 4.07, 4.09, 4.08,-160.38,  -4.26,   5.64,  65.25, -16.46,   0.86,  -0.36,   0.07,  -0.10,   4.01, 4.08, 0.00, 0.01, 0.00, 0.00, 1, 1, 15,  41.7770671, -86.5781800,   191.0, 2026,  3,  8, 15, 39,  8,        1,        1, 109,   0,   1.2,   0.6,   1.0, 38, 41,  0,  0,  0,  0, 34, 43,  0,  0,  0,  0, 31, 30, 39,  0, 41,  0, 40,  0,  0, 19,  0,  0,  0,  0,  0,  0,  0, 27,  0,  0
6, 16162, 3,N0CALL,     0.19, 3,   boost,  140.24,  99034.00,  192.48,    7.21,   33.44, 17.3, 4.07, 4.09, 4.08,-159.17,  -1.33,  -3.54,  61.83,   4.78,  -0.36,  -0.36,   0.07,  -0.11,   3.98, 4.08, 0.00, 0.01, 0.00, 0.00, 1, 1, 15,  41.7770671, -86.5781800,   191.0, 2026,  3,  8, 15, 39,  8,        1,        1, 109,   0,   1.2,   0.6,   1.0, 38, 41,  0,  0,  0,  0, 34, 43,  0,  0,  0,  0, 31, 30, 39,  0, 41,  0, 40,  0,  0, 19,  0,  0,  0,  0,  0,  0,  0, 27,  0,  0
6, 16162, 3,N0CALL,     0.20, 3,   boost,  148.57,  99034.00,  192.48,    7.21,   34.89, 17.3, 4.07, 4.09, 4.08,-159.07,  -1.68, -13.95,  57.56,   6.00,  -0.24,  -0.36,   0.07,  -0.11,   3.94, 4.08, 0.00, 0.01, 0.00, 0.00, 1, 1, 15,  41.7770671, -86.5781800,   191.0, 2026,  3,  8, 15, 39,  8,        1,        1, 109,   0,   1.2,   0.6,   1.0, 38, 41,  0,  0,  0,  0, 34, 43,  0,  0,  0,  0, 31, 30, 39,  0, 41,  0, 40,  0,  0, 19,  0,  0,  0,  0,  0,  0,  0, 27,  0,  0
6, 16162, 3,N0CALL,     0.21, 3,   boost,  143.67,  99037.00,  192.22,    6.95,   36.34, 17.3, 4.07, 4.09, 4.08,-161.32,  -4.41,   2.32,  57.80,  -0.10,   0.37,  -0.36,   0.07,  -0.11,   3.94, 4.08, 0.00, 0.01, 0.00, 0.00, 1, 1, 15,  41.7770671, -86.5781800,   191.0, 2026,  3,  8, 15, 39,  8,        1,        1, 109,   0,   1.2,   0.6,   1.0, 38, 41,  0,  0,  0,  0, 34, 43,  0,  0,  0,  0, 31, 30, 39,  0, 41,  0, 40,  0,  0, 19,  0,  0,  0,  0,  0,  0,  0, 27,  0,  0
6, 16162, 3,N0CALL,     0.22, 3,   boost,  147.59,  99037.00,  192.22,    6.95,   37.80, 17.3, 4.07, 4.09, 4.08,-161.76,  -1.34,   3.89,  57.19,  -4.32,   0.62,  -0.36,   0.07,  -0.11,   3.98, 4.08, 0.00, 0.01, 0.00, 0.00, 1, 1, 15,  41.7770671, -86.5781800,   191.0, 2026,  3,  8, 15, 39,  8,        1,        1, 109,   0,   1.2,   0.6,   1.0, 38, 41,  0,  0,  0,  0, 34, 43,  0,  0,  0,  0, 31, 30, 39,  0, 41,  0, 40,  0,  0, 19,  0,  0,  0,  0,  0,  0,  0, 27,  0,  0
6, 16162, 3,N0CALL,     0.23, 3,   boost,  151.02,  99029.00,  192.90,    7.63,   39.27, 17.3, 4.07, 4.09, 4.08,-161.62,  -2.34,   1.33,  54.87,  -4.25,   0.13,  -0.36,   0.08,  -0.12,   4.00, 4.08, 0.00, 0.01, 0.00, 0.00, 1, 1, 15,  41.7770671, -86.5781800,   191.0, 2026,  3,  8, 15, 39,  8,        1,        1, 109,   0,   1.2,   0.6,   1.0, 38, 41,  0,  0,  0,  0, 34, 43,  0,  0,  0,  0, 31, 30, 39,  0, 41,  0, 40,  0,  0, 19,  0,  0,  0,  0,  0,  0,  0, 27,  0,  0
6, 16162, 3,N0CALL,     0.24, 3,   boost,  146.61,  99029.00,  192.90,    7.63,   40.75, 17.3, 4.07, 4.09, 4.08,-161.48,  -3.63,   1.69,  54.14,  -3.09,   0.56,  -0.36,   0.08,  -0.12,   4.03, 4.08, 0.00, 0.01, 0.00, 0.00, 1, 1, 15,  41.7770671, -86.5781800,   191.0, 2026,  3,  8, 15, 39,  8,        1,        1, 109,   0,   1.2,   0.6,   1.0, 38, 41,  0,  0,  0,  0, 34, 43,  0,  0,  0,  0, 31, 30, 39,  0, 41,  0, 40,  0,  0, 19,  0,  0,  0,  0,  0,  0,  0, 27,  0,  0
6, 16162, 3,N0CALL,     0.25, 3,   boost,  149.06,  99027.00,  193.07,    7.80,   42.23, 17.3, 4.07, 4.09, 4.08,-160.59,  -1.59,  -4.12,  53.10,  -2.18,   1.04,  -0.36,   0.08,  -0.12,   4.05, 4.08, 0.00, 0.01, 0.00, 0.00, 1, 1, 15,  41.7770671, -86.5781800,   191.0, 2026,  3,  8, 15, 39,  8,        1,        1, 109,   0,   1.2,   0.6,   1.0, 38, 41,  0,  0,  0,  0, 34, 43,  0,  0,  0,  0, 31, 30, 39,  0, 41,  0, 40,  0,  0, 19,  0,  0,  0,  0,  0,  0,  0, 27,  0,  0
6, 16162, 3,N0CALL,     0.26, 3,   boost,  149.55,  99027.00,  193.07,    7.80,   43.72, 17.3, 4.07, 4.09, 4.08,-159.81,  -3.44,  -7.93,  55.85,  -2.42,   0.92,  -0.36,   0.08,  -0.12,   4.07, 4.08, 0.00, 0.01, 0.00, 0.00, 1, 1, 15,  41.7770671, -86.5781800,   191.0, 2026,  3,  8, 15, 39,  8,        1,        1, 109,   0,   1.2,   0.6,   1.0, 38, 41,  0,  0,  0,  0, 34, 43,  0,  0,  0,  0, 31, 30, 39,  0, 41,  0, 40,  0,  0, 19,  0,  0,  0,  0,  0,  0,  0, 27,  0,  0
6, 16162, 3,N0CALL,     0.27, 3,   boost,  149.55,  99020.00,  193.67,    8.39,   45.20, 17.3, 4.07, 4.09, 4.08,-160.27,  -2.62,  -3.08,  58.11,  -1.63,   1.72,  -0.36,   0.08,  -0.12,   4.10, 4.08, 0.00, 0.01, 0.00, 0.00, 1, 1, 15,  41.7770671, -86.5781800,   191.0, 2026,  3,  8, 15, 39,  8,        1,        1, 109,   0,   1.2,   0.6,   1.0, 38, 41,  0,  0,  0,  0, 34, 43,  0,  0,  0,  0, 31, 30, 39,  0, 41,  0, 40,  0,  0, 19,  0,  0,  0,  0,  0,  0,  0, 27,  0,  0
6, 16162, 3,N0CALL,     0.28, 3,   boost,  149.55,  99020.00,  193.67,    8.39,   46.69, 17.3, 4.07, 4.09, 4.08,-160.39,  -1.11,  -3.48,  58.96,  -1.81,   1.11,  -0.36,   0.08,  -0.12,   4.12, 4.08, 0.00, 0.01, 0.00, 0.00, 1, 1, 15,  41.7770671, -86.5781800,   191.0, 2026,  3,  8, 15, 39,  8,        1,        1, 109,   0,   1.2,   0.6,   1.0, 38, 41,  0,  0,  0,  0, 34, 43,  0,  0,  0,  0, 31, 30, 39,  0, 41,  0, 40,  0,  0, 19,  0,  0,  0,  0,  0,  0,  0, 27,  0,  0
6, 16162, 3,N0CALL,     0.29, 3,   boost,  148.08,  99017.00,  193.92,    8.65,   48.17, 17.3, 4.07, 4.09, 4.08,-160.51,  -3.15,  -2.95,  59.14,  -1.57,   1.35,  -0.36,   0.09,  -0.13,   4.14, 4.08, 0.00, 0.01, 0.00, 0.00, 1, 1, 15,  41.7770671, -86.5781800,   191.0, 2026,  3,  8, 15, 39,  8,        1,        1, 109,   0,   1.2,   0.6,   1.0, 38, 41,  0,  0,  0,  0, 34, 43,  0,  0,  0,  0, 31, 30, 39,  0, 41,  0, 40,  0,  0, 19,  0,  0,  0,  0,  0,  0,  0, 27,  0,  0
6, 16162, 3,N0CALL,     0.30, 3,   boost,  148.57,  99017.00,  193.92,    8.65,   49.65, 17.3, 4.07, 4.09, 4.08,-160.37,  -2.18,   1.81,  57.62,  -2.06,   1.96,  -0.36,   0.09,  -0.13,   4.17, 4.08, 0.00, 0.01, 0.00, 0.00, 1, 1, 15,  41.7770671, -86.5781800,   191.0, 2026,  3,  8, 15, 39,  8,        1,        1, 109,   0,   1.2,   0.6,   1.0, 38, 41,  0,  0,  0,  0, 34, 43,  0,  0,  0,  0, 31, 30, 39,  0, 41,  0, 40,  0,  0, 19,  0,  0,  0,  0,  0,  0,  0, 27,  0,  0
6, 16162, 3,N0CALL,     0.31, 3,   boost,  146.61,  99023.00,  193.41,    8.14,   51.12, 17.3, 4.07, 4.09, 4.08,-160.63,  -1.26,  -4.35,  56.21,  -2.67,   1.84,  -0.36,   0.09,  -0.13,   4.20, 4.08, 0.00, 0.01, 0.00, 0.00, 1, 1, 15,  41.7770671, -86.5781800,   191.0, 2026,  3,  8, 15, 39,  8,        1,        1, 109,   0,   1.2,   0.6,   1.0, 38, 41,  0,  0,  0,  0, 34, 43,  0,  0,  0,  0, 31, 30, 39,  0, 41,  0, 40,  0,  0, 19,  0,  0,  0,  0,  0,  0,  0, 27,  0,  0
6, 16162, 3,N0CALL,     0.32, 3,   boost,  147.59,  99023.00,  193.41,    8.14,   52.60, 17.3, 4.07, 4.09, 4.08,-160.13,  -3.43,  -1.76,  55.85,  -2.48,   2.02,  -0.37,   0.09,  -0.14,   4.23, 4.08, 0.00, 0.01, 0.00, 0.00, 1, 1, 15,  41.7770671, -86.5781800,   191.0, 2026,  3,  8, 15, 39,  8,        1,        1, 109,   0,   1.2,   0.6,   1.0, 38, 41,  0,  0,  0,  0, 34, 43,  0,  0,  0,  0, 31, 30, 39,  0, 41,  0, 40,  0,  0, 19,  0,  0,  0,  0,  0,  0,  0, 27,  0,  0
6, 16162, 3,N0CALL,     0.33, 3,   boost,  146.61,  99019.00,  193.75,    8.48,   54.06, 17.3, 4.07, 4.09, 4.08,-159.92,  -0.56,  -2.75,  55.48,  -2.85,   1.41,  -0.37,   0.09,  -0.14,   4.26, 4.08, 0.00, 0.01, 0.00, 0.00, 1, 1, 15,  41.7770671, -86.5781800,   191.0, 2026,  3,  8, 15, 39,  8,        1,        1, 109,   0,   1.2,   0.6,   1.0, 38, 41,  0,  0,  0,  0, 34, 43,  0,  0,  0,  0, 31, 30, 39,  0, 41,  0, 40,  0,  0, 19,  0,  0,  0,  0,  0,  0,  0, 27,  0,  0
6, 16162, 3,N0CALL,     0.34, 3,   boost,  147.59,  99019.00,  193.75,    8.48,   55.53, 17.3, 4.10, 4.10, 4.08,-159.77,  -1.81,  -5.80,  55.48,  -2.67,   0.92,  -0.36,   0.09,  -0.14,   4.29, 4.08, 0.00, 0.00, 0.00, 0.00, 1, 1, 15,  41.7770671, -86.5781800,   191.0, 2026,  3,  8, 15, 39,  8,        1,        1, 109,   0,   1.2,   0.6,   1.0, 38, 41,  0,  0,  0,  0, 34, 43,  0,  0,  0,  0, 31, 30, 39,  0, 41,  0, 40,  0,  0, 19,  0,  0,  0,  0,  0,  0,  0, 27,  0,  0
6, 16162, 3,N0CALL,     0.34, 3,   boost,  147.59,  99019.00,  193.75,    8.48,   55.53, 17.3, 4.10, 4.10, 4.08,-159.77,  -1.81,  -5.80,  55.48,  -2.67,   0.92,  -0.36,   0.09,  -0.14,   4.29, 4.08, 0.00, 0.00, 0.00, 0.00, 1, 1, 15,  41.7770671, -86.5781800,   191.0, 2026,  3,  8, 15, 39,  8,        1,        1, 109,   0,   1.2,   0.6,   1.0, 38, 41,  0,  0,  0,  0, 34, 43,  0,  0,  0,  0, 31, 30, 39,  0, 41,  0, 40,  0,  0, 19,  0,  0,  0,  0,  0,  0,  0, 27,  0,  0
6, 16162, 3,N0CALL,     0.35, 3,   boost,  147.59,  99005.00,  194.94,    9.66,   57.00, 17.3, 4.10, 4.10, 4.08,-159.32,  -2.51,  -0.77,  52.31,  -3.09,   0.74,  -0.37,   0.09,  -0.14,   4.31, 4.08, 0.00, 0.00, 0.00, 0.00, 1, 1, 15,  41.7770671, -86.5781800,   191.0, 2026,  3,  8, 15, 39,  8,        1,        1, 109,   0,   1.2,   0.6,   1.0, 38, 41,  0,  0,  0,  0, 34, 43,  0,  0,  0,  0, 31, 30, 39,  0, 41,  0, 40,  0,  0, 19,  0,  0,  0,  0,  0,  0,  0, 27,  0,  0
6, 16162, 3,N0CALL,     0.36, 3,   boost,  146.61,  99005.00,  194.94,    9.66,   58.46, 17.3, 4.10, 4.10, 4.08,-159.21,  -0.23,  -3.74,  46.94,  -3.64,   0.74,  -0.37,   0.09,  -0.14,   4.35, 4.08, 0.00, 0.00, 0.00, 0.00, 1, 1, 15,  41.7770671, -86.5781800,   191.0, 2026,  3,  8, 15, 39,  8,        1,        1, 109,   0,   1.2,   0.6,   1.0, 38, 41,  0,  0,  0,  0, 34, 43,  0,  0,  0,  0, 31, 30, 39,  0, 41,  0, 40,  0,  0, 19,  0,  0,  0,  0,  0,  0,  0, 27,  0,  0
6, 16162, 3,N0CALL,     0.37, 3,   boost,  147.10,  99003.00,  195.11,    9.83,   59.93, 17.3, 4.10, 4.10, 4.08,-159.21,  -2.20,  -2.47,  39.98,  -3.77,  -0.85,  -0.36,   0.09,  -0.15,   4.37, 4.08, 0.00, 0.00, 0.00, 0.00, 1, 1, 15,  41.7770671, -86.5781800,   191.0, 2026,  3,  8, 15, 39,  8,        1,        1, 109,   0,   1.2,   0.6,   1.0, 38, 41,  0,  0,  0,  0, 34, 43,  0,  0,  0,  0, 31, 30, 39,  0, 41,  0, 40,  0,  0, 19,  0,  0,  0,  0,  0,  0,  0, 27,  0,  0
6, 16162, 3,N0CALL,     0.38, 3,   boost,  145.63,  99003.00,  195.11,    9.83,   61.39, 17.3, 4.10, 4.10, 4.08,-159.31,  -1.33,  -1.32,  32.53,  -4.80,  -0.60,  -0.36,   0.09,  -0.15,   4.40, 4.08, 0.00, 0.00, 0.00, 0.00, 1, 1, 15,  41.7770671, -86.5781800,   191.0, 2026,  3,  8, 15, 39,  8,        1,        1, 109,   0,   1.2,   0.6,   1.0, 38, 41,  0,  0,  0,  0, 34, 43,  0,  0,  0,  0, 31, 30, 39,  0, 41,  0, 40,  0,  0, 19,  0,  0,  0,  0,  0,  0,  0, 27,  0,  0
6, 16162, 3,N0CALL,     0.39, 3,   boost,  145.63,  98992.00,  196.04,   10.77,   62.85, 17.3, 4.10, 4.10, 4.08,-158.97,  -0.94,  -3.53,  26.12,  -4.32,  -1.89,  -0.36,   0.09,  -0.15,   4.42, 4.08, 0.00, 0.00, 0.00, 0.00, 1, 1, 15,  41.7770671, -86.5781800,   191.0, 2026,  3,  8, 15, 39,  8,        1,        1, 109,   0,   1.2,   0.6,   1.0, 38, 41,  0,  0,  0,  0, 34, 43,  0,  0,  0,  0, 31, 30, 39,  0, 41,  0, 40,  0,  0, 19,  0,  0,  0,  0,  0,  0,  0, 27,  0,  0
6, 16162, 3,N0CALL,     0.40, 3,   boost,  147.10,  98992.00,  196.04,   10.77,   64.31, 17.3, 4.10, 4.10, 4.08,-158.81,  -1.82,  -2.83,  18.56,  -4.38,  -2.25,  -0.36,   0.09,  -0.15,   4.44, 4.08, 0.00, 0.00, 0.00, 0.00, 1, 1, 15,  41.7770671, -86.5781800,   191.0, 2026,  3,  8, 15, 39,  8,        1,        1, 109,   0,   1.2,   0.6,   1.0, 38, 41,  0,  0,  0,  0, 34, 43,  0,  0,  0,  0, 31, 30, 39,  0, 41,  0, 40,  0,  0, 19,  0,  0,  0,  0,  0,  0,  0, 27,  0,  0
6, 16162, 3,N0CALL,     0.41, 3,   boost,  147.10,  98984.00,  196.72,   11.45,   65.77, 17.3, 4.10, 4.10, 4.08,-159.34,  -1.29,  -2.00,   9.65,  -4.62,  -2.31,  -0.37,   0.09,  -0.15,   4.47, 4.08, 0.00, 0.00, 0.00, 0.00, 1, 1, 15,  41.7770671, -86.5781800,   191.0, 2026,  3,  8, 15, 39,  8,        1,        1, 109,   0,   1.2,   0.6,   1.0, 38, 41,  0,  0,  0,  0, 34, 43,  0,  0,  0,  0, 31, 30, 39,  0, 41,  0, 40,  0,  0, 19,  0,  0,  0,  0,  0,  0,  0, 27,  0,  0
6, 16162, 3,N0CALL,     0.42, 3,   boost,  146.12,  98984.00,  196.72,   11.45,   67.23, 17.3, 4.10, 4.10, 4.08,-159.07,  -0.68,  -3.87,   1.95,  -5.17,  -3.78,  -0.37,   0.09,  -0.15,   4.48, 4.08, 0.00, 0.00, 0.00, 0.00, 1, 1, 15,  41.7770671, -86.5781800,   191.0, 2026,  3,  8, 15, 39,  8,        1,        1, 109,   0,   1.2,   0.6,   1.0, 38, 41,  0,  0,  0,  0, 34, 43,  0,  0,  0,  0, 31, 30, 39,  0, 41,  0, 40,  0,  0, 19,  0,  0,  0,  0,  0,  0,  0, 27,  0,  0
6, 16162, 3,N0CALL,     0.43, 3,   boost,  147.59,  98971.00,  197.82,   12.55,   68.70, 17.3, 4.10, 4.10, 4.08,-159.43,  -2.35,  -2.03,  -5.61,  -5.78,  -3.29,  -0.37,   0.09,  -0.15,   4.51, 4.08, 0.00, 0.00, 0.00, 0.00, 1, 1, 15,  41.7770671, -86.5781800,   191.0, 2026,  3,  8, 15, 39,  8,        1,        1, 109,   0,   1.2,   0.6,   1.0, 38, 41,  0,  0,  0,  0, 34, 43,  0,  0,  0,  0, 31, 30, 39,  0, 41,  0, 40,  0,  0, 19,  0,  0,  0,  0,  0,  0,  0, 27,  0,  0
6, 16162, 3,N0CALL,     0.44, 3,   boost,  146.61,  98971.00,  197.82,   12.55,   70.17, 17.3, 4.10, 4.10, 4.08,-159.81,  -1.01,  -1.64, -11.60,  -5.35,  -4.63,  -0.37,   0.09,  -0.15,   4.53, 4.08, 0.00, 0.00, 0.00, 0.00, 1, 1, 15,  41.7770671, -86.5781800,   191.0, 2026,  3,  8, 15, 39,  8,        1,        1, 109,   0,   1.2,   0.6,   1.0, 38, 41,  0,  0,  0,  0, 34, 43,  0,  0,  0,  0, 31, 30, 39,  0, 41,  0, 40,  0,  0, 19,  0,  0,  0,  0,  0,  0,  0, 27,  0,  0
6, 16162, 3,N0CALL,     0.45, 3,   boost,  148.57,  98965.00,  198.33,   13.06,   71.64, 17.3, 4.10, 4.10, 4.08,-159.49,  -0.83,  -4.52, -17.58,  -6.27,  -5.18,  -0.37,   0.09,  -0.15,   4.55, 4.08, 0.00, 0.00, 0.00, 0.00, 1, 1, 15,  41.7770671, -86.5781800,   191.0, 2026,  3,  8, 15, 39,  8,        1,        1, 109,   0,   1.2,   0.6,   1.0, 38, 41,  0,  0,  0,  0, 34, 43,  0,  0,  0,  0, 31, 30, 39,  0, 41,  0, 40,  0,  0, 19,  0,  0,  0,  0,  0,  0,  0, 27,  0,  0
6, 16162, 3,N0CALL,     0.46, 3,   boost,  148.08,  98965.00,  198.33,   13.06,   73.10, 17.3, 4.10, 4.10, 4.08,-159.80,  -2.56,  -0.93, -22.15,  -6.45,  -5.43,  -0.36,   0.09,  -0.15,   4.58, 4.08, 0.00, 0.00, 0.00, 0.00, 1, 1, 15,  41.7770671, -86.5781800,   191.0, 2026,  3,  8, 15, 39,  8,        1,        1, 109,   0,   1.2,   0.6,   1.0, 38, 41,  0,  0,  0,  0, 34, 43,  0,  0,  0,  0, 31, 30, 39,  0, 41,  0, 40,  0,  0, 19,  0,  0,  0,  0,  0,  0,  0, 27,  0,  0
6, 16162, 3,N0CALL,     0.47, 3,   boost,  147.10,  98957.00,  199.01,   13.74,   74.57, 17.3, 4.10, 4.10, 4.08,-159.71,  -0.33,  -3.61, -26.73,  -6.76,  -6.10,  -0.36,   0.09,  -0.15,   4.60, 4.08, 0.00, 0.00, 0.00, 0.00, 1, 1, 15,  41.7770671, -86.5781800,   191.0, 2026,  3,  8, 15, 39,  8,        1,        1, 109,   0,   1.2,   0.6,   1.0, 38, 41,  0,  0,  0,  0, 34, 43,  0,  0,  0,  0, 31, 30, 39,  0, 41,  0, 40,  0,  0, 19,  0,  0,  0,  0,  0,  0,  0, 27,  0,  0
6, 16162, 3,N0CALL,     0.48, 3,   boost,  146.61,  98957.00,  199.01,   13.74,   76.04, 17.3, 4.10, 4.10, 4.08,-159.90,  -2.24,  -2.77, -31.49,  -7.06,  -6.46,  -0.36,   0.09,  -0.15,   4.62, 4.08, 0.00, 0.00, 0.00, 0.00, 1, 1, 15,  41.7770671, -86.5781800,   191.0, 2026,  3,  8, 15, 39,  8,        1,        1, 109,   0,   1.2,   0.6,   1.0, 38, 41,  0,  0,  0,  0, 34, 43,  0,  0,  0,  0, 31, 30, 39,  0, 41,  0, 40,  0,  0, 19,  0,  0,  0,  0,  0,  0,  0, 27,  0,  0
6, 16162, 3,N0CALL,     0.49, 3,   boost,  146.12,  98943.00,  200.20,   14.92,   77.51, 17.3, 4.10, 4.10, 4.08,-160.13,  -1.70,  -0.87, -35.15,  -7.79,  -7.07,  -0.36,   0.09,  -0.15,   4.66, 4.08, 0.00, 0.00, 0.00, 0.00, 1, 1, 15,  41.7770671, -86.5781800,   191.0, 2026,  3,  8, 15, 39,  8,        1,        1, 109,   0,   1.2,   0.6,   1.0, 38, 41,  0,  0,  0,  0, 34, 43,  0,  0,  0,  0, 31, 30, 39,  0, 41,  0, 40,  0,  0, 19,  0,  0,  0,  0,  0,  0,  0, 27,  0,  0
6, 16162, 3,N0CALL,     0.50, 3,   boost,  147.59,  98943.00,  200.20,   14.92,   78.97, 17.3, 4.10, 4.10, 4.08,-159.67,  -1.32,  -3.61, -37.66,  -8.10,  -7.20,  -0.36,   0.09,  -0.15,   4.69, 4.08, 0.00, 0.00, 0.00, 0.00, 1, 1, 15,  41.7770671, -86.5781800,   191.0, 2026,  3,  8, 15, 39,  8,        1,        1, 109,   0,   1.2,   0.6,   1.0, 38, 41,  0,  0,  0,  0, 34, 43,  0,  0,  0,  0, 31, 30, 39,  0, 41,  0, 40,  0,  0, 19,  0,  0,  0,  0,  0,  0,  0, 27,  0,  0
6, 16162, 3,N0CALL,     0.51, 3,   boost,  147.59,  98922.00,  201.98,   16.71,   80.44, 17.3, 4.10, 4.10, 4.08,-159.91,  -2.48,  -1.28, -38.94,  -8.34,  -7.68,  -0.36,   0.08,  -0.15,   4.72, 4.08, 0.00, 0.00, 0.00, 0.00, 1, 1, 15,  41.7770671, -86.5781800,   191.0, 2026,  3,  8, 15, 39,  8,        1,        1, 109,   0,   1.2,   0.6,   1.0, 38, 41,  0,  0,  0,  0, 34, 43,  0,  0,  0,  0, 31, 30, 39,  0, 41,  0, 40,  0,  0, 19,  0,  0,  0,  0,  0,  0,  0, 27,  0,  0
6, 16162, 3,N0CALL,     0.52, 3,   boost,  147.10,  98922.00,  201.98,   16.71,   81.90, 17.3, 4.10, 4.10, 4.08,-159.48,  -1.75,  -2.31, -39.24,  -8.65,  -7.01,  -0.37,   0.08,  -0.15,   4.77, 4.08, 0.00, 0.00, 0.00, 0.00, 1, 1, 15,  41.7770671, -86.5781800,   191.0, 2026,  3,  8, 15, 39,  8,        1,        1, 109,   0,   1.2,   0.6,   1.0, 38, 41,  0,  0,  0,  0, 34, 43,  0,  0,  0,  0, 31, 30, 39,  0, 41,  0, 40,  0,  0, 19,  0,  0,  0,  0,  0,  0,  0, 27,  0,  0
6, 16162, 3,N0CALL,     0.53, 3,   boost,  147.10,  98928.00,  201.47,   16.20,   83.37, 17.3, 4.10, 4.10, 4.08,-159.59,  -2.54,  -3.06, -38.57,  -9.20,  -7.87,  -0.37,   0.08,  -0.14,   4.81, 4.08, 0.00, 0.00, 0.00, 0.00, 1, 1, 15,  41.7770671, -86.5781800,   191.0, 2026,  3,  8, 15, 39,  8,        1,        1, 109,   0,   1.2,   0.6,   1.0, 38, 41,  0,  0,  0,  0, 34, 43,  0,  0,  0,  0, 31, 30, 39,  0, 41,  0, 40,  0,  0, 19,  0,  0,  0,  0,  0,  0,  0, 27,  0,  0
6, 16162, 3,N0CALL,     0.54, 3,   boost,  147.10,  98928.00,  201.47,   16.20,   84.83, 17.3, 4.10, 4.10, 4.08,-159.14,  -2.05,  -1.40, -37.11,  -9.87,  -7.68,  -0.37,   0.08,  -0.14,   4.87, 4.08, 0.00, 0.00, 0.00, 0.00, 1, 1, 15,  41.7770671, -86.5781800,   191.0, 2026,  3,  8, 15, 39,  8,        1,        1, 109,   0,   1.2,   0.6,   1.0, 38, 41,  0,  0,  0,  0, 34, 43,  0,  0,  0,  0, 31, 30, 39,  0, 41,  0, 40,  0,  0, 19,  0,  0,  0,  0,  0,  0,  0, 27,  0,  0
6, 16162, 3,N0CALL,     0.55, 3,   boost,  146.61,  98904.00,  203.51,   18.23,   86.29, 17.3, 4.10, 4.10, 4.08,-159.11,  -2.54,  -2.11, -36.01,  -9.99,  -7.50,  -0.37,   0.08,  -0.14,   4.92, 4.08, 0.00, 0.00, 0.00, 0.00, 1, 1, 15,  41.7770671, -86.5781800,   191.0, 2026,  3,  8, 15, 39,  8,        1,        1, 109,   0,   1.2,   0.6,   1.0, 38, 41,  0,  0,  0,  0, 34, 43,  0,  0,  0,  0, 31, 30, 39,  0, 41,  0, 40,  0,  0, 19,  0,  0,  0,  0,  0,  0,  0, 27,  0,  0
