#version,serial,flight,call,time,state,state_name,acceleration,pressure,altitude,height,speed,temperature,drogue_voltage,main_voltage,battery_voltage,accel_x,accel_y,accel_z,gyro_roll,gyro_pitch,gyro_yaw,mag_x,mag_y,mag_z,tilt,pyro,igniter_a,igniter_b,igniter_c,igniter_d,connected,locked,nsat,latitude,longitude,altitude,year,month,day,hour,minute,second,pad_dist,pad_range,pad_az,pad_el,pdop,hdop,vdop,sat01,sat02,sat03,sat04,sat05,sat06,sat07,sat08,sat09,sat10,sat11,sat12,sat13,sat14,sat15,sat16,sat17,sat18,sat19,sat20,sat21,sat22,sat23,sat24,sat25,sat26,sat27,sat28,sat29,sat30,sat31,sat32
6, 11115, 3,N0CALL,    -0.30, 3,   boost,   -0.98,  99225.00,  176.29,   -0.59,    0.00, 20.9, 3.84, 3.84, 3.84,  -9.83,  -0.34,   0.09,  -0.06,  -0.09,   0.18,  -0.65,   0.41,   0.28,   2.29, 3.85, 0.00, 0.00, 0.00, 0.00, 1, 1, 11,  42.6264522, -88.1615675,   243.0, 2025,  4,  5, 16, 53, 47,        0,        0,   0,   0,   1.4,   0.8,   1.1, 30, 26, 35,  0,  0, 35,  0,  0,  0,  0,  0,  0, 31,  0,  0,  0, 32,  0, 26,  0,  0, 28,  0, 31,  0,  0,  0,  0,  0, 27,  0,  0
6, 11115, 3,N0CALL,    -0.29, 3,   boost,   -0.49,  99225.00,  176.29,   -0.59,    0.00, 20.9, 3.84, 3.84, 3.84,  -9.94,  -0.34,   0.16,  -0.06,  -0.40,   0.12,  -0.65,   0.41,   0.28,   2.29, 3.85, 0.00, 0.00, 0.00, 0.00, 1, 1, 11,  42.6264522, -88.1615675,   243.0, 2025,  4,  5, 16, 53, 47,        0,        0,   0,   0,   1.4,   0.8,   1.1, 30, 26, 35,  0,  0, 35,  0,  0,  0,  0,  0,  0, 31,  0,  0,  0, 32,  0, 26,  0,  0, 28,  0, 31,  0,  0,  0,  0,  0, 27,  0,  0
6, 11115, 3,N0CALL,    -0.28, 3,   boost,   -0.00,  99227.00,  176.12,   -0.76,    0.00, 20.9, 3.84, 3.84, 3.84,  -9.79,  -0.38,   0.06,  -0.00,  -0.22,  -0.00,  -0.65,   0.41,   0.28,   2.29, 3.85, 0.00, 0.00, 0.00, 0.00, 1, 1, 11,  42.6264522, -88.1615675,   243.0, 2025,  4,  5, 16, 53, 47,        0,        0,   0,   0,   1.4,   0.8,   1.1, 30, 26, 35,  0,  0, 35,  0,  0,  0,  0,  0,  0, 31,  0,  0,  0, 32,  0, 26,  0,  0, 28,  0, 31,  0,  0,  0,  0,  0, 27,  0,  0
6, 11115, 3,N0CALL,    -0.27, 3,   boost,   -0.00,  99227.00,  176.12,   -0.76,    0.00, 20.9, 3.84, 3.84, 3.84,  -9.89,  -0.27,   0.03,  -0.12,  -0.03,  -0.19,  -0.65,   0.41,   0.28,   2.29, 3.85, 0.00, 0.00, 0.00, 0.00, 1, 1, 11,  42.6264522, -88.1615675,   243.0, 2025,  4,  5, 16, 53, 47,        0,        0,   0,   0,   1.4,   0.8,   1.1, 30, 26, 35,  0,  0, 35,  0,  0,  0,  0,  0,  0, 31,  0,  0,  0, 32,  0, 26,  0,  0, 28,  0, 31,  0,  0,  0,  0,  0, 27,  0,  0
6, 11115, 3,N0CALL,    -0.26, 3,   boost,   -0.49,  99226.00,  176.21,   -0.68,    0.00, 20.9, 3.84, 3.84, 3.84,  -9.76,  -0.29,   0.02,   0.30,  -0.09,  -0.00,  -0.65,   0.41,   0.28,   2.29, 3.85, 0.00, 0.00, 0.00, 0.00, 1, 1, 11,  42.6264522, -88.1615675,   243.0, 2025,  4,  5, 16, 53, 47,        0,        0,   0,   0,   1.4,   0.8,   1.1, 30, 26, 35,  0,  0, 35,  0,  0,  0,  0,  0,  0, 31,  0,  0,  0, 32,  0, 26,  0,  0, 28,  0, 31,  0,  0,  0,  0,  0, 27,  0,  0
6, 11115, 3,N0CALL,    -0.25, 3,   boost,   -0.49,  99226.00,  176.21,   -0.68,    0.00, 20.9, 3.84, 3.84, 3.84,  -9.94,  -0.72,  -0.01,   0.18,   0.03,   0.24,  -0.65,   0.41,   0.28,   2.29, 3.85, 0.00, 0.00, 0.00, 0.00, 1, 1, 11,  42.6264522, -88.1615675,   243.0, 2025,  4,  5, 16, 53, 47,        0,        0,   0,   0,   1.4,   0.8,   1.1, 30, 26, 35,  0,  0, 35,  0,  0,  0,  0,  0,  0, 31,  0,  0,  0, 32,  0, 26,  0,  0, 28,  0, 31,  0,  0,  0,  0,  0, 27,  0,  0
6, 11115, 3,N0CALL,    -0.24, 3,   boost,   -0.00,  99227.00,  176.12,   -0.76,    0.00, 20.9, 3.84, 3.84, 3.84,  -9.77,  -0.40,   0.01,  -0.37,  -0.09,  -0.19,  -0.65,   0.41,   0.28,   2.29, 3.85, 0.00, 0.00, 0.00, 0.00, 1, 1, 11,  42.6264522, -88.1615675,   243.0, 2025,  4,  5, 16, 53, 47,        0,        0,   0,   0,   1.4,   0.8,   1.1, 30, 26, 35,  0,  0, 35,  0,  0,  0,  0,  0,  0, 31,  0,  0,  0, 32,  0, 26,  0,  0, 28,  0, 31,  0,  0,  0,  0,  0, 27,  0,  0
6, 11115, 3,N0CALL,    -0.23, 3,   boost,   -0.98,  99227.00,  176.12,   -0.76,    0.00, 20.9, 3.84, 3.84, 3.84,  -9.84,  -0.33,  -0.06,  -0.25,   0.03,  -0.07,  -0.65,   0.41,   0.28,   2.29, 3.85, 0.00, 0.00, 0.00, 0.00, 1, 1, 11,  42.6264522, -88.1615675,   243.0, 2025,  4,  5, 16, 53, 47,        0,        0,   0,   0,   1.4,   0.8,   1.1, 30, 26, 35,  0,  0, 35,  0,  0,  0,  0,  0,  0, 31,  0,  0,  0, 32,  0, 26,  0,  0, 28,  0, 31,  0,  0,  0,  0,  0, 27,  0,  0
6, 11115, 3,N0CALL,    -0.22, 3,   boost,   -0.98,  99212.00,  177.39,    0.51,    0.00, 20.9, 3.84, 3.84, 3.84,  -9.84,  -0.55,  -0.01,   0.12,  -0.09,   0.06,  -0.65,   0.41,   0.29,   2.29, 3.85, 0.00, 0.00, 0.00, 0.00, 1, 1, 11,  42.6264522, -88.1615675,   243.0, 2025,  4,  5, 16, 53, 47,        0,        0,   0,   0,   1.4,   0.8,   1.1, 30, 26, 35,  0,  0, 35,  0,  0,  0,  0,  0,  0, 31,  0,  0,  0, 32,  0, 26,  0,  0, 28,  0, 31,  0,  0,  0,  0,  0, 27,  0,  0
6, 11115, 3,N0CALL,    -0.21, 3,   boost,   -0.98,  99212.00,  177.39,    0.51,    0.00, 20.9, 3.84, 3.84, 3.84,  -9.82,  -0.23,   0.17,   0.12,   0.15,  -0.13,  -0.65,   0.41,   0.28,   2.29, 3.85, 0.00, 0.00, 0.00, 0.00, 1, 1, 11,  42.6264522, -88.1615675,   243.0, 2025,  4,  5, 16, 53, 47,        0,        0,   0,   0,   1.4,   0.8,   1.1, 30, 26, 35,  0,  0, 35,  0,  0,  0,  0,  0,  0, 31,  0,  0,  0, 32,  0, 26,  0,  0, 28,  0, 31,  0,  0,  0,  0,  0, 27,  0,  0
6, 11115, 3,N0CALL,    -0.20, 3,   boost,    0.49,  99223.00,  176.46,   -0.42,    0.00, 20.9, 3.84, 3.84, 3.84,  -9.86,  -0.36,   0.19,  -0.55,   0.09,  -0.19,  -0.65,   0.41,   0.28,   2.29, 3.85, 0.00, 0.00, 0.00, 0.00, 1, 1, 11,  42.6264522, -88.1615675,   243.0, 2025,  4,  5, 16, 53, 47,        0,        0,   0,   0,   1.4,   0.8,   1.1, 30, 26, 35,  0,  0, 35,  0,  0,  0,  0,  0,  0, 31,  0,  0,  0, 32,  0, 26,  0,  0, 28,  0, 31,  0,  0,  0,  0,  0, 27,  0,  0
6, 11115, 3,N0CALL,    -0.19, 3,   boost,   -1.47,  99223.00,  176.46,   -0.42,    0.00, 20.9, 3.84, 3.84, 3.84,  -9.88,  -0.50,  -0.13,   0.12,   0.21,  -0.00,  -0.65,   0.41,   0.28,   2.29, 3.85, 0.00, 0.00, 0.00, 0.00, 1, 1, 11,  42.6264522, -88.1615675,   243.0, 2025,  4,  5, 16, 53, 47,        0,        0,   0,   0,   1.4,   0.8,   1.1, 30, 26, 35,  0,  0, 35,  0,  0,  0,  0,  0,  0, 31,  0,  0,  0, 32,  0, 26,  0,  0, 28,  0, 31,  0,  0,  0,  0,  0, 27,  0,  0
6, 11115, 3,N0CALL,    -0.18, 3,   boost,   -0.98,  99219.00,  176.80,   -0.08,    0.00, 20.9, 3.84, 3.84, 3.84,  -9.86,  -0.40,   0.17,   0.42,  -0.03,  -0.00,  -0.65,   0.41,   0.28,   2.29, 3.85, 0.00, 0.00, 0.00, 0.00, 1, 1, 11,  42.6264522, -88.1615675,   243.0, 2025,  4,  5, 16, 53, 47,        0,        0,   0,   0,   1.4,   0.8,   1.1, 30, 26, 35,  0,  0, 35,  0,  0,  0,  0,  0,  0, 31,  0,  0,  0, 32,  0, 26,  0,  0, 28,  0, 31,  0,  0,  0,  0,  0, 27,  0,  0
6, 11115, 3,N0CALL,    -0.17, 3,   boost,   -0.98,  99219.00,  176.80,   -0.08,    0.00, 20.9, 3.84, 3.84, 3.84,  -9.96,  -0.48,   0.26,  -0.25,   0.21,   0.12,  -0.65,   0.41,   0.28,   2.29, 3.85, 0.00, 0.00, 0.00, 0.00, 1, 1, 11,  42.6264522, -88.1615675,   243.0, 2025,  4,  5, 16, 53, 47,        0,        0,   0,   0,   1.4,   0.8,   1.1, 30, 26, 35,  0,  0, 35,  0,  0,  0,  0,  0,  0, 31,  0,  0,  0, 32,  0, 26,  0,  0, 28,  0, 31,  0,  0,  0,  0,  0, 27,  0,  0
6, 11115, 3,N0CALL,    -0.16, 3,   boost,   -1.96,  99212.00,  177.39,    0.51,    0.00, 20.9, 3.84, 3.84, 3.84,  -9.76,  -0.28,   0.02,  -0.43,   0.21,  -0.00,  -0.65,   0.41,   0.28,   2.29, 3.85, 0.00, 0.00, 0.00, 0.00, 1, 1, 11,  42.6264522, -88.1615675,   243.0, 2025,  4,  5, 16, 53, 47,        0,        0,   0,   0,   1.4,   0.8,   1.1, 30, 26, 35,  0,  0, 35,  0,  0,  0,  0,  0,  0, 31,  0,  0,  0, 32,  0, 26,  0,  0, 28,  0, 31,  0,  0,  0,  0,  0, 27,  0,  0
6, 11115, 3,N0CALL,    -0.15, 3,   boost,   -0.00,  99212.00,  177.39,    0.51,    0.00, 20.9, 3.84, 3.84, 3.84,  -9.76,  -0.37,  -0.01,   0.06,   0.09,  -0.00,  -0.65,   0.41,   0.29,   2.29, 3.85, 0.00, 0.00, 0.00, 0.00, 1, 1, 11,  42.6264522, -88.1615675,   243.0, 2025,  4,  5, 16, 53, 47,        0,        0,   0,   0,   1.4,   0.8,   1.1, 30, 26, 35,  0,  0, 35,  0,  0,  0,  0,  0,  0, 31,  0,  0,  0, 32,  0, 26,  0,  0, 28,  0, 31,  0,  0,  0,  0,  0, 27,  0,  0
6, 11115, 3,N0CALL,    -0.14, 3,   boost,    0.98,  99210.00,  177.56,    0.68,    0.00, 20.9, 3.84, 3.84, 3.84,  -9.91,  -0.70,   0.19,   0.18,   0.03,  -0.07,  -0.65,   0.41,   0.28,   2.29, 3.85, 0.00, 0.00, 0.00, 0.00, 1, 1, 11,  42.6264522, -88.1615675,   243.0, 2025,  4,  5, 16, 53, 47,        0,        0,   0,   0,   1.4,   0.8,   1.1, 30, 26, 35,  0,  0, 35,  0,  0,  0,  0,  0,  0, 31,  0,  0,  0, 32,  0, 26,  0,  0, 28,  0, 31,  0,  0,  0,  0,  0, 27,  0,  0
6, 11115, 3,N0CALL,    -0.13, 3,   boost,    0.49,  99210.00,  177.56,    0.68,    0.00, 20.9, 3.84, 3.84, 3.84,  -9.76,  -0.39,   0.11,  -0.49,  -0.09,   0.12,  -0.65,   0.41,   0.29,   2.29, 3.85, 0.00, 0.00, 0.00, 0.00, 1, 1, 11,  42.6264522, -88.1615675,   243.0, 2025,  4,  5, 16, 53, 47,        0,        0,   0,   0,   1.4,   0.8,   1.1, 30, 26, 35,  0,  0, 35,  0,  0,  0,  0,  0,  0, 31,  0,  0,  0, 32,  0, 26,  0,  0, 28,  0, 31,  0,  0,  0,  0,  0, 27,  0,  0
6, 11115, 3,N0CALL,    -0.12, 3,   boost,   -0.49,  99215.00,  177.14,    0.25,    0.03, 20.9, 3.84, 3.84, 3.84,  -9.88,  -0.54,   0.13,  -0.37,   0.15,   0.06,  -0.65,   0.41,   0.29,   2.29, 3.85, 0.00, 0.00, 0.00, 0.00, 1, 1, 11,  42.6264522, -88.1615675,   243.0, 2025,  4,  5, 16, 53, 47,        0,        0,   0,   0,   1.4,   0.8,   1.1, 30, 26, 35,  0,  0, 35,  0,  0,  0,  0,  0,  0, 31,  0,  0,  0, 32,  0, 26,  0,  0, 28,  0, 31,  0,  0,  0,  0,  0, 27,  0,  0
6, 11115, 3,N0CALL,    -0.11, 3,   boost,   -0.49,  99215.00,  177.14,    0.25,    0.12, 20.9, 3.84, 3.84, 3.84,  -9.79,  -0.40,  -0.12,   0.24,   0.09,  -0.07,  -0.65,   0.41,   0.29,   2.29, 3.85, 0.00, 0.00, 0.00, 0.00, 1, 1, 11,  42.6264522, -88.1615675,   243.0, 2025,  4,  5, 16, 53, 47,        0,        0,   0,   0,   1.4,   0.8,   1.1, 30, 26, 35,  0,  0, 35,  0,  0,  0,  0,  0,  0, 31,  0,  0,  0, 32,  0, 26,  0,  0, 28,  0, 31,  0,  0,  0,  0,  0, 27,  0,  0
6, 11115, 3,N0CALL,    -0.10, 3,   boost,    0.98,  99221.00,  176.63,   -0.25,    0.31, 20.9, 3.84, 3.84, 3.84,  -9.86,  -0.32,   0.01,   0.55,  -0.09,   0.12,  -0.65,   0.41,   0.29,   2.29, 3.85, 0.00, 0.00, 0.00, 0.00, 1, 1, 11,  42.6264522, -88.1615675,   243.0, 2025,  4,  5, 16, 53, 47,        0,        0,   0,   0,   1.4,   0.8,   1.1, 30, 26, 35,  0,  0, 35,  0,  0,  0,  0,  0,  0, 31,  0,  0,  0, 32,  0, 26,  0,  0, 28,  0, 31,  0,  0,  0,  0,  0, 27,  0,  0
6, 11115, 3,N0CALL,    -0.09, 3,   boost,   61.78,  99221.00,  176.63,   -0.25,    0.64, 20.9, 3.84, 3.84, 3.84,  -9.89,  -0.45,  -0.16,  -0.25,   0.21,   0.12,  -0.65,   0.41,   0.28,   2.29, 3.85, 0.00, 0.00, 0.00, 0.00, 1, 1, 11,  42.6264522, -88.1615675,   243.0, 2025,  4,  5, 16, 53, 47,        0,        0,   0,   0,   1.4,   0.8,   1.1, 30, 26, 35,  0,  0, 35,  0,  0,  0,  0,  0,  0, 31,  0,  0,  0, 32,  0, 26,  0,  0, 28,  0, 31,  0,  0,  0,  0,  0, 27,  0,  0
6, 11115, 3,N0CALL,    -0.08, 3,   boost,   78.45,  99225.00,  176.29,   -0.59,    1.11, 20.9, 3.84, 3.84, 3.84, -28.71,   0.55,  -0.75,  -0.55,  -0.34,   0.55,  -0.65,   0.41,   0.28,   2.29, 3.85, 0.00, 0.00, 0.00, 0.00, 1, 1, 11,  42.6264522, -88.1615675,   243.0, 2025,  4,  5, 16, 53, 47,        0,        0,   0,   0,   1.4,   0.8,   1.1, 30, 26, 35,  0,  0, 35,  0,  0,  0,  0,  0,  0, 31,  0,  0,  0, 32,  0, 26,  0,  0, 28,  0, 31,  0,  0,  0,  0,  0, 27,  0,  0
6, 11115, 3,N0CALL,    -0.07, 3,   boost,   69.63,  99225.00,  176.29,   -0.59,    1.69, 20.9, 3.84, 3.84, 3.84, -88.20,  -2.64,   0.17,  -0.31,   0.88,   1.40,  -0.65,   0.41,   0.28,   2.29, 3.85, 0.00, 0.00, 0.00, 0.00, 1, 1, 11,  42.6264522, -88.1615675,   243.0, 2025,  4,  5, 16, 53, 47,        0,        0,   0,   0,   1.4,   0.8,   1.1, 30, 26, 35,  0,  0, 35,  0,  0,  0,  0,  0,  0, 31,  0,  0,  0, 32,  0, 26,  0,  0, 28,  0, 31,  0,  0,  0,  0,  0, 27,  0,  0
6, 11115, 3,N0CALL,    -0.06, 3,   boost,   69.63,  99203.00,  178.16,    1.27,    2.34, 20.9, 3.84, 3.84, 3.84, -83.59,  -9.94,   0.20, -57.19,   2.65,   4.76,  -0.65,   0.41,   0.28,   2.29, 3.85, 0.00, 0.00, 0.00, 0.00, 1, 1, 11,  42.6264522, -88.1615675,   243.0, 2025,  4,  5, 16, 53, 47,        0,        0,   0,   0,   1.4,   0.8,   1.1, 30, 26, 35,  0,  0, 35,  0,  0,  0,  0,  0,  0, 31,  0,  0,  0, 32,  0, 26,  0,  0, 28,  0, 31,  0,  0,  0,  0,  0, 27,  0,  0
6, 11115, 3,N0CALL,    -0.05, 3,   boost,   66.69,  99203.00,  178.16,    1.27,    3.02, 20.9, 3.84, 3.84, 3.84, -80.87,   2.67,   0.65, -39.92,   5.64,   2.62,  -0.65,   0.41,   0.29,   2.29, 3.85, 0.00, 0.00, 0.00, 0.00, 1, 1, 11,  42.6264522, -88.1615675,   243.0, 2025,  4,  5, 16, 53, 47,        0,        0,   0,   0,   1.4,   0.8,   1.1, 30, 26, 35,  0,  0, 35,  0,  0,  0,  0,  0,  0, 31,  0,  0,  0, 32,  0, 26,  0,  0, 28,  0, 31,  0,  0,  0,  0,  0, 27,  0,  0
6, 11115, 3,N0CALL,    -0.04, 3,   boost,   66.69,  99206.00,  177.90,    1.02,    3.69, 20.9, 3.84, 3.84, 3.84, -77.43,  -4.30,  -3.10,  51.21,   1.98,   2.38,  -0.65,   0.41,   0.28,   2.29, 3.85, 0.00, 0.00, 0.00, 0.00, 1, 1, 11,  42.6264522, -88.1615675,   243.0, 2025,  4,  5, 16, 53, 47,        0,        0,   0,   0,   1.4,   0.8,   1.1, 30, 26, 35,  0,  0, 35,  0,  0,  0,  0,  0,  0, 31,  0,  0,  0, 32,  0, 26,  0,  0, 28,  0, 31,  0,  0,  0,  0,  0, 27,  0,  0
6, 11115, 3,N0CALL,    -0.03, 3,   boost,   64.72,  99206.00,  177.90,    1.02,    4.36, 20.9, 3.84, 3.84, 3.84, -79.15,  -5.92,  -6.59,  66.40,   1.68,  -3.24,  -0.65,   0.41,   0.28,   2.29, 3.85, 0.00, 0.00, 0.00, 0.00, 1, 1, 11,  42.6264522, -88.1615675,   243.0, 2025,  4,  5, 16, 53, 47,        0,        0,   0,   0,   1.4,   0.8,   1.1, 30, 26, 35,  0,  0, 35,  0,  0,  0,  0,  0,  0, 31,  0,  0,  0, 32,  0, 26,  0,  0, 28,  0, 31,  0,  0,  0,  0,  0, 27,  0,  0
6, 11115, 3,N0CALL,    -0.02, 3,   boost,   65.70,  99189.00,  179.34,    2.46,    5.02, 20.9, 3.84, 3.84, 3.84, -75.67,   1.88,  -1.67,  44.80,   2.29,  -0.80,  -0.65,   0.41,   0.28,   2.29, 3.85, 0.00, 0.00, 0.00, 0.00, 1, 1, 11,  42.6264522, -88.1615675,   243.0, 2025,  4,  5, 16, 53, 47,        0,        0,   0,   0,   1.4,   0.8,   1.1, 30, 26, 35,  0,  0, 35,  0,  0,  0,  0,  0,  0, 31,  0,  0,  0, 32,  0, 26,  0,  0, 28,  0, 31,  0,  0,  0,  0,  0, 27,  0,  0
6, 11115, 3,N0CALL,    -0.01, 3,   boost,   67.18,  99189.00,  179.34,    2.46,    5.67, 20.9, 3.84, 3.84, 3.84, -77.02,  -4.94,   2.52,  13.43,  -1.07,  -0.19,  -0.65,   0.41,   0.28,   2.29, 3.85, 0.00, 0.00, 0.00, 0.00, 1, 1, 11,  42.6264522, -88.1615675,   243.0, 2025,  4,  5, 16, 53, 47,        0,        0,   0,   0,   1.4,   0.8,   1.1, 30, 26, 35,  0,  0, 35,  0,  0,  0,  0,  0,  0, 31,  0,  0,  0, 32,  0, 26,  0,  0, 28,  0, 31,  0,  0,  0,  0,  0, 27,  0,  0
6, 11115, 3,N0CALL,     0.00, 3,   boost,   65.21,  99229.00,  175.96,   -0.93,    6.33, 20.9, 3.84, 3.84, 3.84, -76.88,  -6.35,   5.34, -26.00,   1.31,   0.73,  -0.65,   0.41,   0.29,   2.29, 3.85, 0.00, 0.00, 0.00, 0.00, 1, 1, 11,  42.6264522, -88.1615675,   243.0, 2025,  4,  5, 16, 53, 47,        0,        0,   0,   0,   1.4,   0.8,   1.1, 30, 26, 35,  0,  0, 35,  0,  0,  0,  0,  0,  0, 31,  0,  0,  0, 32,  0, 26,  0,  0, 28,  0, 31,  0,  0,  0,  0,  0, 27,  0,  0
6, 11115, 3,N0CALL,     0.00, 3,   boost,   65.21,  99229.00,  175.96,   -0.93,    6.33, 20.9, 3.84, 3.84, 3.84, -76.88,  -6.35,   5.34, -26.00,   1.31,   0.73,  -0.65,   0.41,   0.29,   2.29, 3.85, 0.00, 0.00, 0.00, 0.00, 1, 1, 11,  42.6264522, -88.1615675,   243.0, 2025,  4,  5, 16, 53, 47,        0,        0,   0,   0,   1.4,   0.8,   1.1, 30, 26, 35,  0,  0, 35,  0,  0,  0,  0,  0,  0, 31,  0,  0,  0, 32,  0, 26,  0,  0, 28,  0, 31,  0,  0,  0,  0,  0, 27,  0,  0
6, 11115, 3,N0CALL,     0.00, 3,   boost,   65.21,  99229.00,  175.96,   -0.93,    6.33, 20.9, 3.84, 3.84, 3.84, -76.88,  -6.35,   5.34, -26.00,   1.31,   0.73,  -0.65,   0.41,   0.29,   2.29, 3.85, 0.00, 0.00, 0.00, 0.00, 1, 1, 11,  42.6264522, -88.1615675,   243.0, 2025,  4,  5, 16, 53, 47,        0,        0,   0,   0,   1.4,   0.8,   1.1, 30, 26, 35,  0,  0, 35,  0,  0,  0,  0,  0,  0, 31,  0,  0,  0, 32,  0, 26,  0,  0, 28,  0, 31,  0,  0,  0,  0,  0, 27,  0,  0
6, 11115, 3,N0CALL,     0.00, 3,   boost,   65.21,  99229.00,  175.96,   -0.93,    6.33, 20.9, 3.84, 3.84, 3.84, -76.88,  -6.35,   5.34, -26.00,   1.31,   0.73,  -0.65,   0.41,   0.29,   2.29, 3.85, 0.00, 0.00, 0.00, 0.00, 1, 1, 11,  42.6264522, -88.1615675,   243.0, 2025,  4,  5, 16, 53, 47,        0,        0,   0,   0,   1.4,   0.8,   1.1, 30, 26, 35,  0,  0, 35,  0,  0,  0,  0,  0,  0, 31,  0,  0,  0, 32,  0, 26,  0,  0, 28,  0, 31,  0,  0,  0,  0,  0, 27,  0,  0
6, 11115, 3,N0CALL,     0.00, 3,   boost,   65.21,  99229.00,  175.96,   -0.93,    6.33, 20.9, 3.84, 3.84, 3.84, -76.88,  -6.35,   5.34, -26.00,   1.31,   0.73,  -0.65,   0.41,   0.29,   2.29, 3.85, 0.00, 0.00, 0.00, 0.00, 1, 1, 11,  42.6264522, -88.1615675,   243.0, 2025,  4,  5, 16, 53, 47,        0,        0,   0,   0,   1.4,   0.8,   1.1, 30, 26, 35,  0,  0, 35,  0,  0,  0,  0,  0,  0, 31,  0,  0,  0, 32,  0, 26,  0,  0, 28,  0, 31,  0,  0,  0,  0,  0, 27,  0,  0
6, 11115, 3,N0CALL,     0.00, 3,   boost,   65.21,  99229.00,  175.96,   -0.93,    6.33, 20.9, 3.84, 3.84, 3.84, -76.88,  -6.35,   5.34, -26.00,   1.31,   0.73,  -0.65,   0.41,   0.29,   2.29, 3.85, 0.00, 0.00, 0.00, 0.00, 1, 1, 11,  42.6264522, -88.1615675,   243.0, 2025,  4,  5, 16, 53, 47,        0,        0,   0,   0,   1.4,   0.8,   1.1, 30, 26, 35,  0,  0, 35,  0,  0,  0,  0,  0,  0, 31,  0,  0,  0, 32,  0, 26,  0,  0, 28,  0, 31,  0,  0,  0,  0,  0, 27,  0,  0
6, 11115, 3,N0CALL,     0.00, 3,   boost,   65.21,  99229.00,  175.96,   -0.93,    6.33, 20.9, 3.84, 3.84, 3.84, -76.88,  -6.35,   5.34, -26.00,   1.31,   0.73,  -0.65,   0.41,   0.29,   2.29, 3.85, 0.00, 0.00, 0.00, 0.00, 1, 1, 11,  42.6264522, -88.1615675,   243.0, 2025,  4,  5, 16, 53, 47,        0,        0,   0,   0,   1.4,   0.8,   1.1, 30, 26, 35,  0,  0, 35,  0,  0,  0,  0,  0,  0, 31,  0,  0,  0, 32,  0, 26,  0,  0, 28,  0, 31,  0,  0,  0,  0,  0, 27,  0,  0
6, 11115, 3,N0CALL,     0.00, 3,   boost,   65.21,  99229.00,  175.96,   -0.93,    6.33, 20.9, 3.84, 3.84, 3.84, -76.88,  -6.35,   5.34, -26.00,   1.31,   0.73,  -0.65,   0.41,   0.29,   2.29, 3.85, 0.00, 0.00, 0.00, 0.00, 1, 1, 11,  42.6264522, -88.1615675,   243.0, 2025,  4,  5, 16, 53, 47,        0,        0,   0,   0,   1.4,   0.8,   1.1, 30, 26, 35,  0,  0, 35,  0,  0,  0,  0,  0,  0, 31,  0,  0,  0, 32,  0, 26,  0,  0, 28,  0, 31,  0,  0,  0,  0,  0, 27,  0,  0
6, 11115, 3,N0CALL,     0.00, 3,   boost,   65.21,  99229.00,  175.96,   -0.93,    6.33, 20.9, 3.84, 3.84, 3.84, -76.88,  -6.35,   5.34, -26.00,   1.31,   0.73,  -0.65,   0.41,   0.29,   2.29, 3.85, 0.00, 0.00, 0.00, 0.00, 1, 1, 11,  42.6264522, -88.1615675,   243.0, 2025,  4,  5, 16, 53, 47,        0,        0,   0,   0,   1.4,   0.8,   1.1, 30, 26, 35,  0,  0, 35,  0,  0,  0,  0,  0,  0, 31,  0,  0,  0, 32,  0, 26,  0,  0, 28,  0, 31,  0,  0,  0,  0,  0, 27,  0,  0
6, 11115, 3,N0CALL,     0.00, 3,   boost,   65.21,  99229.00,  175.96,   -0.93,    6.33, 20.9, 3.84, 3.84, 3.84, -76.88,  -6.35,   5.34, -26.00,   1.31,   0.73,  -0.65,   0.41,   0.29,   2.29, 3.85, 0.00, 0.00, 0.00, 0.00, 1, 1, 11,  42.6264522, -88.1615675,   243.0, 2025,  4,  5, 16, 53, 47,        0,        0,   0,   0,   1.4,   0.8,   1.1, 30, 26, 35,  0,  0, 35,  0,  0,  0,  0,  0,  0, 31,  0,  0,  0, 32,  0, 26,  0,  0, 28,  0, 31,  0,  0,  0,  0,  0, 27,  0,  0
6, 11115, 3,N0CALL,     0.00, 3,   boost,   65.21,  99229.00,  175.96,   -0.93,    6.33, 20.9, 3.84, 3.84, 3.84, -76.88,  -6.35,   5.34, -26.00,   1.31,   0.73,  -0.65,   0.41,   0.29,   2.29, 3.85, 0.00, 0.00, 0.00, 0.00, 1, 1, 11,  42.6264522, -88.1615675,   243.0, 2025,  4,  5, 16, 53, 47,        0,        0,   0,   0,   1.4,   0.8,   1.1, 30, 26, 35,  0,  0, 35,  0,  0,  0,  0,  0,  0, 31,  0,  0,  0, 32,  0, 26,  0,  0, 28,  0, 31,  0,  0,  0,  0,  0, 27,  0,  0
6, 11115, 3,N0CALL,     0.00, 3,   boost,   65.21,  99229.00,  175.96,   -0.93,    6.33, 20.9, 3.84, 3.84, 3.84, -76.88,  -6.35,   5.34, -26.00,   1.31,   0.73,  -0.65,   0.41,   0.29,   2.29, 3.85, 0.00, 0.00, 0.00, 0.00, 1, 1, 11,  42.6264522, -88.1615675,   243.0, 2025,  4,  5, 16, 53, 47,        0,        0,   0,   0,   1.4,   0.8,   1.1, 30, 26, 35,  0,  0, 35,  0,  0,  0,  0,  0,  0, 31,  0,  0,  0, 32,  0, 26,  0,  0, 28,  0, 31,  0,  0,  0,  0,  0, 27,  0,  0
6, 11115, 3,N0CALL,     0.00, 3,   boost,   65.21,  99229.00,  175.96,   -0.93,    6.33, 20.9, 3.84, 3.84, 3.84, -76.88,  -6.35,   5.34, -26.00,   1.31,   0.73,  -0.65,   0.41,   0.29,   2.29, 3.85, 0.00, 0.00, 0.00, 0.00, 1, 1, 11,  42.6264522, -88.1615675,   243.0, 2025,  4,  5, 16, 53, 47,        0,        0,   0,   0,   1.4,   0.8,   1.1, 30, 26, 35,  0,  0, 35,  0,  0,  0,  0,  0,  0, 31,  0,  0,  0, 32,  0, 26,  0,  0, 28,  0, 31,  0,  0,  0,  0,  0, 27,  0,  0
6, 11115, 3,N0CALL,     0.00, 3,   boost,   65.21,  99229.00,  175.96,   -0.93,    6.33, 20.9, 3.84, 3.84, 3.84, -76.88,  -6.35,   5.34, -26.00,   1.31,   0.73,  -0.65,   0.41,   0.29,   2.29, 3.85, 0.00, 0.00, 0.00, 0.00, 1, 1, 11,  42.6264522, -88.1615675,   243.0, 2025,  4,  5, 16, 53, 47,        0,        0,   0,   0,   1.4,   0.8,   1.1, 30, 26, 35,  0,  0, 35,  0,  0,  0,  0,  0,  0, 31,  0,  0,  0, 32,  0, 26,  0,  0, 28,  0, 31,  0,  0,  0,  0,  0, 27,  0,  0
6, 11115, 3,N0CALL,     0.00, 3,   boost,   65.21,  99229.00,  175.96,   -0.93,    6.33, 20.9, 3.84, 3.84, 3.84, -76.88,  -6.35,   5.34, -26.00,   1.31,   0.73,  -0.65,   0.41,   0.29,   2.29, 3.85, 0.00, 0.00, 0.00, 0.00, 1, 1, 11,  42.6264522, -88.1615675,   243.0, 2025,  4,  5, 16, 53, 47,        0,        0,   0,   0,   1.4,   0.8,   1.1, 30, 26, 35,  0,  0, 35,  0,  0,  0,  0,  0,  0, 31,  0,  0,  0, 32,  0, 26,  0,  0, 28,  0, 31,  0,  0,  0,  0,  0, 27,  0,  0
6, 11115, 3,N0CALL,     0.00, 3,   boost,   65.21,  99229.00,  175.96,   -0.93,    6.33, 20.9, 3.84, 3.84, 3.84, -76.88,  -6.35,   5.34, -26.00,   1.31,   0.73,  -0.65,   0.41,   0.29,   2.29, 3.85, 0.00, 0.00, 0.00, 0.00, 1, 1, 11,  42.6264522, -88.1615675,   243.0, 2025,  4,  5, 16, 53, 47,        0,        0,   0,   0,   1.4,   0.8,   1.1, 30, 26, 35,  0,  0, 35,  0,  0,  0,  0,  0,  0, 31,  0,  0,  0, 32,  0, 26,  0,  0, 28,  0, 31,  0,  0,  0,  0,  0, 27,  0,  0
6, 11115, 3,N0CALL,     0.00, 3,   boost,   65.21,  99229.00,  175.96,   -0.93,    6.33, 20.9, 3.84, 3.84, 3.84, -76.88,  -6.35,   5.34, -26.00,   1.31,   0.73,  -0.65,   0.41,   0.29,   2.29, 3.85, 0.00, 0.00, 0.00, 0.00, 1, 1, 11,  42.6264522, -88.1615675,   243.0, 2025,  4,  5, 16, 53, 47,        0,        0,   0,   0,   1.4,   0.8,   1.1, 30, 26, 35,  0,  0, 35,  0,  0,  0,  0,  0,  0, 31,  0,  0,  0, 32,  0, 26,  0,  0, 28,  0, 31,  0,  0,  0,  0,  0, 27,  0,  0
6, 11115, 3,N0CALL,     0.00, 3,   boost,   65.21,  99229.00,  175.96,   -0.93,    6.33, 20.9, 3.84, 3.84, 3.84, -76.88,  -6.35,   5.34, -26.00,   1.31,   0.73,  -0.65,   0.41,   0.29,   2.29, 3.85, 0.00, 0.00, 0.00, 0.00, 1, 1, 11,  42.6264522, -88.1615675,   243.0, 2025,  4,  5, 16, 53, 47,        0,        0,   0,   0,   1.4,   0.8,   1.1, 30, 26, 35,  0,  0, 35,  0,  0,  0,  0,  0,  0, 31,  0,  0,  0, 32,  0, 26,  0,  0, 28,  0, 31,  0,  0,  0,  0,  0, 27,  0,  0
6, 11115, 3,N0CALL,     0.00, 3,   boost,   65.21,  99229.00,  175.96,   -0.93,    6.33, 20.9, 3.84, 3.84, 3.84, -76.88,  -6.35,   5.34, -26.00,   1.31,   0.73,  -0.65,   0.41,   0.29,   2.29, 3.85, 0.00, 0.00, 0.00, 0.00, 1, 1, 11,  42.6264522, -88.1615675,   243.0, 2025,  4,  5, 16, 53, 47,        0,        0,   0,   0,   1.4,   0.8,   1.1, 30, 26, 35,  0,  0, 35,  0,  0,  0,  0,  0,  0, 31,  0,  0,  0, 32,  0, 26,  0,  0, 28,  0, 31,  0,  0,  0,  0,  0, 27,  0,  0
6, 11115, 3,N0CALL,     0.00, 3,   boost,   65.21,  99229.00,  175.96,   -0.93,    6.33, 20.9, 3.84, 3.84, 3.84, -76.88,  -6.35,   5.34, -26.00,   1.31,   0.73,  -0.65,   0.41,   0.29,   2.29, 3.85, 0.00, 0.00, 0.00, 0.00, 1, 1, 11,  42.6264522, -88.1615675,   243.0, 2025,  4,  5, 16, 53, 47,        0,        0,   0,   0,   1.4,   0.8,   1.1, 30, 26, 35,  0,  0, 35,  0,  0,  0,  0,  0,  0, 31,  0,  0,  0, 32,  0, 26,  0,  0, 28,  0, 31,  0,  0,  0,  0,  0, 27,  0,  0
6, 11115, 3,N0CALL,     0.00, 3,   boost,   65.21,  99229.00,  175.96,   -0.93,    6.33, 20.9, 3.84, 3.84, 3.84, -76.88,  -6.35,   5.34, -26.00,   1.31,   0.73,  -0.65,   0.41,   0.29,   2.29, 3.85, 0.00, 0.00, 0.00, 0.00, 1, 1, 11,  42.6264522, -88.1615675,   243.0, 2025,  4,  5, 16, 53, 47,        0,        0,   0,   0,   1.4,   0.8,   1.1, 30, 26, 35,  0,  0, 35,  0,  0,  0,  0,  0,  0, 31,  0,  0,  0, 32,  0, 26,  0,  0, 28,  0, 31,  0,  0,  0,  0,  0, 27,  0,  0
6, 11115, 3,N0CALL,     0.00, 3,   boost,   65.21,  99229.00,  175.96,   -0.93,    6.33, 20.9, 3.84, 3.84, 3.84, -76.88,  -6.35,   5.34, -26.00,   1.31,   0.73,  -0.65,   0.41,   0.29,   2.29, 3.85, 0.00, 0.00, 0.00, 0.00, 1, 1, 11,  42.6264522, -88.1615675,   243.0, 2025,  4,  5, 16, 53, 47,        0,        0,   0,   0,   1.4,   0.8,   1.1, 30, 26, 35,  0,  0, 35,  0,  0,  0,  0,  0,  0, 31,  0,  0,  0, 32,  0, 26,  0,  0, 28,  0, 31,  0,  0,  0,  0,  0, 27,  0,  0
6, 11115, 3,N0CALL,     0.00, 3,   boost,   65.21,  99229.00,  175.96,   -0.93,    6.33, 20.9, 3.84, 3.84, 3.84, -76.88,  -6.35,   5.34, -26.00,   1.31,   0.73,  -0.65,   0.41,   0.29,   2.29, 3.85, 0.00, 0.00, 0.00, 0.00, 1, 1, 11,  42.6264522, -88.1615675,   243.0, 2025,  4,  5, 16, 53, 47,        0,        0,   0,   0,   1.4,   0.8,   1.1, 30, 26, 35,  0,  0, 35,  0,  0,  0,  0,  0,  0, 31,  0,  0,  0, 32,  0, 26,  0,  0, 28,  0, 31,  0,  0,  0,  0,  0, 27,  0,  0
6, 11115, 3,N0CALL,     0.00, 3,   boost,   65.21,  99229.00,  175.96,   -0.93,    6.33, 20.9, 3.84, 3.84, 3.84, -76.88,  -6.35,   5.34, -26.00,   1.31,   0.73,  -0.65,   0.41,   0.29,   2.29, 3.85, 0.00, 0.00, 0.00, 0.00, 1, 1, 11,  42.6264522, -88.1615675,   243.0, 2025,  4,  5, 16, 53, 47,        0,        0,   0,   0,   1.4,   0.8,   1.1, 30, 26, 35,  0,  0, 35,  0,  0,  0,  0,  0,  0, 31,  0,  0,  0, 32,  0, 26,  0,  0, 28,  0, 31,  0,  0,  0,  0,  0, 27,  0,  0
6, 11115, 3,N0CALL,     0.00, 3,   boost,   65.21,  99229.00,  175.96,   -0.93,    6.33, 20.9, 3.84, 3.84, 3.84, -76.88,  -6.35,   5.34, -26.00,   1.31,   0.73,  -0.65,   0.41,   0.29,   2.29, 3.85, 0.00, 0.00, 0.00, 0.00, 1, 1, 11,  42.6264522, -88.1615675,   243.0, 2025,  4,  5, 16, 53, 47,        0,        0,   0,   0,   1.4,   0.8,   1.1, 30, 26, 35,  0,  0, 35,  0,  0,  0,  0,  0,  0, 31,  0,  0,  0, 32,  0, 26,  0,  0, 28,  0, 31,  0,  0,  0,  0,  0, 27,  0,  0
6, 11115, 3,N0CALL,     0.00, 3,   boost,   65.21,  99229.00,  175.96,   -0.93,    6.33, 20.9, 3.84, 3.84, 3.84, -76.88,  -6.35,   5.34, -26.00,   1.31,   0.73,  -0.65,   0.41,   0.29,   2.29, 3.85, 0.00, 0.00, 0.00, 0.00, 1, 1, 11,  42.6264522, -88.1615675,   243.0, 2025,  4,  5, 16, 53, 47,        0,        0,   0,   0,   1.4,   0.8,   1.1, 30, 26, 35,  0,  0, 35,  0,  0,  0,  0,  0,  0, 31,  0,  0,  0, 32,  0, 26,  0,  0, 28,  0, 31,  0,  0,  0,  0,  0, 27,  0,  0
6, 11115, 3,N0CALL,     0.00, 3,   boost,   65.21,  99229.00,  175.96,   -0.93,    6.33, 20.9, 3.84, 3.84, 3.84, -76.88,  -6.35,   5.34, -26.00,   1.31,   0.73,  -0.65,   0.41,   0.29,   2.30, 3.85, 0.00, 0.00, 0.00, 0.00, 1, 1, 11,  42.6264522, -88.1615675,   243.0, 2025,  4,  5, 16, 53, 47,        0,        0,   0,   0,   1.4,   0.8,   1.1, 30, 26, 35,  0,  0, 35,  0,  0,  0,  0,  0,  0, 31,  0,  0,  0, 32,  0, 26,  0,  0, 28,  0, 31,  0,  0,  0,  0,  0, 27,  0,  0
6, 11115, 3,N0CALL,     0.00, 3,   boost,   65.21,  99229.00,  175.96,   -0.93,    6.33, 20.9, 3.84, 3.84, 3.84, -76.88,  -6.35,   5.34, -26.00,   1.31,   0.73,  -0.65,   0.41,   0.29,   2.31, 3.85, 0.00, 0.00, 0.00, 0.00, 1, 1, 11,  42.6264522, -88.1615675,   243.0, 2025,  4,  5, 16, 53, 47,        0,        0,   0,   0,   1.4,   0.8,   1.1, 30, 26, 35,  0,  0, 35,  0,  0,  0,  0,  0,  0, 31,  0,  0,  0, 32,  0, 26,  0,  0, 28,  0, 31,  0,  0,  0,  0,  0, 27,  0,  0
6, 11115, 3,N0CALL,     0.00, 3,   boost,   65.21,  99229.00,  175.96,   -0.93,    6.33, 20.9, 3.84, 3.84, 3.84, -76.88,  -6.35,   5.34, -26.00,   1.31,   0.73,  -0.65,   0.41,   0.29,   2.37, 3.85, 0.00, 0.00, 0.00, 0.00, 1, 1, 11,  42.6264522, -88.1615675,   243.0, 2025,  4,  5, 16, 53, 47,        0,        0,   0,   0,   1.4,   0.8,   1.1, 30, 26, 35,  0,  0, 35,  0,  0,  0,  0,  0,  0, 31,  0,  0,  0, 32,  0, 26,  0,  0, 28,  0, 31,  0,  0,  0,  0,  0, 27,  0,  0
6, 11115, 3,N0CALL,     0.00, 3,   boost,   65.21,  99229.00,  175.96,   -0.93,    6.33, 20.9, 3.84, 3.84, 3.84, -76.88,  -6.35,   5.34, -26.00,   1.31,   0.73,  -0.65,   0.41,   0.29,   2.40, 3.85, 0.00, 0.00, 0.00, 0.00, 1, 1, 11,  42.6264522, -88.1615675,   243.0, 2025,  4,  5, 16, 53, 47,        0,        0,   0,   0,   1.4,   0.8,   1.1, 30, 26, 35,  0,  0, 35,  0,  0,  0,  0,  0,  0, 31,  0,  0,  0, 32,  0, 26,  0,  0, 28,  0, 31,  0,  0,  0,  0,  0, 27,  0,  0
6, 11115, 3,N0CALL,     0.00, 3,   boost,   65.21,  99229.00,  175.96,   -0.93,    6.33, 20.9, 3.84, 3.84, 3.84, -76.88,  -6.35,   5.34, -26.00,   1.31,   0.73,  -0.65,   0.41,   0.29,   2.43, 3.85, 0.00, 0.00, 0.00, 0.00, 1, 1, 11,  42.6264522, -88.1615675,   243.0, 2025,  4,  5, 16, 53, 47,        0,        0,   0,   0,   1.4,   0.8,   1.1, 30, 26, 35,  0,  0, 35,  0,  0,  0,  0,  0,  0, 31,  0,  0,  0, 32,  0, 26,  0,  0, 28,  0, 31,  0,  0,  0,  0,  0, 27,  0,  0
6, 11115, 3,N0CALL,     0.00, 3,   boost,   65.21,  99229.00,  175.96,   -0.93,    6.33, 20.9, 3.84, 3.84, 3.84, -76.88,  -6.35,   5.34, -26.00,   1.31,   0.73,  -0.65,   0.41,   0.29,   2.40, 3.85, 0.00, 0.00, 0.00, 0.00, 1, 1, 11,  42.6264522, -88.1615675,   243.0, 2025,  4,  5, 16, 53, 47,        0,        0,   0,   0,   1.4,   0.8,   1.1, 30, 26, 35,  0,  0, 35,  0,  0,  0,  0,  0,  0, 31,  0,  0,  0, 32,  0, 26,  0,  0, 28,  0, 31,  0,  0,  0,  0,  0, 27,  0,  0
6, 11115, 3,N0CALL,     0.00, 3,   boost,   65.21,  99229.00,  175.96,   -0.93,    6.33, 20.9, 3.84, 3.84, 3.84, -76.88,  -6.35,   5.34, -26.00,   1.31,   0.73,  -0.65,   0.41,   0.29,   2.40, 3.85, 0.00, 0.00, 0.00, 0.00, 1, 1, 11,  42.6264522, -88.1615675,   243.0, 2025,  4,  5, 16, 53, 47,        0,        0,   0,   0,   1.4,   0.8,   1.1, 30, 26, 35,  0,  0, 35,  0,  0,  0,  0,  0,  0, 31,  0,  0,  0, 32,  0, 26,  0,  0, 28,  0, 31,  0,  0,  0,  0,  0, 27,  0,  0
6, 11115, 3,N0CALL,     0.00, 3,   boost,   65.21,  99229.00,  175.96,   -0.93,    6.33, 20.9, 3.84, 3.84, 3.84, -76.88,  -6.35,   5.34, -26.00,   1.31,   0.73,  -0.65,   0.41,   0.29,   2.40, 3.85, 0.00, 0.00, 0.00, 0.00, 1, 1, 11,  42.6264522, -88.1615675,   243.0, 2025,  4,  5, 16, 53, 47,        0,        0,   0,   0,   1.4,   0.8,   1.1, 30, 26, 35,  0,  0, 35,  0,  0,  0,  0,  0,  0, 31,  0,  0,  0, 32,  0, 26,  0,  0, 28,  0, 31,  0,  0,  0,  0,  0, 27,  0,  0
6, 11115, 3,N0CALL,     0.00, 3,   boost,   65.21,  99229.00,  175.96,   -0.93,    6.33, 20.9, 3.84, 3.84, 3.84, -76.88,  -6.35,   5.34, -26.00,   1.31,   0.73,  -0.65,   0.41,   0.29,   2.41, 3.85, 0.00, 0.00, 0.00, 0.00, 1, 1, 11,  42.6264522, -88.1615675,   243.0, 2025,  4,  5, 16, 53, 47,        0,        0,   0,   0,   1.4,   0.8,   1.1, 30, 26, 35,  0,  0, 35,  0,  0,  0,  0,  0,  0, 31,  0,  0,  0, 32,  0, 26,  0,  0, 28,  0, 31,  0,  0,  0,  0,  0, 27,  0,  0
6, 11115, 3,N0CALL,     0.01, 3,   boost,   62.76,  99229.00,  175.96,   -0.93,    6.98, 20.9, 3.84, 3.84, 3.84, -76.79,  -0.22,   0.65, -22.59,  -0.95,  -1.53,  -0.65,   0.41,   0.29,   2.39, 3.85, 0.00, 0.00, 0.00, 0.00, 1, 1, 11,  42.6264522, -88.1615675,   243.0, 2025,  4,  5, 16, 53, 47,        0,        0,   0,   0,   1.4,   0.8,   1.1, 30, 26, 35,  0,  0, 35,  0,  0,  0,  0,  0,  0, 31,  0,  0,  0, 32,  0, 26,  0,  0, 28,  0, 31,  0,  0,  0,  0,  0, 27,  0,  0
6, 11115, 3,N0CALL,     0.01, 3,   boost,   62.76,  99229.00,  175.96,   -0.93,    6.98, 20.9, 3.84, 3.84, 3.84, -76.79,  -0.22,   0.65, -22.59,  -0.95,  -1.53,  -0.65,   0.41,   0.29,   2.39, 3.85, 0.00, 0.00, 0.00, 0.00, 1, 1, 11,  42.6264522, -88.1615675,   243.0, 2025,  4,  5, 16, 53, 47,        0,        0,   0,   0,   1.4,   0.8,   1.1, 30, 26, 35,  0,  0, 35,  0,  0,  0,  0,  0,  0, 31,  0,  0,  0, 32,  0, 26,  0,  0, 28,  0, 31,  0,  0,  0,  0,  0, 27,  0,  0
6, 11115, 3,N0CALL,     0.02, 3,   boost,   66.19,  99222.00,  176.55,   -0.34,    7.62, 20.9, 3.81, 3.80, 3.81, -76.78,  -4.58,  -5.50,   5.49,  -0.22,  -1.65,  -0.64,   0.42,   0.28,   2.37, 3.83, 0.00, 0.01, 0.00, 0.00, 1, 1, 11,  42.6264522, -88.1615675,   243.0, 2025,  4,  5, 16, 53, 47,        0,        0,   0,   0,   1.4,   0.8,   1.1, 30, 26, 35,  0,  0, 35,  0,  0,  0,  0,  0,  0, 31,  0,  0,  0, 32,  0, 26,  0,  0, 28,  0, 31,  0,  0,  0,  0,  0, 27,  0,  0
6, 11115, 3,N0CALL,     0.02, 3,   boost,   66.19,  99222.00,  176.55,   -0.34,    7.62, 20.9, 3.81, 3.80, 3.81, -76.78,  -4.58,  -5.50,   5.49,  -0.22,  -1.65,  -0.64,   0.42,   0.28,   2.37, 3.83, 0.00, 0.01, 0.00, 0.00, 1, 1, 11,  42.6264522, -88.1615675,   243.0, 2025,  4,  5, 16, 53, 47,        0,        0,   0,   0,   1.4,   0.8,   1.1, 30, 26, 35,  0,  0, 35,  0,  0,  0,  0,  0,  0, 31,  0,  0,  0, 32,  0, 26,  0,  0, 28,  0, 31,  0,  0,  0,  0,  0, 27,  0,  0
6, 11115, 3,N0CALL,     0.03, 3,   boost,   71.10,  99222.00,  176.55,   -0.34,    8.27, 20.9, 3.81, 3.80, 3.81, -77.05,  -2.25,   0.13,  11.41,   0.27,  -2.26,  -0.64,   0.41,   0.28,   2.35, 3.83, 0.00, 0.01, 0.00, 0.00, 1, 1, 11,  42.6264522, -88.1615675,   243.0, 2025,  4,  5, 16, 53, 47,        0,        0,   0,   0,   1.4,   0.8,   1.1, 30, 26, 35,  0,  0, 35,  0,  0,  0,  0,  0,  0, 31,  0,  0,  0, 32,  0, 26,  0,  0, 28,  0, 31,  0,  0,  0,  0,  0, 27,  0,  0
6, 11115, 3,N0CALL,     0.04, 3,   boost,   47.56,  99222.00,  176.55,   -0.34,    8.91, 20.9, 3.81, 3.80, 3.81, -78.99,  -6.01,   4.35,   1.71,  -1.56,  -2.08,  -0.64,   0.41,   0.28,   2.33, 3.83, 0.00, 0.01, 0.00, 0.00, 1, 1, 11,  42.6264522, -88.1615675,   243.0, 2025,  4,  5, 16, 53, 47,        0,        0,   0,   0,   1.4,   0.8,   1.1, 30, 26, 35,  0,  0, 35,  0,  0,  0,  0,  0,  0, 31,  0,  0,  0, 32,  0, 26,  0,  0, 28,  0, 31,  0,  0,  0,  0,  0, 27,  0,  0
6, 11115, 3,N0CALL,     0.05, 3,   boost,   71.10,  99222.00,  176.55,   -0.34,    9.57, 20.9, 3.81, 3.80, 3.81, -77.99,  -2.67,   0.46, -18.86,  -2.29,  -1.10,  -0.64,   0.41,   0.28,   2.31, 3.83, 0.00, 0.01, 0.00, 0.00, 1, 1, 11,  42.6264522, -88.1615675,   243.0, 2025,  4,  5, 16, 53, 47,        0,        0,   0,   0,   1.4,   0.8,   1.1, 30, 26, 35,  0,  0, 35,  0,  0,  0,  0,  0,  0, 31,  0,  0,  0, 32,  0, 26,  0,  0, 28,  0, 31,  0,  0,  0,  0,  0, 27,  0,  0
6, 11115, 3,N0CALL,     0.06, 3,   boost,   71.10,  99223.00,  176.46,   -0.42,   10.25, 20.9, 3.81, 3.80, 3.81, -87.25,  -6.15,  -4.36, -28.51,  -1.19,  -1.16,  -0.64,   0.41,   0.29,   2.30, 3.83, 0.00, 0.01, 0.00, 0.00, 1, 1, 11,  42.6264522, -88.1615675,   243.0, 2025,  4,  5, 16, 53, 47,        0,        0,   0,   0,   1.4,   0.8,   1.1, 30, 26, 35,  0,  0, 35,  0,  0,  0,  0,  0,  0, 31,  0,  0,  0, 32,  0, 26,  0,  0, 28,  0, 31,  0,  0,  0,  0,  0, 27,  0,  0
6, 11115, 3,N0CALL,     0.07, 3,   boost,   73.55,  99223.00,  176.46,   -0.42,   10.95, 20.9, 3.81, 3.80, 3.81, -83.12,  -2.84,   1.13, -29.60,  -2.54,  -2.14,  -0.64,   0.41,   0.29,   2.27, 3.83, 0.00, 0.01, 0.00, 0.00, 1, 1, 11,  42.6264522, -88.1615675,   243.0, 2025,  4,  5, 16, 53, 47,        0,        0,   0,   0,   1.4,   0.8,   1.1, 30, 26, 35,  0,  0, 35,  0,  0,  0,  0,  0,  0, 31,  0,  0,  0, 32,  0, 26,  0,  0, 28,  0, 31,  0,  0,  0,  0,  0, 27,  0,  0
6, 11115, 3,N0CALL,     0.08, 3,   boost,   71.10,  99218.00,  176.89,    0.00,   11.66, 20.9, 3.81, 3.80, 3.81, -83.04,  -4.59,   1.20, -31.31,  -0.95,  -2.87,  -0.64,   0.41,   0.29,   2.24, 3.83, 0.00, 0.01, 0.00, 0.00, 1, 1, 11,  42.6264522, -88.1615675,   243.0, 2025,  4,  5, 16, 53, 47,        0,        0,   0,   0,   1.4,   0.8,   1.1, 30, 26, 35,  0,  0, 35,  0,  0,  0,  0,  0,  0, 31,  0,  0,  0, 32,  0, 26,  0,  0, 28,  0, 31,  0,  0,  0,  0,  0, 27,  0,  0
6, 11115, 3,N0CALL,     0.09, 3,   boost,   74.04,  99218.00,  176.89,    0.00,   12.38, 20.9, 3.81, 3.80, 3.81, -83.46,  -2.05,   0.98, -37.72,  -1.19,  -3.36,  -0.64,   0.40,   0.29,   2.21, 3.83, 0.00, 0.01, 0.00, 0.00, 1, 1, 11,  42.6264522, -88.1615675,   243.0, 2025,  4,  5, 16, 53, 47,        0,        0,   0,   0,   1.4,   0.8,   1.1, 30, 26, 35,  0,  0, 35,  0,  0,  0,  0,  0,  0, 31,  0,  0,  0, 32,  0, 26,  0,  0, 28,  0, 31,  0,  0,  0,  0,  0, 27,  0,  0
6, 11115, 3,N0CALL,     0.10, 3,   boost,   73.55,  99188.00,  179.43,    2.54,   13.11, 20.9, 3.81, 3.80, 3.81, -84.23,  -3.84,  -1.93, -43.58,  -3.02,  -2.51,  -0.64,   0.40,   0.29,   2.18, 3.83, 0.00, 0.01, 0.00, 0.00, 1, 1, 11,  42.6264522, -88.1615675,   243.0, 2025,  4,  5, 16, 53, 47,        0,        0,   0,   0,   1.4,   0.8,   1.1, 30, 26, 35,  0,  0, 35,  0,  0,  0,  0,  0,  0, 31,  0,  0,  0, 32,  0, 26,  0,  0, 28,  0, 31,  0,  0,  0,  0,  0, 27,  0,  0
6, 11115, 3,N0CALL,     0.11, 3,   boost,   72.57,  99188.00,  179.43,    2.54,   13.85, 20.9, 3.81, 3.80, 3.81, -84.11,  -1.43,  -0.10, -51.70,  -1.74,  -2.57,  -0.64,   0.40,   0.29,   2.15, 3.83, 0.00, 0.01, 0.00, 0.00, 1, 1, 11,  42.6264522, -88.1615675,   243.0, 2025,  4,  5, 16, 53, 47,        0,        0,   0,   0,   1.4,   0.8,   1.1, 30, 26, 35,  0,  0, 35,  0,  0,  0,  0,  0,  0, 31,  0,  0,  0, 32,  0, 26,  0,  0, 28,  0, 31,  0,  0,  0,  0,  0, 27,  0,  0
6, 11115, 3,N0CALL,     0.12, 3,   boost,   75.02,  99216.00,  177.06,    0.17,   14.58, 20.9, 3.81, 3.80, 3.81, -84.25,  -1.40,   0.96, -42.48,  -1.99,  -2.69,  -0.64,   0.40,   0.28,   2.12, 3.83, 0.00, 0.01, 0.00, 0.00, 1, 1, 11,  42.6264522, -88.1615675,   243.0, 2025,  4,  5, 16, 53, 47,        0,        0,   0,   0,   1.4,   0.8,   1.1, 30, 26, 35,  0,  0, 35,  0,  0,  0,  0,  0,  0, 31,  0,  0,  0, 32,  0, 26,  0,  0, 28,  0, 31,  0,  0,  0,  0,  0, 27,  0,  0
6, 11115, 3,N0CALL,     0.13, 3,   boost,   74.04,  99216.00,  177.06,    0.17,   15.31, 20.9, 3.81, 3.80, 3.81, -84.52,  -6.57,   1.61, -41.45,  -1.32,   0.91,  -0.64,   0.40,   0.29,   2.12, 3.83, 0.00, 0.01, 0.00, 0.00, 1, 1, 11,  42.6264522, -88.1615675,   243.0, 2025,  4,  5, 16, 53, 47,        0,        0,   0,   0,   1.4,   0.8,   1.1, 30, 26, 35,  0,  0, 35,  0,  0,  0,  0,  0,  0, 31,  0,  0,  0, 32,  0, 26,  0,  0, 28,  0, 31,  0,  0,  0,  0,  0, 27,  0,  0
6, 11115, 3,N0CALL,     0.14, 3,   boost,   70.12,  99212.00,  177.39,    0.51,   16.05, 20.9, 3.81, 3.80, 3.81, -84.73,  -2.61,   1.68, -33.21,  -0.09,   0.55,  -0.64,   0.40,   0.29,   2.13, 3.83, 0.00, 0.01, 0.00, 0.00, 1, 1, 11,  42.6264522, -88.1615675,   243.0, 2025,  4,  5, 16, 53, 47,        0,        0,   0,   0,   1.4,   0.8,   1.1, 30, 26, 35,  0,  0, 35,  0,  0,  0,  0,  0,  0, 31,  0,  0,  0, 32,  0, 26,  0,  0, 28,  0, 31,  0,  0,  0,  0,  0, 27,  0,  0
6, 11115, 3,N0CALL,     0.15, 3,   boost,   74.53,  99212.00,  177.39,    0.51,   16.79, 20.9, 3.81, 3.80, 3.81, -84.51,  -5.04,   2.67, -12.15,   0.21,   2.13,  -0.64,   0.40,   0.29,   2.15, 3.83, 0.00, 0.01, 0.00, 0.00, 1, 1, 11,  42.6264522, -88.1615675,   243.0, 2025,  4,  5, 16, 53, 47,        0,        0,   0,   0,   1.4,   0.8,   1.1, 30, 26, 35,  0,  0, 35,  0,  0,  0,  0,  0,  0, 31,  0,  0,  0, 32,  0, 26,  0,  0, 28,  0, 31,  0,  0,  0,  0,  0, 27,  0,  0
6, 11115, 3,N0CALL,     0.16, 3,   boost,   76.49,  99214.00,  177.23,    0.34,   17.54, 20.9, 3.81, 3.80, 3.81, -84.99,  -9.85,   0.80,  20.75,   1.61,   4.15,  -0.64,   0.40,   0.28,   2.19, 3.83, 0.00, 0.01, 0.00, 0.00, 1, 1, 11,  42.6264522, -88.1615675,   243.0, 2025,  4,  5, 16, 53, 47,        0,        0,   0,   0,   1.4,   0.8,   1.1, 30, 26, 35,  0,  0, 35,  0,  0,  0,  0,  0,  0, 31,  0,  0,  0, 32,  0, 26,  0,  0, 28,  0, 31,  0,  0,  0,  0,  0, 27,  0,  0
6, 11115, 3,N0CALL,     0.17, 3,   boost,   76.98,  99214.00,  177.23,    0.34,   18.31, 20.9, 3.81, 3.80, 3.81, -86.81,  -1.26,   2.77,  42.72,   2.65,  -0.07,  -0.64,   0.40,   0.29,   2.20, 3.83, 0.00, 0.01, 0.00, 0.00, 1, 1, 11,  42.6264522, -88.1615675,   243.0, 2025,  4,  5, 16, 53, 47,        0,        0,   0,   0,   1.4,   0.8,   1.1, 30, 26, 35,  0,  0, 35,  0,  0,  0,  0,  0,  0, 31,  0,  0,  0, 32,  0, 26,  0,  0, 28,  0, 31,  0,  0,  0,  0,  0, 27,  0,  0
6, 11115, 3,N0CALL,     0.18, 3,   boost,   76.98,  99203.00,  178.16,    1.27,   19.08, 20.9, 3.81, 3.80, 3.81, -87.32,   0.57,  -4.73,  55.54,   1.13,  -3.42,  -0.64,   0.40,   0.28,   2.17, 3.83, 0.00, 0.01, 0.00, 0.00, 1, 1, 11,  42.6264522, -88.1615675,   243.0, 2025,  4,  5, 16, 53, 47,        0,        0,   0,   0,   1.4,   0.8,   1.1, 30, 26, 35,  0,  0, 35,  0,  0,  0,  0,  0,  0, 31,  0,  0,  0, 32,  0, 26,  0,  0, 28,  0, 31,  0,  0,  0,  0,  0, 27,  0,  0
6, 11115, 3,N0CALL,     0.19, 3,   boost,   80.90,  99203.00,  178.16,    1.27,   19.87, 20.9, 3.81, 3.80, 3.81, -89.44,   5.02,   2.70,  55.05,   2.77,  -6.05,  -0.64,   0.40,   0.28,   2.12, 3.83, 0.00, 0.01, 0.00, 0.00, 1, 1, 11,  42.6264522, -88.1615675,   243.0, 2025,  4,  5, 16, 53, 47,        0,        0,   0,   0,   1.4,   0.8,   1.1, 30, 26, 35,  0,  0, 35,  0,  0,  0,  0,  0,  0, 31,  0,  0,  0, 32,  0, 26,  0,  0, 28,  0, 31,  0,  0,  0,  0,  0, 27,  0,  0
6, 11115, 3,N0CALL,     0.20, 3,   boost,   81.40,  99212.00,  177.39,    0.51,   20.66, 20.9, 3.81, 3.80, 3.81, -89.56,  -5.27,  -2.00,  60.30,   0.94,  -5.99,  -0.64,   0.40,   0.29,   2.06, 3.83, 0.00, 0.01, 0.00, 0.00, 1, 1, 11,  42.6264522, -88.1615675,   243.0, 2025,  4,  5, 16, 53, 47,        0,        0,   0,   0,   1.4,   0.8,   1.1, 30, 26, 35,  0,  0, 35,  0,  0,  0,  0,  0,  0, 31,  0,  0,  0, 32,  0, 26,  0,  0, 28,  0, 31,  0,  0,  0,  0,  0, 27,  0,  0
6, 11115, 3,N0CALL,     0.21, 3,   boost,   78.45,  99212.00,  177.39,    0.51,   21.46, 20.9, 3.81, 3.80, 3.81, -90.42,  -8.74,   3.72,  46.45,   3.26,  -3.97,  -0.64,   0.41,   0.29,   2.03, 3.83, 0.00, 0.01, 0.00, 0.00, 1, 1, 11,  42.6264522, -88.1615675,   243.0, 2025,  4,  5, 16, 53, 47,        0,        0,   0,   0,   1.4,   0.8,   1.1, 30, 26, 35,  0,  0, 35,  0,  0,  0,  0,  0,  0, 31,  0,  0,  0, 32,  0, 26,  0,  0, 28,  0, 31,  0,  0,  0,  0,  0, 27,  0,  0
6, 11115, 3,N0CALL,     0.22, 3,   boost,   81.40,  99205.00,  177.99,    1.10,   22.26, 20.9, 3.81, 3.80, 3.81, -90.89,  -6.07,  -0.68,  42.91,   0.76,  -4.15,  -0.64,   0.41,   0.29,   1.99, 3.83, 0.00, 0.01, 0.00, 0.00, 1, 1, 11,  42.6264522, -88.1615675,   243.0, 2025,  4,  5, 16, 53, 47,        0,        0,   0,   0,   1.4,   0.8,   1.1, 30, 26, 35,  0,  0, 35,  0,  0,  0,  0,  0,  0, 31,  0,  0,  0, 32,  0, 26,  0,  0, 28,  0, 31,  0,  0,  0,  0,  0, 27,  0,  0
6, 11115, 3,N0CALL,     0.23, 3,   boost,   80.41,  99205.00,  177.99,    1.10,   23.08, 20.9, 3.81, 3.80, 3.81, -92.01,  -0.47,   1.22,  41.68,   0.76,  -3.24,  -0.64,   0.41,   0.28,   1.96, 3.83, 0.00, 0.01, 0.00, 0.00, 1, 1, 11,  42.6264522, -88.1615675,   243.0, 2025,  4,  5, 16, 53, 47,        0,        0,   0,   0,   1.4,   0.8,   1.1, 30, 26, 35,  0,  0, 35,  0,  0,  0,  0,  0,  0, 31,  0,  0,  0, 32,  0, 26,  0,  0, 28,  0, 31,  0,  0,  0,  0,  0, 27,  0,  0
6, 11115, 3,N0CALL,     0.24, 3,   boost,   82.87,  99187.00,  179.51,    2.63,   23.89, 20.9, 3.81, 3.80, 3.81, -92.45,  -0.23,   0.94,  41.56,   0.45,  -3.73,  -0.64,   0.41,   0.28,   1.93, 3.83, 0.00, 0.01, 0.00, 0.00, 1, 1, 11,  42.6264522, -88.1615675,   243.0, 2025,  4,  5, 16, 53, 47,        0,        0,   0,   0,   1.4,   0.8,   1.1, 30, 26, 35,  0,  0, 35,  0,  0,  0,  0,  0,  0, 31,  0,  0,  0, 32,  0, 26,  0,  0, 28,  0, 31,  0,  0,  0,  0,  0, 27,  0,  0
6, 11115, 3,N0CALL,     0.25, 3,   boost,   83.85,  99187.00,  179.51,    2.63,   24.72, 20.9, 3.81, 3.80, 3.81, -92.58,  -4.56,   0.35,  40.77,  -0.83,  -3.12,  -0.64,   0.41,   0.28,   1.90, 3.83, 0.00, 0.01, 0.00, 0.00, 1, 1, 11,  42.6264522, -88.1615675,   243.0, 2025,  4,  5, 16, 53, 47,        0,        0,   0,   0,   1.4,   0.8,   1.1, 30, 26, 35,  0,  0, 35,  0,  0,  0,  0,  0,  0, 31,  0,  0,  0, 32,  0, 26,  0,  0, 28,  0, 31,  0,  0,  0,  0,  0, 27,  0,  0
6, 11115, 3,N0CALL,     0.26, 3,   boost,   82.87,  99175.00,  180.53,    3.64,   25.55, 20.9, 3.81, 3.80, 3.81, -93.18,  -5.45,  -0.02,  40.34,  -1.13,  -2.51,  -0.64,   0.41,   0.28,   1.87, 3.83, 0.00, 0.01, 0.00, 0.00, 1, 1, 11,  42.6264522, -88.1615675,   243.0, 2025,  4,  5, 16, 53, 47,        0,        0,   0,   0,   1.4,   0.8,   1.1, 30, 26, 35,  0,  0, 35,  0,  0,  0,  0,  0,  0, 31,  0,  0,  0, 32,  0, 26,  0,  0, 28,  0, 31,  0,  0,  0,  0,  0, 27,  0,  0
6, 11115, 3,N0CALL,     0.27, 3,   boost,   83.36,  99175.00,  180.53,    3.64,   26.39, 20.9, 3.81, 3.80, 3.81, -93.75,  -3.18,  -0.73,  39.00,  -1.86,  -1.84,  -0.64,   0.41,   0.28,   1.85, 3.83, 0.00, 0.01, 0.00, 0.00, 1, 1, 11,  42.6264522, -88.1615675,   243.0, 2025,  4,  5, 16, 53, 47,        0,        0,   0,   0,   1.4,   0.8,   1.1, 30, 26, 35,  0,  0, 35,  0,  0,  0,  0,  0,  0, 31,  0,  0,  0, 32,  0, 26,  0,  0, 28,  0, 31,  0,  0,  0,  0,  0, 27,  0,  0
6, 11115, 3,N0CALL,     0.28, 3,   boost,   84.83,  99181.00,  180.02,    3.13,   27.23, 20.9, 3.81, 3.80, 3.81, -94.22,  -1.22,   1.76,  38.57,  -1.93,  -1.84,  -0.64,   0.41,   0.28,   1.82, 3.83, 0.00, 0.01, 0.00, 0.00, 1, 1, 11,  42.6264522, -88.1615675,   243.0, 2025,  4,  5, 16, 53, 47,        0,        0,   0,   0,   1.4,   0.8,   1.1, 30, 26, 35,  0,  0, 35,  0,  0,  0,  0,  0,  0, 31,  0,  0,  0, 32,  0, 26,  0,  0, 28,  0, 31,  0,  0,  0,  0,  0, 27,  0,  0
6, 11115, 3,N0CALL,     0.29, 3,   boost,   85.81,  99181.00,  180.02,    3.13,   28.07, 20.9, 3.81, 3.80, 3.81, -94.75,  -2.84,   1.59,  38.69,  -2.60,  -1.59,  -0.64,   0.42,   0.28,   1.80, 3.83, 0.00, 0.01, 0.00, 0.00, 1, 1, 11,  42.6264522, -88.1615675,   243.0, 2025,  4,  5, 16, 53, 47,        0,        0,   0,   0,   1.4,   0.8,   1.1, 30, 26, 35,  0,  0, 35,  0,  0,  0,  0,  0,  0, 31,  0,  0,  0, 32,  0, 26,  0,  0, 28,  0, 31,  0,  0,  0,  0,  0, 27,  0,  0
6, 11115, 3,N0CALL,     0.30, 3,   boost,   84.83,  99174.00,  180.61,    3.73,   28.93, 20.9, 3.81, 3.80, 3.81, -95.21,  -4.55,   0.19,  38.69,  -3.51,  -0.61,  -0.64,   0.42,   0.28,   1.79, 3.83, 0.00, 0.01, 0.00, 0.00, 1, 1, 11,  42.6264522, -88.1615675,   243.0, 2025,  4,  5, 16, 53, 47,        0,        0,   0,   0,   1.4,   0.8,   1.1, 30, 26, 35,  0,  0, 35,  0,  0,  0,  0,  0,  0, 31,  0,  0,  0, 32,  0, 26,  0,  0, 28,  0, 31,  0,  0,  0,  0,  0, 27,  0,  0
6, 11115, 3,N0CALL,     0.31, 3,   boost,   85.81,  99174.00,  180.61,    3.73,   29.78, 20.9, 3.81, 3.80, 3.81, -95.82,  -4.04,  -0.14,  38.88,  -3.51,  -0.00,  -0.64,   0.42,   0.28,   1.78, 3.83, 0.00, 0.01, 0.00, 0.00, 1, 1, 11,  42.6264522, -88.1615675,   243.0, 2025,  4,  5, 16, 53, 47,        0,        0,   0,   0,   1.4,   0.8,   1.1, 30, 26, 35,  0,  0, 35,  0,  0,  0,  0,  0,  0, 31,  0,  0,  0, 32,  0, 26,  0,  0, 28,  0, 31,  0,  0,  0,  0,  0, 27,  0,  0
6, 11115, 3,N0CALL,     0.32, 3,   boost,   86.30,  99159.00,  181.88,    5.00,   30.63, 20.9, 3.81, 3.80, 3.81, -96.14,  -2.35,   1.14,  38.57,  -4.18,   0.73,  -0.64,   0.42,   0.28,   1.79, 3.83, 0.00, 0.01, 0.00, 0.00, 1, 1, 11,  42.6264522, -88.1615675,   243.0, 2025,  4,  5, 16, 53, 47,        0,        0,   0,   0,   1.4,   0.8,   1.1, 30, 26, 35,  0,  0, 35,  0,  0,  0,  0,  0,  0, 31,  0,  0,  0, 32,  0, 26,  0,  0, 28,  0, 31,  0,  0,  0,  0,  0, 27,  0,  0
6, 11115, 3,N0CALL,     0.33, 3,   boost,   85.32,  99159.00,  181.88,    5.00,   31.49, 20.9, 3.81, 3.80, 3.81, -96.23,  -3.14,   1.51,  37.47,  -4.79,   1.28,  -0.64,   0.42,   0.28,   1.79, 3.83, 0.00, 0.01, 0.00, 0.00, 1, 1, 11,  42.6264522, -88.1615675,   243.0, 2025,  4,  5, 16, 53, 47,        0,        0,   0,   0,   1.4,   0.8,   1.1, 30, 26, 35,  0,  0, 35,  0,  0,  0,  0,  0,  0, 31,  0,  0,  0, 32,  0, 26,  0,  0, 28,  0, 31,  0,  0,  0,  0,  0, 27,  0,  0
6, 11115, 3,N0CALL,     0.34, 3,   boost,   85.81,  99158.00,  181.97,    5.08,   32.35, 20.9, 3.80, 3.81, 3.81, -96.57,  -4.49,  -0.14,  36.68,  -5.16,   1.83,  -0.64,   0.42,   0.28,   1.81, 3.82, 0.00, 0.00, 0.00, 0.23, 1, 1, 11,  42.6264522, -88.1615675,   243.0, 2025,  4,  5, 16, 53, 47,        0,        0,   0,   0,   1.4,   0.8,   1.1, 30, 26, 35,  0,  0, 35,  0,  0,  0,  0,  0,  0, 31,  0,  0,  0, 32,  0, 26,  0,  0, 28,  0, 31,  0,  0,  0,  0,  0, 27,  0,  0
6, 11115, 3,N0CALL,     0.34, 3,   boost,   85.81,  99158.00,  181.97,    5.08,   32.35, 20.9, 3.80, 3.81, 3.81, -96.57,  -4.49,  -0.14,  36.68,  -5.16,   1.83,  -0.64,   0.42,   0.28,   1.81, 3.82, 0.00, 0.00, 0.00, 0.23, 1, 1, 11,  42.6264522, -88.1615675,   243.0, 2025,  4,  5, 16, 53, 47,        0,        0,   0,   0,   1.4,   0.8,   1.1, 30, 26, 35,  0,  0, 35,  0,  0,  0,  0,  0,  0, 31,  0,  0,  0, 32,  0, 26,  0,  0, 28,  0, 31,  0,  0,  0,  0,  0, 27,  0,  0
6, 11115, 3,N0CALL,     0.35, 3,   boost,   86.79,  99158.00,  181.97,    5.08,   33.22, 20.9, 3.80, 3.81, 3.81, -96.83,  -4.01,  -0.17,  36.37,  -5.16,   2.68,  -0.64,   0.43,   0.27,   1.83, 3.82, 0.00, 0.00, 0.00, 0.23, 1, 1, 11,  42.6264522, -88.1615675,   243.0, 2025,  4,  5, 16, 53, 47,        0,        0,   0,   0,   1.4,   0.8,   1.1, 30, 26, 35,  0,  0, 35,  0,  0,  0,  0,  0,  0, 31,  0,  0,  0, 32,  0, 26,  0,  0, 28,  0, 31,  0,  0,  0,  0,  0, 27,  0,  0
6, 11115, 3,N0CALL,     0.36, 3,   boost,   86.30,  99153.00,  182.39,    5.51,   34.08, 20.9, 3.80, 3.81, 3.81, -97.39,  -3.28,   0.79,  36.31,  -5.77,   3.41,  -0.64,   0.43,   0.27,   1.87, 3.82, 0.00, 0.00, 0.00, 0.23, 1, 1, 11,  42.6264522, -88.1615675,   243.0, 2025,  4,  5, 16, 53, 47,        0,        0,   0,   0,   1.4,   0.8,   1.1, 30, 26, 35,  0,  0, 35,  0,  0,  0,  0,  0,  0, 31,  0,  0,  0, 32,  0, 26,  0,  0, 28,  0, 31,  0,  0,  0,  0,  0, 27,  0,  0
6, 11115, 3,N0CALL,     0.37, 3,   boost,   87.77,  99153.00,  182.39,    5.51,   34.95, 20.9, 3.80, 3.81, 3.81, -97.65,  -3.53,   0.83,  36.31,  -6.20,   3.90,  -0.64,   0.43,   0.27,   1.91, 3.82, 0.00, 0.00, 0.00, 0.23, 1, 1, 11,  42.6264522, -88.1615675,   243.0, 2025,  4,  5, 16, 53, 47,        0,        0,   0,   0,   1.4,   0.8,   1.1, 30, 26, 35,  0,  0, 35,  0,  0,  0,  0,  0,  0, 31,  0,  0,  0, 32,  0, 26,  0,  0, 28,  0, 31,  0,  0,  0,  0,  0, 27,  0,  0
6, 11115, 3,N0CALL,     0.38, 3,   boost,   88.26,  99145.00,  183.07,    6.18,   35.83, 20.9, 3.80, 3.81, 3.81, -98.17,  -4.12,   0.19,  35.89,  -6.99,   4.94,  -0.64,   0.43,   0.27,   1.96, 3.82, 0.00, 0.00, 0.00, 0.23, 1, 1, 11,  42.6264522, -88.1615675,   243.0, 2025,  4,  5, 16, 53, 47,        0,        0,   0,   0,   1.4,   0.8,   1.1, 30, 26, 35,  0,  0, 35,  0,  0,  0,  0,  0,  0, 31,  0,  0,  0, 32,  0, 26,  0,  0, 28,  0, 31,  0,  0,  0,  0,  0, 27,  0,  0
6, 11115, 3,N0CALL,     0.39, 3,   boost,   87.77,  99145.00,  183.07,    6.18,   36.70, 20.9, 3.80, 3.81, 3.81, -98.17,  -3.82,   0.62,  35.34,  -7.11,   5.43,  -0.64,   0.43,   0.27,   2.03, 3.82, 0.00, 0.00, 0.00, 0.23, 1, 1, 11,  42.6264522, -88.1615675,   243.0, 2025,  4,  5, 16, 53, 47,        0,        0,   0,   0,   1.4,   0.8,   1.1, 30, 26, 35,  0,  0, 35,  0,  0,  0,  0,  0,  0, 31,  0,  0,  0, 32,  0, 26,  0,  0, 28,  0, 31,  0,  0,  0,  0,  0, 27,  0,  0
6, 11115, 3,N0CALL,     0.40, 3,   boost,   87.77,  99134.00,  184.00,    7.11,   37.58, 20.9, 3.80, 3.81, 3.81, -98.35,  -3.29,   1.36,  35.40,  -7.72,   5.92,  -0.64,   0.43,   0.27,   2.10, 3.82, 0.00, 0.00, 0.00, 0.23, 1, 1, 11,  42.6264522, -88.1615675,   243.0, 2025,  4,  5, 16, 53, 47,        0,        0,   0,   0,   1.4,   0.8,   1.1, 30, 26, 35,  0,  0, 35,  0,  0,  0,  0,  0,  0, 31,  0,  0,  0, 32,  0, 26,  0,  0, 28,  0, 31,  0,  0,  0,  0,  0, 27,  0,  0
6, 11115, 3,N0CALL,     0.41, 3,   boost,   87.28,  99134.00,  184.00,    7.11,   38.46, 20.9, 3.80, 3.81, 3.81, -98.86,  -4.01,   0.29,  35.03,  -8.15,   6.83,  -0.64,   0.43,   0.27,   2.18, 3.82, 0.00, 0.00, 0.00, 0.23, 1, 1, 11,  42.6264522, -88.1615675,   243.0, 2025,  4,  5, 16, 53, 47,        0,        0,   0,   0,   1.4,   0.8,   1.1, 30, 26, 35,  0,  0, 35,  0,  0,  0,  0,  0,  0, 31,  0,  0,  0, 32,  0, 26,  0,  0, 28,  0, 31,  0,  0,  0,  0,  0, 27,  0,  0
6, 11115, 3,N0CALL,     0.42, 3,   boost,   88.75,  99120.00,  185.19,    8.30,   39.34, 20.9, 3.80, 3.81, 3.81, -99.42,  -4.17,   0.57,  34.60,  -8.52,   7.08,  -0.64,   0.43,   0.27,   2.27, 3.82, 0.00, 0.00, 0.00, 0.23, 1, 1, 11,  42.6264522, -88.1615675,   243.0, 2025,  4,  5, 16, 53, 47,        0,        0,   0,   0,   1.4,   0.8,   1.1, 30, 26, 35,  0,  0, 35,  0,  0,  0,  0,  0,  0, 31,  0,  0,  0, 32,  0, 26,  0,  0, 28,  0, 31,  0,  0,  0,  0,  0, 27,  0,  0
6, 11115, 3,N0CALL,     0.43, 3,   boost,   88.75,  99120.00,  185.19,    8.30,   40.22, 20.9, 3.80, 3.81, 3.81, -99.54,  -3.58,   1.11,  33.75,  -8.21,   7.81,  -0.64,   0.44,   0.27,   2.37, 3.82, 0.00, 0.00, 0.00, 0.23, 1, 1, 11,  42.6264522, -88.1615675,   243.0, 2025,  4,  5, 16, 53, 47,        0,        0,   0,   0,   1.4,   0.8,   1.1, 30, 26, 35,  0,  0, 35,  0,  0,  0,  0,  0,  0, 31,  0,  0,  0, 32,  0, 26,  0,  0, 28,  0, 31,  0,  0,  0,  0,  0, 27,  0,  0
6, 11115, 3,N0CALL,     0.44, 3,   boost,   88.26,  99108.00,  186.20,    9.32,   41.11, 20.9, 3.80, 3.81, 3.81, -99.75,  -3.58,   1.08,  34.24,  -8.64,   8.60,  -0.64,   0.44,   0.27,   2.47, 3.82, 0.00, 0.00, 0.00, 0.23, 1, 1, 11,  42.6264522, -88.1615675,   243.0, 2025,  4,  5, 16, 53, 47,        0,        0,   0,   0,   1.4,   0.8,   1.1, 30, 26, 35,  0,  0, 35,  0,  0,  0,  0,  0,  0, 31,  0,  0,  0, 32,  0, 26,  0,  0, 28,  0, 31,  0,  0,  0,  0,  0, 27,  0,  0
6, 11115, 3,N0CALL,     0.45, 3,   boost,   89.73,  99108.00,  186.20,    9.32,   42.00, 20.9, 3.80, 3.81, 3.81,-100.06,  -4.17,   0.49,  33.99,  -8.94,   9.33,  -0.64,   0.44,   0.27,   2.59, 3.82, 0.00, 0.00, 0.00, 0.23, 1, 1, 11,  42.6264522, -88.1615675,   243.0, 2025,  4,  5, 16, 53, 47,        0,        0,   0,   0,   1.4,   0.8,   1.1, 30, 26, 35,  0,  0, 35,  0,  0,  0,  0,  0,  0, 31,  0,  0,  0, 32,  0, 26,  0,  0, 28,  0, 31,  0,  0,  0,  0,  0, 27,  0,  0
6, 11115, 3,N0CALL,     0.46, 3,   boost,   90.22,  99110.00,  186.04,    9.15,   42.89, 20.9, 3.80, 3.81, 3.81,-100.48,  -4.12,   0.96,  34.85,  -9.13,   9.94,  -0.64,   0.44,   0.26,   2.71, 3.82, 0.00, 0.00, 0.00, 0.23, 1, 1, 11,  42.6264522, -88.1615675,   243.0, 2025,  4,  5, 16, 53, 47,        0,        0,   0,   0,   1.4,   0.8,   1.1, 30, 26, 35,  0,  0, 35,  0,  0,  0,  0,  0,  0, 31,  0,  0,  0, 32,  0, 26,  0,  0, 28,  0, 31,  0,  0,  0,  0,  0, 27,  0,  0
6, 11115, 3,N0CALL,     0.47, 3,   boost,   89.73,  99110.00,  186.04,    9.15,   43.79, 20.9, 3.80, 3.81, 3.81,-100.76,  -3.75,   1.33,  36.37,  -8.88,  10.98,  -0.64,   0.44,   0.26,   2.85, 3.82, 0.00, 0.00, 0.00, 0.23, 1, 1, 11,  42.6264522, -88.1615675,   243.0, 2025,  4,  5, 16, 53, 47,        0,        0,   0,   0,   1.4,   0.8,   1.1, 30, 26, 35,  0,  0, 35,  0,  0,  0,  0,  0,  0, 31,  0,  0,  0, 32,  0, 26,  0,  0, 28,  0, 31,  0,  0,  0,  0,  0, 27,  0,  0
6, 11115, 3,N0CALL,     0.48, 3,   boost,   89.24,  99082.00,  188.41,   11.52,   44.68, 20.9, 3.80, 3.81, 3.81,-100.82,  -3.93,   1.12,  37.23,  -9.43,  12.08,  -0.64,   0.45,   0.26,   3.00, 3.82, 0.00, 0.00, 0.00, 0.23, 1, 1, 11,  42.6264522, -88.1615675,   243.0, 2025,  4,  5, 16, 53, 47,        0,        0,   0,   0,   1.4,   0.8,   1.1, 30, 26, 35,  0,  0, 35,  0,  0,  0,  0,  0,  0, 31,  0,  0,  0, 32,  0, 26,  0,  0, 28,  0, 31,  0,  0,  0,  0,  0, 27,  0,  0
6, 11115, 3,N0CALL,     0.49, 3,   boost,   88.75,  99082.00,  188.41,   11.52,   45.57, 20.9, 3.80, 3.81, 3.81,-101.17,  -4.09,   0.63,  37.05,  -8.94,  12.81,  -0.64,   0.45,   0.26,   3.15, 3.82, 0.00, 0.00, 0.00, 0.23, 1, 1, 11,  42.6264522, -88.1615675,   243.0, 2025,  4,  5, 16, 53, 47,        0,        0,   0,   0,   1.4,   0.8,   1.1, 30, 26, 35,  0,  0, 35,  0,  0,  0,  0,  0,  0, 31,  0,  0,  0, 32,  0, 26,  0,  0, 28,  0, 31,  0,  0,  0,  0,  0, 27,  0,  0
6, 11115, 3,N0CALL,     0.50, 3,   boost,   89.24,  99090.00,  187.73,   10.84,   46.47, 20.9, 3.80, 3.81, 3.81,-101.27,  -4.02,   1.03,  36.62,  -9.62,  13.61,  -0.64,   0.45,   0.26,   3.31, 3.82, 0.00, 0.00, 0.00, 0.23, 1, 1, 11,  42.6264522, -88.1615675,   243.0, 2025,  4,  5, 16, 53, 47,        0,        0,   0,   0,   1.4,   0.8,   1.1, 30, 26, 35,  0,  0, 35,  0,  0,  0,  0,  0,  0, 31,  0,  0,  0, 32,  0, 26,  0,  0, 28,  0, 31,  0,  0,  0,  0,  0, 27,  0,  0
6, 11115, 3,N0CALL,     0.51, 3,   boost,   89.24,  99090.00,  187.73,   10.84,   47.36, 20.9, 3.80, 3.81, 3.81,-101.47,  -3.64,   1.43,  36.07,  -9.31,  14.28,  -0.64,   0.45,   0.26,   3.48, 3.82, 0.00, 0.00, 0.00, 0.23, 1, 1, 11,  42.6264522, -88.1615675,   243.0, 2025,  4,  5, 16, 53, 47,        0,        0,   0,   0,   1.4,   0.8,   1.1, 30, 26, 35,  0,  0, 35,  0,  0,  0,  0,  0,  0, 31,  0,  0,  0, 32,  0, 26,  0,  0, 28,  0, 31,  0,  0,  0,  0,  0, 27,  0,  0
6, 11115, 3,N0CALL,     0.52, 3,   boost,   90.22,  99072.00,  189.26,   12.37,   48.25, 20.9, 3.80, 3.81, 3.81,-101.59,  -3.84,   1.25,  35.52,  -9.68,  15.07,  -0.64,   0.46,   0.25,   3.66, 3.82, 0.00, 0.00, 0.00, 0.23, 1, 1, 11,  42.6264522, -88.1615675,   243.0, 2025,  4,  5, 16, 53, 47,        0,        0,   0,   0,   1.4,   0.8,   1.1, 30, 26, 35,  0,  0, 35,  0,  0,  0,  0,  0,  0, 31,  0,  0,  0, 32,  0, 26,  0,  0, 28,  0, 31,  0,  0,  0,  0,  0, 27,  0,  0
6, 11115, 3,N0CALL,     0.53, 3,   boost,   90.22,  99072.00,  189.26,   12.37,   49.15, 20.9, 3.80, 3.81, 3.81,-101.80,  -4.14,   0.95,  35.52,  -9.80,  15.99,  -0.64,   0.46,   0.25,   3.85, 3.82, 0.00, 0.00, 0.00, 0.23, 1, 1, 11,  42.6264522, -88.1615675,   243.0, 2025,  4,  5, 16, 53, 47,        0,        0,   0,   0,   1.4,   0.8,   1.1, 30, 26, 35,  0,  0, 35,  0,  0,  0,  0,  0,  0, 31,  0,  0,  0, 32,  0, 26,  0,  0, 28,  0, 31,  0,  0,  0,  0,  0, 27,  0,  0
6, 11115, 3,N0CALL,     0.54, 3,   boost,   90.22,  99058.00,  190.44,   13.56,   50.05, 20.9, 3.80, 3.81, 3.81,-101.98,  -3.96,   1.26,  34.79,  -9.31,  17.21,  -0.64,   0.46,   0.25,   4.04, 3.82, 0.00, 0.00, 0.00, 0.23, 1, 1, 11,  42.6264522, -88.1615675,   243.0, 2025,  4,  5, 16, 53, 47,        0,        0,   0,   0,   1.4,   0.8,   1.1, 30, 26, 35,  0,  0, 35,  0,  0,  0,  0,  0,  0, 31,  0,  0,  0, 32,  0, 26,  0,  0, 28,  0, 31,  0,  0,  0,  0,  0, 27,  0,  0
6, 11115, 3,N0CALL,     0.55, 3,   boost,   91.69,  99058.00,  190.44,   13.56,   50.96, 20.9, 3.80, 3.81, 3.81,-102.00,  -3.67,   1.53,  34.18,  -9.37,  17.70,  -0.64,   0.46,   0.25,   4.24, 3.82, 0.00, 0.00, 0.00, 0.23, 1, 1, 11,  42.6264522, -88.1615675,   243.0, 2025,  4,  5, 16, 53, 47,        0,        0,   0,   0,   1.4,   0.8,   1.1, 30, 26, 35,  0,  0, 35,  0,  0,  0,  0,  0,  0, 31,  0,  0,  0, 32,  0, 26,  0,  0, 28,  0, 31,  0,  0,  0,  0,  0, 27,  0,  0
6, 11115, 3,N0CALL,     0.56, 3,   boost,   90.71,  99051.00,  191.04,   14.15,   51.86, 20.9, 3.80, 3.81, 3.81,-102.15,  -3.88,   1.29,  32.83,  -9.19,  18.49,  -0.64,   0.46,   0.25,   4.45, 3.82, 0.00, 0.00, 0.00, 0.23, 1, 1, 11,  42.6264522, -88.1615675,   243.0, 2025,  4,  5, 16, 53, 47,        0,        0,   0,   0,   1.4,   0.8,   1.1, 30, 26, 35,  0,  0, 35,  0,  0,  0,  0,  0,  0, 31,  0,  0,  0, 32,  0, 26,  0,  0, 28,  0, 31,  0,  0,  0,  0,  0, 27,  0,  0
6, 11115, 3,N0CALL,     0.57, 3,   boost,   91.20,  99051.00,  191.04,   14.15,   52.77, 20.9, 3.80, 3.81, 3.81,-102.43,  -3.98,   1.16,  30.94,  -9.31,  19.34,  -0.64,   0.47,   0.25,   4.66, 3.82, 0.00, 0.00, 0.00, 0.23, 1, 1, 11,  42.6264522, -88.1615675,   243.0, 2025,  4,  5, 16, 53, 47,        0,        0,   0,   0,   1.4,   0.8,   1.1, 30, 26, 35,  0,  0, 35,  0,  0,  0,  0,  0,  0, 31,  0,  0,  0, 32,  0, 26,  0,  0, 28,  0, 31,  0,  0,  0,  0,  0, 27,  0,  0
