#version,serial,flight,call,time,state,state_name,acceleration,pressure,altitude,height,speed,temperature,drogue_voltage,main_voltage,battery_voltage,accel_x,accel_y,accel_z,gyro_roll,gyro_pitch,gyro_yaw,mag_x,mag_y,mag_z,tilt,pyro,igniter_a,igniter_b,igniter_c,igniter_d,connected,locked,nsat,latitude,longitude,altitude,year,month,day,hour,minute,second,pad_dist,pad_range,pad_az,pad_el,pdop,hdop,vdop,sat01,sat02,sat03,sat04,sat05,sat06,sat07,sat08,sat09,sat10,sat11,sat12,sat13,sat14,sat15,sat16,sat17,sat18,sat19,sat20,sat21,sat22,sat23,sat24,sat25,sat26,sat27,sat28,sat29,sat30,sat31,sat32
6, 11115, 5,N0CALL,    -0.30, 3,   boost,   -1.96,  98573.00,  231.64,    0.26,    0.00, 22.1, 3.85, 3.84, 3.85,  -9.81,  -1.01,   0.11,   0.57,   0.24,  -0.06,  -0.61,   0.18,   0.15,   5.89, 3.86, 0.00, 0.00, 0.00, 0.00, 1, 1, 12,  34.8946472, -86.6165756,   240.0, 2025,  5,  4, 14, 47, 58,        0,        0,   0,   0,   1.1,   0.7,   0.9, 34, 36, 40,  0,  0, 22, 32,  0,  0,  0, 22,  0, 12, 31,  0,  0, 27,  0, 32,  0,  0, 27,  0, 36,  0,  0,  0,  0,  0,  0,  0,  0
6, 11115, 5,N0CALL,    -0.29, 3,   boost,   -0.98,  98573.00,  231.64,    0.26,    0.00, 22.1, 3.85, 3.84, 3.85,  -9.83,  -0.93,   0.08,   0.20,  -0.13,  -0.12,  -0.61,   0.18,   0.15,   5.89, 3.86, 0.00, 0.00, 0.00, 0.00, 1, 1, 12,  34.8946472, -86.6165756,   240.0, 2025,  5,  4, 14, 47, 58,        0,        0,   0,   0,   1.1,   0.7,   0.9, 34, 36, 40,  0,  0, 22, 32,  0,  0,  0, 22,  0, 12, 31,  0,  0, 27,  0, 32,  0,  0, 27,  0, 36,  0,  0,  0,  0,  0,  0,  0,  0
6, 11115, 5,N0CALL,    -0.28, 3,   boost,    0.98,  98569.00,  231.98,    0.60,    0.00, 22.1, 3.85, 3.84, 3.85,  -9.78,  -0.91,   0.08,  -0.17,   0.30,  -0.00,  -0.61,   0.18,   0.15,   5.89, 3.86, 0.00, 0.00, 0.00, 0.00, 1, 1, 12,  34.8946472, -86.6165756,   240.0, 2025,  5,  4, 14, 47, 58,        0,        0,   0,   0,   1.1,   0.7,   0.9, 34, 36, 40,  0,  0, 22, 32,  0,  0,  0, 22,  0, 12, 31,  0,  0, 27,  0, 32,  0,  0, 27,  0, 36,  0,  0,  0,  0,  0,  0,  0,  0
6, 11115, 5,N0CALL,    -0.27, 3,   boost,   -0.49,  98569.00,  231.98,    0.60,    0.00, 22.1, 3.85, 3.84, 3.85,  -9.76,  -0.98,   0.12,  -0.41,  -0.01,  -0.00,  -0.61,   0.18,   0.15,   5.89, 3.86, 0.00, 0.00, 0.00, 0.00, 1, 1, 12,  34.8946472, -86.6165756,   240.0, 2025,  5,  4, 14, 47, 58,        0,        0,   0,   0,   1.1,   0.7,   0.9, 34, 36, 40,  0,  0, 22, 32,  0,  0,  0, 22,  0, 12, 31,  0,  0, 27,  0, 32,  0,  0, 27,  0, 36,  0,  0,  0,  0,  0,  0,  0,  0
6, 11115, 5,N0CALL,    -0.26, 3,   boost,   -0.49,  98569.00,  231.98,    0.60,    0.00, 22.1, 3.85, 3.84, 3.85,  -9.76,  -0.97,   0.02,  -0.53,  -0.19,  -0.00,  -0.61,   0.18,   0.15,   5.89, 3.86, 0.00, 0.00, 0.00, 0.00, 1, 1, 12,  34.8946472, -86.6165756,   240.0, 2025,  5,  4, 14, 47, 58,        0,        0,   0,   0,   1.1,   0.7,   0.9, 34, 36, 40,  0,  0, 22, 32,  0,  0,  0, 22,  0, 12, 31,  0,  0, 27,  0, 32,  0,  0, 27,  0, 36,  0,  0,  0,  0,  0,  0,  0,  0
6, 11115, 5,N0CALL,    -0.25, 3,   boost,   -0.00,  98569.00,  231.98,    0.60,    0.00, 22.1, 3.85, 3.84, 3.85,  -9.83,  -0.88,   0.06,   0.08,  -0.13,   0.30,  -0.61,   0.18,   0.15,   5.89, 3.86, 0.00, 0.00, 0.00, 0.00, 1, 1, 12,  34.8946472, -86.6165756,   240.0, 2025,  5,  4, 14, 47, 58,        0,        0,   0,   0,   1.1,   0.7,   0.9, 34, 36, 40,  0,  0, 22, 32,  0,  0,  0, 22,  0, 12, 31,  0,  0, 27,  0, 32,  0,  0, 27,  0, 36,  0,  0,  0,  0,  0,  0,  0,  0
6, 11115, 5,N0CALL,    -0.24, 3,   boost,   -1.47,  98572.00,  231.73,    0.34,    0.00, 22.1, 3.85, 3.84, 3.85,  -9.80,  -0.96,   0.14,   0.20,   0.12,  -0.12,  -0.61,   0.18,   0.15,   5.89, 3.86, 0.00, 0.00, 0.00, 0.00, 1, 1, 12,  34.8946472, -86.6165756,   240.0, 2025,  5,  4, 14, 47, 58,        0,        0,   0,   0,   1.1,   0.7,   0.9, 34, 36, 40,  0,  0, 22, 32,  0,  0,  0, 22,  0, 12, 31,  0,  0, 27,  0, 32,  0,  0, 27,  0, 36,  0,  0,  0,  0,  0,  0,  0,  0
6, 11115, 5,N0CALL,    -0.23, 3,   boost,   -0.49,  98572.00,  231.73,    0.34,    0.00, 22.1, 3.85, 3.84, 3.85,  -9.76,  -1.03,   0.09,  -0.04,  -0.01,  -0.06,  -0.61,   0.19,   0.15,   5.89, 3.86, 0.00, 0.00, 0.00, 0.00, 1, 1, 12,  34.8946472, -86.6165756,   240.0, 2025,  5,  4, 14, 47, 58,        0,        0,   0,   0,   1.1,   0.7,   0.9, 34, 36, 40,  0,  0, 22, 32,  0,  0,  0, 22,  0, 12, 31,  0,  0, 27,  0, 32,  0,  0, 27,  0, 36,  0,  0,  0,  0,  0,  0,  0,  0
6, 11115, 5,N0CALL,    -0.22, 3,   boost,   -0.00,  98576.00,  231.39,    0.00,    0.00, 22.1, 3.85, 3.84, 3.85,  -9.80,  -0.91,   0.08,   0.20,   0.12,   0.18,  -0.61,   0.18,   0.15,   5.89, 3.86, 0.00, 0.00, 0.00, 0.00, 1, 1, 12,  34.8946472, -86.6165756,   240.0, 2025,  5,  4, 14, 47, 58,        0,        0,   0,   0,   1.1,   0.7,   0.9, 34, 36, 40,  0,  0, 22, 32,  0,  0,  0, 22,  0, 12, 31,  0,  0, 27,  0, 32,  0,  0, 27,  0, 36,  0,  0,  0,  0,  0,  0,  0,  0
6, 11115, 5,N0CALL,    -0.21, 3,   boost,   -0.00,  98576.00,  231.39,    0.00,    0.00, 22.1, 3.85, 3.84, 3.85,  -9.81,  -0.92,   0.12,   0.14,   0.18,   0.30,  -0.61,   0.18,   0.15,   5.89, 3.86, 0.00, 0.00, 0.00, 0.00, 1, 1, 12,  34.8946472, -86.6165756,   240.0, 2025,  5,  4, 14, 47, 58,        0,        0,   0,   0,   1.1,   0.7,   0.9, 34, 36, 40,  0,  0, 22, 32,  0,  0,  0, 22,  0, 12, 31,  0,  0, 27,  0, 32,  0,  0, 27,  0, 36,  0,  0,  0,  0,  0,  0,  0,  0
6, 11115, 5,N0CALL,    -0.20, 3,   boost,   -2.94,  98581.00,  230.96,   -0.43,    0.00, 22.1, 3.85, 3.84, 3.85,  -9.77,  -1.00,   0.08,   0.02,   0.05,   0.12,  -0.61,   0.19,   0.15,   5.89, 3.86, 0.00, 0.00, 0.00, 0.00, 1, 1, 12,  34.8946472, -86.6165756,   240.0, 2025,  5,  4, 14, 47, 58,        0,        0,   0,   0,   1.1,   0.7,   0.9, 34, 36, 40,  0,  0, 22, 32,  0,  0,  0, 22,  0, 12, 31,  0,  0, 27,  0, 32,  0,  0, 27,  0, 36,  0,  0,  0,  0,  0,  0,  0,  0
6, 11115, 5,N0CALL,    -0.19, 3,   boost,   -0.49,  98581.00,  230.96,   -0.43,    0.00, 22.1, 3.85, 3.84, 3.85,  -9.76,  -1.01,   0.05,  -0.29,  -0.13,   0.24,  -0.61,   0.18,   0.15,   5.89, 3.86, 0.00, 0.00, 0.00, 0.00, 1, 1, 12,  34.8946472, -86.6165756,   240.0, 2025,  5,  4, 14, 47, 58,        0,        0,   0,   0,   1.1,   0.7,   0.9, 34, 36, 40,  0,  0, 22, 32,  0,  0,  0, 22,  0, 12, 31,  0,  0, 27,  0, 32,  0,  0, 27,  0, 36,  0,  0,  0,  0,  0,  0,  0,  0
6, 11115, 5,N0CALL,    -0.18, 3,   boost,   -1.96,  98577.00,  231.30,   -0.09,    0.00, 22.1, 3.85, 3.84, 3.85,  -9.78,  -0.89,   0.09,  -0.04,  -0.25,   0.18,  -0.61,   0.18,   0.15,   5.89, 3.86, 0.00, 0.00, 0.00, 0.00, 1, 1, 12,  34.8946472, -86.6165756,   240.0, 2025,  5,  4, 14, 47, 58,        0,        0,   0,   0,   1.1,   0.7,   0.9, 34, 36, 40,  0,  0, 22, 32,  0,  0,  0, 22,  0, 12, 31,  0,  0, 27,  0, 32,  0,  0, 27,  0, 36,  0,  0,  0,  0,  0,  0,  0,  0
6, 11115, 5,N0CALL,    -0.17, 3,   boost,   -1.47,  98577.00,  231.30,   -0.09,    0.00, 22.1, 3.85, 3.84, 3.85,  -9.79,  -0.93,   0.16,  -0.10,  -0.01,   0.30,  -0.61,   0.18,   0.15,   5.89, 3.86, 0.00, 0.00, 0.00, 0.00, 1, 1, 12,  34.8946472, -86.6165756,   240.0, 2025,  5,  4, 14, 47, 58,        0,        0,   0,   0,   1.1,   0.7,   0.9, 34, 36, 40,  0,  0, 22, 32,  0,  0,  0, 22,  0, 12, 31,  0,  0, 27,  0, 32,  0,  0, 27,  0, 36,  0,  0,  0,  0,  0,  0,  0,  0
6, 11115, 5,N0CALL,    -0.16, 3,   boost,   -2.45,  98576.00,  231.39,    0.00,    0.00, 22.1, 3.85, 3.84, 3.85,  -9.79,  -1.02,   0.00,  -0.17,   0.12,   0.30,  -0.61,   0.18,   0.15,   5.89, 3.86, 0.00, 0.00, 0.00, 0.00, 1, 1, 12,  34.8946472, -86.6165756,   240.0, 2025,  5,  4, 14, 47, 58,        0,        0,   0,   0,   1.1,   0.7,   0.9, 34, 36, 40,  0,  0, 22, 32,  0,  0,  0, 22,  0, 12, 31,  0,  0, 27,  0, 32,  0,  0, 27,  0, 36,  0,  0,  0,  0,  0,  0,  0,  0
6, 11115, 5,N0CALL,    -0.15, 3,   boost,   -0.98,  98576.00,  231.39,    0.00,    0.00, 22.1, 3.85, 3.84, 3.85,  -9.77,  -1.04,   0.14,   0.20,  -0.01,   0.18,  -0.61,   0.19,   0.15,   5.89, 3.86, 0.00, 0.00, 0.00, 0.00, 1, 1, 12,  34.8946472, -86.6165756,   240.0, 2025,  5,  4, 14, 47, 58,        0,        0,   0,   0,   1.1,   0.7,   0.9, 34, 36, 40,  0,  0, 22, 32,  0,  0,  0, 22,  0, 12, 31,  0,  0, 27,  0, 32,  0,  0, 27,  0, 36,  0,  0,  0,  0,  0,  0,  0,  0
6, 11115, 5,N0CALL,    -0.14, 3,   boost,   -1.47,  98571.00,  231.81,    0.43,    0.00, 22.1, 3.85, 3.84, 3.85,  -9.76,  -0.98,   0.11,   0.45,   0.30,   0.24,  -0.61,   0.18,   0.15,   5.89, 3.86, 0.00, 0.00, 0.00, 0.00, 1, 1, 12,  34.8946472, -86.6165756,   240.0, 2025,  5,  4, 14, 47, 58,        0,        0,   0,   0,   1.1,   0.7,   0.9, 34, 36, 40,  0,  0, 22, 32,  0,  0,  0, 22,  0, 12, 31,  0,  0, 27,  0, 32,  0,  0, 27,  0, 36,  0,  0,  0,  0,  0,  0,  0,  0
6, 11115, 5,N0CALL,    -0.13, 3,   boost,   -0.98,  98571.00,  231.81,    0.43,    0.00, 22.1, 3.85, 3.84, 3.85,  -9.81,  -1.03,   0.23,   0.26,   0.24,   0.24,  -0.61,   0.19,   0.15,   5.89, 3.86, 0.00, 0.00, 0.00, 0.00, 1, 1, 12,  34.8946472, -86.6165756,   240.0, 2025,  5,  4, 14, 47, 58,        0,        0,   0,   0,   1.1,   0.7,   0.9, 34, 36, 40,  0,  0, 22, 32,  0,  0,  0, 22,  0, 12, 31,  0,  0, 27,  0, 32,  0,  0, 27,  0, 36,  0,  0,  0,  0,  0,  0,  0,  0
6, 11115, 5,N0CALL,    -0.12, 3,   boost,   -0.49,  98582.00,  230.88,   -0.51,    0.00, 22.1, 3.85, 3.84, 3.85,  -9.75,  -0.99,  -0.09,  -0.10,   0.30,   0.06,  -0.61,   0.18,   0.15,   5.89, 3.86, 0.00, 0.00, 0.00, 0.00, 1, 1, 12,  34.8946472, -86.6165756,   240.0, 2025,  5,  4, 14, 47, 58,        0,        0,   0,   0,   1.1,   0.7,   0.9, 34, 36, 40,  0,  0, 22, 32,  0,  0,  0, 22,  0, 12, 31,  0,  0, 27,  0, 32,  0,  0, 27,  0, 36,  0,  0,  0,  0,  0,  0,  0,  0
6, 11115, 5,N0CALL,    -0.11, 3,   boost,   -0.49,  98582.00,  230.88,   -0.51,    0.00, 22.1, 3.85, 3.84, 3.85,  -9.81,  -1.03,   0.21,  -0.47,  -0.07,   0.18,  -0.61,   0.19,   0.15,   5.89, 3.86, 0.00, 0.00, 0.00, 0.00, 1, 1, 12,  34.8946472, -86.6165756,   240.0, 2025,  5,  4, 14, 47, 58,        0,        0,   0,   0,   1.1,   0.7,   0.9, 34, 36, 40,  0,  0, 22, 32,  0,  0,  0, 22,  0, 12, 31,  0,  0, 27,  0, 32,  0,  0, 27,  0, 36,  0,  0,  0,  0,  0,  0,  0,  0
6, 11115, 5,N0CALL,    -0.10, 3,   boost,   -2.45,  98571.00,  231.81,    0.43,    0.00, 22.1, 3.85, 3.84, 3.85,  -9.75,  -1.01,   0.05,  -0.78,  -0.01,  -0.00,  -0.61,   0.19,   0.15,   5.89, 3.86, 0.00, 0.00, 0.00, 0.00, 1, 1, 12,  34.8946472, -86.6165756,   240.0, 2025,  5,  4, 14, 47, 58,        0,        0,   0,   0,   1.1,   0.7,   0.9, 34, 36, 40,  0,  0, 22, 32,  0,  0,  0, 22,  0, 12, 31,  0,  0, 27,  0, 32,  0,  0, 27,  0, 36,  0,  0,  0,  0,  0,  0,  0,  0
6, 11115, 5,N0CALL,    -0.09, 3,   boost,    1.47,  98571.00,  231.81,    0.43,    0.00, 22.1, 3.85, 3.84, 3.85,  -9.81,  -1.23,   0.18,  -0.23,  -0.07,   0.06,  -0.61,   0.18,   0.15,   5.89, 3.86, 0.00, 0.00, 0.00, 0.00, 1, 1, 12,  34.8946472, -86.6165756,   240.0, 2025,  5,  4, 14, 47, 58,        0,        0,   0,   0,   1.1,   0.7,   0.9, 34, 36, 40,  0,  0, 22, 32,  0,  0,  0, 22,  0, 12, 31,  0,  0, 27,  0, 32,  0,  0, 27,  0, 36,  0,  0,  0,  0,  0,  0,  0,  0
6, 11115, 5,N0CALL,    -0.08, 3,   boost,   -0.00,  98575.00,  231.47,    0.09,    0.02, 22.1, 3.85, 3.84, 3.85,  -9.74,  -1.05,   0.04,   0.14,   0.36,   0.18,  -0.61,   0.18,   0.15,   5.89, 3.86, 0.00, 0.00, 0.00, 0.00, 1, 1, 12,  34.8946472, -86.6165756,   240.0, 2025,  5,  4, 14, 47, 58,        0,        0,   0,   0,   1.1,   0.7,   0.9, 34, 36, 40,  0,  0, 22, 32,  0,  0,  0, 22,  0, 12, 31,  0,  0, 27,  0, 32,  0,  0, 27,  0, 36,  0,  0,  0,  0,  0,  0,  0,  0
6, 11115, 5,N0CALL,    -0.07, 3,   boost,   -0.49,  98575.00,  231.47,    0.09,    0.10, 22.1, 3.85, 3.84, 3.85,  -9.79,  -1.09,   0.22,   0.02,  -0.01,  -0.00,  -0.61,   0.18,   0.15,   5.89, 3.86, 0.00, 0.00, 0.00, 0.00, 1, 1, 12,  34.8946472, -86.6165756,   240.0, 2025,  5,  4, 14, 47, 58,        0,        0,   0,   0,   1.1,   0.7,   0.9, 34, 36, 40,  0,  0, 22, 32,  0,  0,  0, 22,  0, 12, 31,  0,  0, 27,  0, 32,  0,  0, 27,  0, 36,  0,  0,  0,  0,  0,  0,  0,  0
6, 11115, 5,N0CALL,    -0.06, 3,   boost,   -0.49,  98576.00,  231.39,    0.00,    0.30, 22.1, 3.85, 3.84, 3.85,  -9.77,  -1.06,   0.09,   0.32,  -0.01,  -0.19,  -0.61,   0.18,   0.15,   5.89, 3.86, 0.00, 0.00, 0.00, 0.00, 1, 1, 12,  34.8946472, -86.6165756,   240.0, 2025,  5,  4, 14, 47, 58,        0,        0,   0,   0,   1.1,   0.7,   0.9, 34, 36, 40,  0,  0, 22, 32,  0,  0,  0, 22,  0, 12, 31,  0,  0, 27,  0, 32,  0,  0, 27,  0, 36,  0,  0,  0,  0,  0,  0,  0,  0
6, 11115, 5,N0CALL,    -0.05, 3,   boost,   50.01,  98576.00,  231.39,    0.00,    0.68, 22.1, 3.85, 3.84, 3.85, -11.37,  -1.24,   0.14,   0.32,   0.05,   0.18,  -0.61,   0.19,   0.15,   5.89, 3.86, 0.00, 0.00, 0.00, 0.00, 1, 1, 12,  34.8946472, -86.6165756,   240.0, 2025,  5,  4, 14, 47, 58,        0,        0,   0,   0,   1.1,   0.7,   0.9, 34, 36, 40,  0,  0, 22, 32,  0,  0,  0, 22,  0, 12, 31,  0,  0, 27,  0, 32,  0,  0, 27,  0, 36,  0,  0,  0,  0,  0,  0,  0,  0
6, 11115, 5,N0CALL,    -0.04, 3,   boost,  107.38,  98637.00,  226.20,   -5.19,    1.28, 22.1, 3.85, 3.84, 3.85, -75.22,   5.78,  -6.37,   5.02,   2.07,   0.49,  -0.61,   0.19,   0.15,   5.89, 3.86, 0.00, 0.00, 0.00, 0.00, 1, 1, 12,  34.8946472, -86.6165756,   240.0, 2025,  5,  4, 14, 47, 58,        0,        0,   0,   0,   1.1,   0.7,   0.9, 34, 36, 40,  0,  0, 22, 32,  0,  0,  0, 22,  0, 12, 31,  0,  0, 27,  0, 32,  0,  0, 27,  0, 36,  0,  0,  0,  0,  0,  0,  0,  0
6, 11115, 5,N0CALL,    -0.03, 3,   boost,  111.31,  98637.00,  226.20,   -5.19,    2.08, 22.1, 3.85, 3.84, 3.85,-123.21, -22.53,  -3.92,  18.57,  -1.41,   3.17,  -0.61,   0.19,   0.15,   5.89, 3.86, 0.00, 0.00, 0.00, 0.00, 1, 1, 12,  34.8946472, -86.6165756,   240.0, 2025,  5,  4, 14, 47, 58,        0,        0,   0,   0,   1.1,   0.7,   0.9, 34, 36, 40,  0,  0, 22, 32,  0,  0,  0, 22,  0, 12, 31,  0,  0, 27,  0, 32,  0,  0, 27,  0, 36,  0,  0,  0,  0,  0,  0,  0,  0
6, 11115, 5,N0CALL,    -0.02, 3,   boost,  110.82,  98549.00,  233.69,    2.30,    3.02, 22.1, 3.85, 3.84, 3.85,-122.41,  -2.21,   0.97,   9.97,   0.73,   0.30,  -0.61,   0.19,   0.15,   5.89, 3.86, 0.00, 0.00, 0.00, 0.00, 1, 1, 12,  34.8946472, -86.6165756,   240.0, 2025,  5,  4, 14, 47, 58,        0,        0,   0,   0,   1.1,   0.7,   0.9, 34, 36, 40,  0,  0, 22, 32,  0,  0,  0, 22,  0, 12, 31,  0,  0, 27,  0, 32,  0,  0, 27,  0, 36,  0,  0,  0,  0,  0,  0,  0,  0
6, 11115, 5,N0CALL,    -0.01, 3,   boost,  104.44,  98549.00,  233.69,    2.30,    4.03, 22.1, 3.85, 3.84, 3.85,-118.33,  -2.03,   4.56,   8.26,   3.23,  -0.55,  -0.61,   0.19,   0.15,   5.89, 3.86, 0.00, 0.00, 0.00, 0.00, 1, 1, 12,  34.8946472, -86.6165756,   240.0, 2025,  5,  4, 14, 47, 58,        0,        0,   0,   0,   1.1,   0.7,   0.9, 34, 36, 40,  0,  0, 22, 32,  0,  0,  0, 22,  0, 12, 31,  0,  0, 27,  0, 32,  0,  0, 27,  0, 36,  0,  0,  0,  0,  0,  0,  0,  0
6, 11115, 5,N0CALL,     0.00, 3,   boost,   98.07,  98545.00,  234.03,    2.64,    5.05, 22.1, 3.85, 3.84, 3.85,-113.20,   0.23,  -3.41,  12.65,  -0.49,  -4.09,  -0.61,   0.19,   0.15,   5.89, 3.86, 0.00, 0.00, 0.00, 0.00, 1, 1, 12,  34.8946472, -86.6165756,   240.0, 2025,  5,  4, 14, 47, 58,        0,        0,   0,   0,   1.1,   0.7,   0.9, 34, 36, 40,  0,  0, 22, 32,  0,  0,  0, 22,  0, 12, 31,  0,  0, 27,  0, 32,  0,  0, 27,  0, 36,  0,  0,  0,  0,  0,  0,  0,  0
6, 11115, 5,N0CALL,     0.00, 3,   boost,   98.07,  98545.00,  234.03,    2.64,    5.05, 22.1, 3.85, 3.84, 3.85,-113.20,   0.23,  -3.41,  12.65,  -0.49,  -4.09,  -0.61,   0.19,   0.15,   5.89, 3.86, 0.00, 0.00, 0.00, 0.00, 1, 1, 12,  34.8946472, -86.6165756,   240.0, 2025,  5,  4, 14, 47, 58,        0,        0,   0,   0,   1.1,   0.7,   0.9, 34, 36, 40,  0,  0, 22, 32,  0,  0,  0, 22,  0, 12, 31,  0,  0, 27,  0, 32,  0,  0, 27,  0, 36,  0,  0,  0,  0,  0,  0,  0,  0
6, 11115, 5,N0CALL,     0.00, 3,   boost,   98.07,  98545.00,  234.03,    2.64,    5.05, 22.1, 3.85, 3.84, 3.85,-113.20,   0.23,  -3.41,  12.65,  -0.49,  -4.09,  -0.61,   0.19,   0.15,   5.89, 3.86, 0.00, 0.00, 0.00, 0.00, 1, 1, 12,  34.8946472, -86.6165756,   240.0, 2025,  5,  4, 14, 47, 58,        0,        0,   0,   0,   1.1,   0.7,   0.9, 34, 36, 40,  0,  0, 22, 32,  0,  0,  0, 22,  0, 12, 31,  0,  0, 27,  0, 32,  0,  0, 27,  0, 36,  0,  0,  0,  0,  0,  0,  0,  0
6, 11115, 5,N0CALL,     0.00, 3,   boost,   98.07,  98545.00,  234.03,    2.64,    5.05, 22.1, 3.85, 3.84, 3.85,-113.20,   0.23,  -3.41,  12.65,  -0.49,  -4.09,  -0.61,   0.19,   0.15,   5.89, 3.86, 0.00, 0.00, 0.00, 0.00, 1, 1, 12,  34.8946472, -86.6165756,   240.0, 2025,  5,  4, 14, 47, 58,        0,        0,   0,   0,   1.1,   0.7,   0.9, 34, 36, 40,  0,  0, 22, 32,  0,  0,  0, 22,  0, 12, 31,  0,  0, 27,  0, 32,  0,  0, 27,  0, 36,  0,  0,  0,  0,  0,  0,  0,  0
6, 11115, 5,N0CALL,     0.00, 3,   boost,   98.07,  98545.00,  234.03,    2.64,    5.05, 22.1, 3.85, 3.84, 3.85,-113.20,   0.23,  -3.41,  12.65,  -0.49,  -4.09,  -0.61,   0.19,   0.15,   5.89, 3.86, 0.00, 0.00, 0.00, 0.00, 1, 1, 12,  34.8946472, -86.6165756,   240.0, 2025,  5,  4, 14, 47, 58,        0,        0,   0,   0,   1.1,   0.7,   0.9, 34, 36, 40,  0,  0, 22, 32,  0,  0,  0, 22,  0, 12, 31,  0,  0, 27,  0, 32,  0,  0, 27,  0, 36,  0,  0,  0,  0,  0,  0,  0,  0
6, 11115, 5,N0CALL,     0.00, 3,   boost,   98.07,  98545.00,  234.03,    2.64,    5.05, 22.1, 3.85, 3.84, 3.85,-113.20,   0.23,  -3.41,  12.65,  -0.49,  -4.09,  -0.61,   0.19,   0.15,   5.89, 3.86, 0.00, 0.00, 0.00, 0.00, 1, 1, 12,  34.8946472, -86.6165756,   240.0, 2025,  5,  4, 14, 47, 58,        0,        0,   0,   0,   1.1,   0.7,   0.9, 34, 36, 40,  0,  0, 22, 32,  0,  0,  0, 22,  0, 12, 31,  0,  0, 27,  0, 32,  0,  0, 27,  0, 36,  0,  0,  0,  0,  0,  0,  0,  0
6, 11115, 5,N0CALL,     0.00, 3,   boost,   98.07,  98545.00,  234.03,    2.64,    5.05, 22.1, 3.85, 3.84, 3.85,-113.20,   0.23,  -3.41,  12.65,  -0.49,  -4.09,  -0.61,   0.19,   0.15,   5.89, 3.86, 0.00, 0.00, 0.00, 0.00, 1, 1, 12,  34.8946472, -86.6165756,   240.0, 2025,  5,  4, 14, 47, 58,        0,        0,   0,   0,   1.1,   0.7,   0.9, 34, 36, 40,  0,  0, 22, 32,  0,  0,  0, 22,  0, 12, 31,  0,  0, 27,  0, 32,  0,  0, 27,  0, 36,  0,  0,  0,  0,  0,  0,  0,  0
6, 11115, 5,N0CALL,     0.00, 3,   boost,   98.07,  98545.00,  234.03,    2.64,    5.05, 22.1, 3.85, 3.84, 3.85,-113.20,   0.23,  -3.41,  12.65,  -0.49,  -4.09,  -0.61,   0.19,   0.15,   5.89, 3.86, 0.00, 0.00, 0.00, 0.00, 1, 1, 12,  34.8946472, -86.6165756,   240.0, 2025,  5,  4, 14, 47, 58,        0,        0,   0,   0,   1.1,   0.7,   0.9, 34, 36, 40,  0,  0, 22, 32,  0,  0,  0, 22,  0, 12, 31,  0,  0, 27,  0, 32,  0,  0, 27,  0, 36,  0,  0,  0,  0,  0,  0,  0,  0
6, 11115, 5,N0CALL,     0.00, 3,   boost,   98.07,  98545.00,  234.03,    2.64,    5.05, 22.1, 3.85, 3.84, 3.85,-113.20,   0.23,  -3.41,  12.65,  -0.49,  -4.09,  -0.61,   0.19,   0.15,   5.89, 3.86, 0.00, 0.00, 0.00, 0.00, 1, 1, 12,  34.8946472, -86.6165756,   240.0, 2025,  5,  4, 14, 47, 58,        0,        0,   0,   0,   1.1,   0.7,   0.9, 34, 36, 40,  0,  0, 22, 32,  0,  0,  0, 22,  0, 12, 31,  0,  0, 27,  0, 32,  0,  0, 27,  0, 36,  0,  0,  0,  0,  0,  0,  0,  0
6, 11115, 5,N0CALL,     0.00, 3,   boost,   98.07,  98545.00,  234.03,    2.64,    5.05, 22.1, 3.85, 3.84, 3.85,-113.20,   0.23,  -3.41,  12.65,  -0.49,  -4.09,  -0.61,   0.19,   0.15,   5.89, 3.86, 0.00, 0.00, 0.00, 0.00, 1, 1, 12,  34.8946472, -86.6165756,   240.0, 2025,  5,  4, 14, 47, 58,        0,        0,   0,   0,   1.1,   0.7,   0.9, 34, 36, 40,  0,  0, 22, 32,  0,  0,  0, 22,  0, 12, 31,  0,  0, 27,  0, 32,  0,  0, 27,  0, 36,  0,  0,  0,  0,  0,  0,  0,  0
6, 11115, 5,N0CALL,     0.00, 3,   boost,   98.07,  98545.00,  234.03,    2.64,    5.05, 22.1, 3.85, 3.84, 3.85,-113.20,   0.23,  -3.41,  12.65,  -0.49,  -4.09,  -0.61,   0.19,   0.15,   5.89, 3.86, 0.00, 0.00, 0.00, 0.00, 1, 1, 12,  34.8946472, -86.6165756,   240.0, 2025,  5,  4, 14, 47, 58,        0,        0,   0,   0,   1.1,   0.7,   0.9, 34, 36, 40,  0,  0, 22, 32,  0,  0,  0, 22,  0, 12, 31,  0,  0, 27,  0, 32,  0,  0, 27,  0, 36,  0,  0,  0,  0,  0,  0,  0,  0
6, 11115, 5,N0CALL,     0.00, 3,   boost,   98.07,  98545.00,  234.03,    2.64,    5.05, 22.1, 3.85, 3.84, 3.85,-113.20,   0.23,  -3.41,  12.65,  -0.49,  -4.09,  -0.61,   0.19,   0.15,   5.90, 3.86, 0.00, 0.00, 0.00, 0.00, 1, 1, 12,  34.8946472, -86.6165756,   240.0, 2025,  5,  4, 14, 47, 58,        0,        0,   0,   0,   1.1,   0.7,   0.9, 34, 36, 40,  0,  0, 22, 32,  0,  0,  0, 22,  0, 12, 31,  0,  0, 27,  0, 32,  0,  0, 27,  0, 36,  0,  0,  0,  0,  0,  0,  0,  0
6, 11115, 5,N0CALL,     0.00, 3,   boost,   98.07,  98545.00,  234.03,    2.64,    5.05, 22.1, 3.85, 3.84, 3.85,-113.20,   0.23,  -3.41,  12.65,  -0.49,  -4.09,  -0.61,   0.19,   0.15,   5.89, 3.86, 0.00, 0.00, 0.00, 0.00, 1, 1, 12,  34.8946472, -86.6165756,   240.0, 2025,  5,  4, 14, 47, 58,        0,        0,   0,   0,   1.1,   0.7,   0.9, 34, 36, 40,  0,  0, 22, 32,  0,  0,  0, 22,  0, 12, 31,  0,  0, 27,  0, 32,  0,  0, 27,  0, 36,  0,  0,  0,  0,  0,  0,  0,  0
6, 11115, 5,N0CALL,     0.00, 3,   boost,   98.07,  98545.00,  234.03,    2.64,    5.05, 22.1, 3.85, 3.84, 3.85,-113.20,   0.23,  -3.41,  12.65,  -0.49,  -4.09,  -0.61,   0.19,   0.15,   5.89, 3.86, 0.00, 0.00, 0.00, 0.00, 1, 1, 12,  34.8946472, -86.6165756,   240.0, 2025,  5,  4, 14, 47, 58,        0,        0,   0,   0,   1.1,   0.7,   0.9, 34, 36, 40,  0,  0, 22, 32,  0,  0,  0, 22,  0, 12, 31,  0,  0, 27,  0, 32,  0,  0, 27,  0, 36,  0,  0,  0,  0,  0,  0,  0,  0
6, 11115, 5,N0CALL,     0.00, 3,   boost,   98.07,  98545.00,  234.03,    2.64,    5.05, 22.1, 3.85, 3.84, 3.85,-113.20,   0.23,  -3.41,  12.65,  -0.49,  -4.09,  -0.61,   0.19,   0.15,   5.90, 3.86, 0.00, 0.00, 0.00, 0.00, 1, 1, 12,  34.8946472, -86.6165756,   240.0, 2025,  5,  4, 14, 47, 58,        0,        0,   0,   0,   1.1,   0.7,   0.9, 34, 36, 40,  0,  0, 22, 32,  0,  0,  0, 22,  0, 12, 31,  0,  0, 27,  0, 32,  0,  0, 27,  0, 36,  0,  0,  0,  0,  0,  0,  0,  0
6, 11115, 5,N0CALL,     0.00, 3,   boost,   98.07,  98545.00,  234.03,    2.64,    5.05, 22.1, 3.85, 3.84, 3.85,-113.20,   0.23,  -3.41,  12.65,  -0.49,  -4.09,  -0.61,   0.19,   0.15,   5.90, 3.86, 0.00, 0.00, 0.00, 0.00, 1, 1, 12,  34.8946472, -86.6165756,   240.0, 2025,  5,  4, 14, 47, 58,        0,        0,   0,   0,   1.1,   0.7,   0.9, 34, 36, 40,  0,  0, 22, 32,  0,  0,  0, 22,  0, 12, 31,  0,  0, 27,  0, 32,  0,  0, 27,  0, 36,  0,  0,  0,  0,  0,  0,  0,  0
6, 11115, 5,N0CALL,     0.00, 3,   boost,   98.07,  98545.00,  234.03,    2.64,    5.05, 22.1, 3.85, 3.84, 3.85,-113.20,   0.23,  -3.41,  12.65,  -0.49,  -4.09,  -0.61,   0.19,   0.15,   5.90, 3.86, 0.00, 0.00, 0.00, 0.00, 1, 1, 12,  34.8946472, -86.6165756,   240.0, 2025,  5,  4, 14, 47, 58,        0,        0,   0,   0,   1.1,   0.7,   0.9, 34, 36, 40,  0,  0, 22, 32,  0,  0,  0, 22,  0, 12, 31,  0,  0, 27,  0, 32,  0,  0, 27,  0, 36,  0,  0,  0,  0,  0,  0,  0,  0
6, 11115, 5,N0CALL,     0.00, 3,   boost,   98.07,  98545.00,  234.03,    2.64,    5.05, 22.1, 3.85, 3.84, 3.85,-113.20,   0.23,  -3.41,  12.65,  -0.49,  -4.09,  -0.61,   0.19,   0.15,   5.90, 3.86, 0.00, 0.00, 0.00, 0.00, 1, 1, 12,  34.8946472, -86.6165756,   240.0, 2025,  5,  4, 14, 47, 58,        0,        0,   0,   0,   1.1,   0.7,   0.9, 34, 36, 40,  0,  0, 22, 32,  0,  0,  0, 22,  0, 12, 31,  0,  0, 27,  0, 32,  0,  0, 27,  0, 36,  0,  0,  0,  0,  0,  0,  0,  0
6, 11115, 5,N0CALL,     0.00, 3,   boost,   98.07,  98545.00,  234.03,    2.64,    5.05, 22.1, 3.85, 3.84, 3.85,-113.20,   0.23,  -3.41,  12.65,  -0.49,  -4.09,  -0.61,   0.19,   0.15,   5.90, 3.86, 0.00, 0.00, 0.00, 0.00, 1, 1, 12,  34.8946472, -86.6165756,   240.0, 2025,  5,  4, 14, 47, 58,        0,        0,   0,   0,   1.1,   0.7,   0.9, 34, 36, 40,  0,  0, 22, 32,  0,  0,  0, 22,  0, 12, 31,  0,  0, 27,  0, 32,  0,  0, 27,  0, 36,  0,  0,  0,  0,  0,  0,  0,  0
6, 11115, 5,N0CALL,     0.00, 3,   boost,   98.07,  98545.00,  234.03,    2.64,    5.05, 22.1, 3.85, 3.84, 3.85,-113.20,   0.23,  -3.41,  12.65,  -0.49,  -4.09,  -0.61,   0.19,   0.15,   5.91, 3.86, 0.00, 0.00, 0.00, 0.00, 1, 1, 12,  34.8946472, -86.6165756,   240.0, 2025,  5,  4, 14, 47, 58,        0,        0,   0,   0,   1.1,   0.7,   0.9, 34, 36, 40,  0,  0, 22, 32,  0,  0,  0, 22,  0, 12, 31,  0,  0, 27,  0, 32,  0,  0, 27,  0, 36,  0,  0,  0,  0,  0,  0,  0,  0
6, 11115, 5,N0CALL,     0.00, 3,   boost,   98.07,  98545.00,  234.03,    2.64,    5.05, 22.1, 3.85, 3.84, 3.85,-113.20,   0.23,  -3.41,  12.65,  -0.49,  -4.09,  -0.61,   0.19,   0.15,   5.91, 3.86, 0.00, 0.00, 0.00, 0.00, 1, 1, 12,  34.8946472, -86.6165756,   240.0, 2025,  5,  4, 14, 47, 58,        0,        0,   0,   0,   1.1,   0.7,   0.9, 34, 36, 40,  0,  0, 22, 32,  0,  0,  0, 22,  0, 12, 31,  0,  0, 27,  0, 32,  0,  0, 27,  0, 36,  0,  0,  0,  0,  0,  0,  0,  0
6, 11115, 5,N0CALL,     0.00, 3,   boost,   98.07,  98545.00,  234.03,    2.64,    5.05, 22.1, 3.85, 3.84, 3.85,-113.20,   0.23,  -3.41,  12.65,  -0.49,  -4.09,  -0.61,   0.19,   0.15,   5.91, 3.86, 0.00, 0.00, 0.00, 0.00, 1, 1, 12,  34.8946472, -86.6165756,   240.0, 2025,  5,  4, 14, 47, 58,        0,        0,   0,   0,   1.1,   0.7,   0.9, 34, 36, 40,  0,  0, 22, 32,  0,  0,  0, 22,  0, 12, 31,  0,  0, 27,  0, 32,  0,  0, 27,  0, 36,  0,  0,  0,  0,  0,  0,  0,  0
6, 11115, 5,N0CALL,     0.00, 3,   boost,   98.07,  98545.00,  234.03,    2.64,    5.05, 22.1, 3.85, 3.84, 3.85,-113.20,   0.23,  -3.41,  12.65,  -0.49,  -4.09,  -0.61,   0.19,   0.15,   5.91, 3.86, 0.00, 0.00, 0.00, 0.00, 1, 1, 12,  34.8946472, -86.6165756,   240.0, 2025,  5,  4, 14, 47, 58,        0,        0,   0,   0,   1.1,   0.7,   0.9, 34, 36, 40,  0,  0, 22, 32,  0,  0,  0, 22,  0, 12, 31,  0,  0, 27,  0, 32,  0,  0, 27,  0, 36,  0,  0,  0,  0,  0,  0,  0,  0
6, 11115, 5,N0CALL,     0.00, 3,   boost,   98.07,  98545.00,  234.03,    2.64,    5.05, 22.1, 3.85, 3.84, 3.85,-113.20,   0.23,  -3.41,  12.65,  -0.49,  -4.09,  -0.61,   0.19,   0.15,   5.92, 3.86, 0.00, 0.00, 0.00, 0.00, 1, 1, 12,  34.8946472, -86.6165756,   240.0, 2025,  5,  4, 14, 47, 58,        0,        0,   0,   0,   1.1,   0.7,   0.9, 34, 36, 40,  0,  0, 22, 32,  0,  0,  0, 22,  0, 12, 31,  0,  0, 27,  0, 32,  0,  0, 27,  0, 36,  0,  0,  0,  0,  0,  0,  0,  0
6, 11115, 5,N0CALL,     0.00, 3,   boost,   98.07,  98545.00,  234.03,    2.64,    5.05, 22.1, 3.85, 3.84, 3.85,-113.20,   0.23,  -3.41,  12.65,  -0.49,  -4.09,  -0.61,   0.19,   0.15,   5.92, 3.86, 0.00, 0.00, 0.00, 0.00, 1, 1, 12,  34.8946472, -86.6165756,   240.0, 2025,  5,  4, 14, 47, 58,        0,        0,   0,   0,   1.1,   0.7,   0.9, 34, 36, 40,  0,  0, 22, 32,  0,  0,  0, 22,  0, 12, 31,  0,  0, 27,  0, 32,  0,  0, 27,  0, 36,  0,  0,  0,  0,  0,  0,  0,  0
6, 11115, 5,N0CALL,     0.00, 3,   boost,   98.07,  98545.00,  234.03,    2.64,    5.05, 22.1, 3.85, 3.84, 3.85,-113.20,   0.23,  -3.41,  12.65,  -0.49,  -4.09,  -0.61,   0.19,   0.15,   5.92, 3.86, 0.00, 0.00, 0.00, 0.00, 1, 1, 12,  34.8946472, -86.6165756,   240.0, 2025,  5,  4, 14, 47, 58,        0,        0,   0,   0,   1.1,   0.7,   0.9, 34, 36, 40,  0,  0, 22, 32,  0,  0,  0, 22,  0, 12, 31,  0,  0, 27,  0, 32,  0,  0, 27,  0, 36,  0,  0,  0,  0,  0,  0,  0,  0
6, 11115, 5,N0CALL,     0.00, 3,   boost,   98.07,  98545.00,  234.03,    2.64,    5.05, 22.1, 3.85, 3.84, 3.85,-113.20,   0.23,  -3.41,  12.65,  -0.49,  -4.09,  -0.61,   0.19,   0.15,   5.92, 3.86, 0.00, 0.00, 0.00, 0.00, 1, 1, 12,  34.8946472, -86.6165756,   240.0, 2025,  5,  4, 14, 47, 58,        0,        0,   0,   0,   1.1,   0.7,   0.9, 34, 36, 40,  0,  0, 22, 32,  0,  0,  0, 22,  0, 12, 31,  0,  0, 27,  0, 32,  0,  0, 27,  0, 36,  0,  0,  0,  0,  0,  0,  0,  0
6, 11115, 5,N0CALL,     0.00, 3,   boost,   98.07,  98545.00,  234.03,    2.64,    5.05, 22.1, 3.85, 3.84, 3.85,-113.20,   0.23,  -3.41,  12.65,  -0.49,  -4.09,  -0.61,   0.19,   0.15,   5.92, 3.86, 0.00, 0.00, 0.00, 0.00, 1, 1, 12,  34.8946472, -86.6165756,   240.0, 2025,  5,  4, 14, 47, 58,        0,        0,   0,   0,   1.1,   0.7,   0.9, 34, 36, 40,  0,  0, 22, 32,  0,  0,  0, 22,  0, 12, 31,  0,  0, 27,  0, 32,  0,  0, 27,  0, 36,  0,  0,  0,  0,  0,  0,  0,  0
6, 11115, 5,N0CALL,     0.00, 3,   boost,   98.07,  98545.00,  234.03,    2.64,    5.05, 22.1, 3.85, 3.84, 3.85,-113.20,   0.23,  -3.41,  12.65,  -0.49,  -4.09,  -0.61,   0.19,   0.15,   5.92, 3.86, 0.00, 0.00, 0.00, 0.00, 1, 1, 12,  34.8946472, -86.6165756,   240.0, 2025,  5,  4, 14, 47, 58,        0,        0,   0,   0,   1.1,   0.7,   0.9, 34, 36, 40,  0,  0, 22, 32,  0,  0,  0, 22,  0, 12, 31,  0,  0, 27,  0, 32,  0,  0, 27,  0, 36,  0,  0,  0,  0,  0,  0,  0,  0
6, 11115, 5,N0CALL,     0.00, 3,   boost,   98.07,  98545.00,  234.03,    2.64,    5.05, 22.1, 3.85, 3.84, 3.85,-113.20,   0.23,  -3.41,  12.65,  -0.49,  -4.09,  -0.61,   0.19,   0.15,   5.92, 3.86, 0.00, 0.00, 0.00, 0.00, 1, 1, 12,  34.8946472, -86.6165756,   240.0, 2025,  5,  4, 14, 47, 58,        0,        0,   0,   0,   1.1,   0.7,   0.9, 34, 36, 40,  0,  0, 22, 32,  0,  0,  0, 22,  0, 12, 31,  0,  0, 27,  0, 32,  0,  0, 27,  0, 36,  0,  0,  0,  0,  0,  0,  0,  0
6, 11115, 5,N0CALL,     0.00, 3,   boost,   98.07,  98545.00,  234.03,    2.64,    5.05, 22.1, 3.85, 3.84, 3.85,-113.20,   0.23,  -3.41,  12.65,  -0.49,  -4.09,  -0.61,   0.19,   0.15,   5.92, 3.86, 0.00, 0.00, 0.00, 0.00, 1, 1, 12,  34.8946472, -86.6165756,   240.0, 2025,  5,  4, 14, 47, 58,        0,        0,   0,   0,   1.1,   0.7,   0.9, 34, 36, 40,  0,  0, 22, 32,  0,  0,  0, 22,  0, 12, 31,  0,  0, 27,  0, 32,  0,  0, 27,  0, 36,  0,  0,  0,  0,  0,  0,  0,  0
6, 11115, 5,N0CALL,     0.00, 3,   boost,   98.07,  98545.00,  234.03,    2.64,    5.05, 22.1, 3.85, 3.84, 3.85,-113.20,   0.23,  -3.41,  12.65,  -0.49,  -4.09,  -0.61,   0.19,   0.15,   5.92, 3.86, 0.00, 0.00, 0.00, 0.00, 1, 1, 12,  34.8946472, -86.6165756,   240.0, 2025,  5,  4, 14, 47, 58,        0,        0,   0,   0,   1.1,   0.7,   0.9, 34, 36, 40,  0,  0, 22, 32,  0,  0,  0, 22,  0, 12, 31,  0,  0, 27,  0, 32,  0,  0, 27,  0, 36,  0,  0,  0,  0,  0,  0,  0,  0
6, 11115, 5,N0CALL,     0.00, 3,   boost,   98.07,  98545.00,  234.03,    2.64,    5.05, 22.1, 3.85, 3.84, 3.85,-113.20,   0.23,  -3.41,  12.65,  -0.49,  -4.09,  -0.61,   0.19,   0.15,   5.93, 3.86, 0.00, 0.00, 0.00, 0.00, 1, 1, 12,  34.8946472, -86.6165756,   240.0, 2025,  5,  4, 14, 47, 58,        0,        0,   0,   0,   1.1,   0.7,   0.9, 34, 36, 40,  0,  0, 22, 32,  0,  0,  0, 22,  0, 12, 31,  0,  0, 27,  0, 32,  0,  0, 27,  0, 36,  0,  0,  0,  0,  0,  0,  0,  0
6, 11115, 5,N0CALL,     0.00, 3,   boost,   98.07,  98545.00,  234.03,    2.64,    5.05, 22.1, 3.85, 3.84, 3.85,-113.20,   0.23,  -3.41,  12.65,  -0.49,  -4.09,  -0.61,   0.19,   0.15,   5.96, 3.86, 0.00, 0.00, 0.00, 0.00, 1, 1, 12,  34.8946472, -86.6165756,   240.0, 2025,  5,  4, 14, 47, 58,        0,        0,   0,   0,   1.1,   0.7,   0.9, 34, 36, 40,  0,  0, 22, 32,  0,  0,  0, 22,  0, 12, 31,  0,  0, 27,  0, 32,  0,  0, 27,  0, 36,  0,  0,  0,  0,  0,  0,  0,  0
6, 11115, 5,N0CALL,     0.00, 3,   boost,   98.07,  98545.00,  234.03,    2.64,    5.05, 22.1, 3.85, 3.84, 3.85,-113.20,   0.23,  -3.41,  12.65,  -0.49,  -4.09,  -0.61,   0.19,   0.15,   5.96, 3.86, 0.00, 0.00, 0.00, 0.00, 1, 1, 12,  34.8946472, -86.6165756,   240.0, 2025,  5,  4, 14, 47, 58,        0,        0,   0,   0,   1.1,   0.7,   0.9, 34, 36, 40,  0,  0, 22, 32,  0,  0,  0, 22,  0, 12, 31,  0,  0, 27,  0, 32,  0,  0, 27,  0, 36,  0,  0,  0,  0,  0,  0,  0,  0
6, 11115, 5,N0CALL,     0.00, 3,   boost,   98.07,  98545.00,  234.03,    2.64,    5.05, 22.1, 3.85, 3.84, 3.85,-113.20,   0.23,  -3.41,  12.65,  -0.49,  -4.09,  -0.61,   0.19,   0.15,   5.96, 3.86, 0.00, 0.00, 0.00, 0.00, 1, 1, 12,  34.8946472, -86.6165756,   240.0, 2025,  5,  4, 14, 47, 58,        0,        0,   0,   0,   1.1,   0.7,   0.9, 34, 36, 40,  0,  0, 22, 32,  0,  0,  0, 22,  0, 12, 31,  0,  0, 27,  0, 32,  0,  0, 27,  0, 36,  0,  0,  0,  0,  0,  0,  0,  0
6, 11115, 5,N0CALL,     0.00, 3,   boost,   98.07,  98545.00,  234.03,    2.64,    5.05, 22.1, 3.85, 3.84, 3.85,-113.20,   0.23,  -3.41,  12.65,  -0.49,  -4.09,  -0.61,   0.19,   0.15,   5.92, 3.86, 0.00, 0.00, 0.00, 0.00, 1, 1, 12,  34.8946472, -86.6165756,   240.0, 2025,  5,  4, 14, 47, 58,        0,        0,   0,   0,   1.1,   0.7,   0.9, 34, 36, 40,  0,  0, 22, 32,  0,  0,  0, 22,  0, 12, 31,  0,  0, 27,  0, 32,  0,  0, 27,  0, 36,  0,  0,  0,  0,  0,  0,  0,  0
6, 11115, 5,N0CALL,     0.01, 3,   boost,   98.07,  98545.00,  234.03,    2.64,    6.07, 22.1, 3.85, 3.84, 3.85,-110.50,  -0.45,   0.06,  -2.30,   2.07,  -5.92,  -0.61,   0.19,   0.15,   5.86, 3.86, 0.00, 0.00, 0.00, 0.00, 1, 1, 12,  34.8946472, -86.6165756,   240.0, 2025,  5,  4, 14, 47, 58,        0,        0,   0,   0,   1.1,   0.7,   0.9, 34, 36, 40,  0,  0, 22, 32,  0,  0,  0, 22,  0, 12, 31,  0,  0, 27,  0, 32,  0,  0, 27,  0, 36,  0,  0,  0,  0,  0,  0,  0,  0
6, 11115, 5,N0CALL,     0.01, 3,   boost,   98.07,  98545.00,  234.03,    2.64,    6.07, 22.1, 3.85, 3.84, 3.85,-110.50,  -0.45,   0.06,  -2.30,   2.07,  -5.92,  -0.61,   0.19,   0.15,   5.86, 3.86, 0.00, 0.00, 0.00, 0.00, 1, 1, 12,  34.8946472, -86.6165756,   240.0, 2025,  5,  4, 14, 47, 58,        0,        0,   0,   0,   1.1,   0.7,   0.9, 34, 36, 40,  0,  0, 22, 32,  0,  0,  0, 22,  0, 12, 31,  0,  0, 27,  0, 32,  0,  0, 27,  0, 36,  0,  0,  0,  0,  0,  0,  0,  0
6, 11115, 5,N0CALL,     0.02, 3,   boost,   99.54,  98577.00,  231.30,   -0.09,    7.08, 22.1, 3.83, 3.84, 3.85,-109.14,  -6.68,   3.79,  -8.89,   3.78,  -6.84,  -0.61,   0.19,   0.15,   5.80, 3.85, 0.00, 0.00, 0.00, 0.00, 1, 1, 12,  34.8946472, -86.6165756,   240.0, 2025,  5,  4, 14, 47, 58,        0,        0,   0,   0,   1.1,   0.7,   0.9, 34, 36, 40,  0,  0, 22, 32,  0,  0,  0, 22,  0, 12, 31,  0,  0, 27,  0, 32,  0,  0, 27,  0, 36,  0,  0,  0,  0,  0,  0,  0,  0
6, 11115, 5,N0CALL,     0.02, 3,   boost,   99.54,  98577.00,  231.30,   -0.09,    7.08, 22.1, 3.83, 3.84, 3.85,-109.14,  -6.68,   3.79,  -8.89,   3.78,  -6.84,  -0.61,   0.19,   0.15,   5.80, 3.85, 0.00, 0.00, 0.00, 0.00, 1, 1, 12,  34.8946472, -86.6165756,   240.0, 2025,  5,  4, 14, 47, 58,        0,        0,   0,   0,   1.1,   0.7,   0.9, 34, 36, 40,  0,  0, 22, 32,  0,  0,  0, 22,  0, 12, 31,  0,  0, 27,  0, 32,  0,  0, 27,  0, 36,  0,  0,  0,  0,  0,  0,  0,  0
6, 11115, 5,N0CALL,     0.03, 3,   boost,  104.44,  98577.00,  231.30,   -0.09,    8.11, 22.1, 3.83, 3.84, 3.85,-112.47,  -6.88,   0.55, -10.72,   3.78,  -2.81,  -0.60,   0.19,   0.15,   5.77, 3.85, 0.00, 0.00, 0.00, 0.00, 1, 1, 12,  34.8946472, -86.6165756,   240.0, 2025,  5,  4, 14, 47, 58,        0,        0,   0,   0,   1.1,   0.7,   0.9, 34, 36, 40,  0,  0, 22, 32,  0,  0,  0, 22,  0, 12, 31,  0,  0, 27,  0, 32,  0,  0, 27,  0, 36,  0,  0,  0,  0,  0,  0,  0,  0
6, 11115, 5,N0CALL,     0.04, 3,   boost,  107.38,  98586.00,  230.54,   -0.85,    9.14, 22.1, 3.83, 3.84, 3.85,-117.03,  -6.35,  -2.47,   1.67,   1.28,  -0.37,  -0.60,   0.19,   0.15,   5.77, 3.85, 0.00, 0.00, 0.00, 0.00, 1, 1, 12,  34.8946472, -86.6165756,   240.0, 2025,  5,  4, 14, 47, 58,        0,        0,   0,   0,   1.1,   0.7,   0.9, 34, 36, 40,  0,  0, 22, 32,  0,  0,  0, 22,  0, 12, 31,  0,  0, 27,  0, 32,  0,  0, 27,  0, 36,  0,  0,  0,  0,  0,  0,  0,  0
6, 11115, 5,N0CALL,     0.05, 3,   boost,  107.87,  98586.00,  230.54,   -0.85,   10.20, 22.1, 3.83, 3.84, 3.85,-118.51,  -2.00,   2.56,  15.58,   0.12,   0.67,  -0.61,   0.19,   0.15,   5.78, 3.85, 0.00, 0.00, 0.00, 0.00, 1, 1, 12,  34.8946472, -86.6165756,   240.0, 2025,  5,  4, 14, 47, 58,        0,        0,   0,   0,   1.1,   0.7,   0.9, 34, 36, 40,  0,  0, 22, 32,  0,  0,  0, 22,  0, 12, 31,  0,  0, 27,  0, 32,  0,  0, 27,  0, 36,  0,  0,  0,  0,  0,  0,  0,  0
6, 11115, 5,N0CALL,     0.06, 3,   boost,  107.87,  98588.00,  230.37,   -1.02,   11.26, 22.1, 3.83, 3.84, 3.85,-119.48,  -1.38,   3.00,  13.75,   2.25,   0.97,  -0.61,   0.19,   0.15,   5.79, 3.85, 0.00, 0.00, 0.00, 0.00, 1, 1, 12,  34.8946472, -86.6165756,   240.0, 2025,  5,  4, 14, 47, 58,        0,        0,   0,   0,   1.1,   0.7,   0.9, 34, 36, 40,  0,  0, 22, 32,  0,  0,  0, 22,  0, 12, 31,  0,  0, 27,  0, 32,  0,  0, 27,  0, 36,  0,  0,  0,  0,  0,  0,  0,  0
6, 11115, 5,N0CALL,     0.07, 3,   boost,  108.36,  98588.00,  230.37,   -1.02,   12.34, 22.1, 3.83, 3.84, 3.85,-120.76,  -2.00,  -0.56,   2.64,   0.67,  -0.37,  -0.61,   0.19,   0.15,   5.79, 3.85, 0.00, 0.00, 0.00, 0.00, 1, 1, 12,  34.8946472, -86.6165756,   240.0, 2025,  5,  4, 14, 47, 58,        0,        0,   0,   0,   1.1,   0.7,   0.9, 34, 36, 40,  0,  0, 22, 32,  0,  0,  0, 22,  0, 12, 31,  0,  0, 27,  0, 32,  0,  0, 27,  0, 36,  0,  0,  0,  0,  0,  0,  0,  0
6, 11115, 5,N0CALL,     0.08, 3,   boost,  107.38,  98573.00,  231.64,    0.26,   13.42, 22.1, 3.83, 3.84, 3.85,-121.06,  -1.25,   1.10,  -0.17,   1.52,  -1.77,  -0.61,   0.19,   0.16,   5.77, 3.85, 0.00, 0.00, 0.00, 0.00, 1, 1, 12,  34.8946472, -86.6165756,   240.0, 2025,  5,  4, 14, 47, 58,        0,        0,   0,   0,   1.1,   0.7,   0.9, 34, 36, 40,  0,  0, 22, 32,  0,  0,  0, 22,  0, 12, 31,  0,  0, 27,  0, 32,  0,  0, 27,  0, 36,  0,  0,  0,  0,  0,  0,  0,  0
6, 11115, 5,N0CALL,     0.09, 3,   boost,  110.32,  98573.00,  231.64,    0.26,   14.51, 22.1, 3.83, 3.84, 3.85,-121.24,  -4.66,   3.81,  -3.95,   2.74,  -2.93,  -0.61,   0.18,   0.16,   5.75, 3.85, 0.00, 0.00, 0.00, 0.00, 1, 1, 12,  34.8946472, -86.6165756,   240.0, 2025,  5,  4, 14, 47, 58,        0,        0,   0,   0,   1.1,   0.7,   0.9, 34, 36, 40,  0,  0, 22, 32,  0,  0,  0, 22,  0, 12, 31,  0,  0, 27,  0, 32,  0,  0, 27,  0, 36,  0,  0,  0,  0,  0,  0,  0,  0
6, 11115, 5,N0CALL,     0.10, 3,   boost,  110.82,  98576.00,  231.39,    0.00,   15.60, 22.1, 3.83, 3.84, 3.85,-122.28,   0.73,  -0.17,  -9.63,   2.74,  -4.28,  -0.61,   0.18,   0.15,   5.71, 3.85, 0.00, 0.00, 0.00, 0.00, 1, 1, 12,  34.8946472, -86.6165756,   240.0, 2025,  5,  4, 14, 47, 58,        0,        0,   0,   0,   1.1,   0.7,   0.9, 34, 36, 40,  0,  0, 22, 32,  0,  0,  0, 22,  0, 12, 31,  0,  0, 27,  0, 32,  0,  0, 27,  0, 36,  0,  0,  0,  0,  0,  0,  0,  0
6, 11115, 5,N0CALL,     0.11, 3,   boost,  110.82,  98576.00,  231.39,    0.00,   16.69, 22.1, 3.83, 3.84, 3.85,-122.72,   0.65,  -1.49,   2.28,   2.86,  -3.97,  -0.61,   0.18,   0.15,   5.67, 3.85, 0.00, 0.00, 0.00, 0.00, 1, 1, 12,  34.8946472, -86.6165756,   240.0, 2025,  5,  4, 14, 47, 58,        0,        0,   0,   0,   1.1,   0.7,   0.9, 34, 36, 40,  0,  0, 22, 32,  0,  0,  0, 22,  0, 12, 31,  0,  0, 27,  0, 32,  0,  0, 27,  0, 36,  0,  0,  0,  0,  0,  0,  0,  0
6, 11115, 5,N0CALL,     0.12, 3,   boost,  111.80,  98576.00,  231.39,    0.00,   17.79, 22.1, 3.83, 3.84, 3.85,-122.67,  -3.34,   5.12,   5.45,   3.05,  -2.32,  -0.61,   0.19,   0.15,   5.66, 3.85, 0.00, 0.00, 0.00, 0.00, 1, 1, 12,  34.8946472, -86.6165756,   240.0, 2025,  5,  4, 14, 47, 58,        0,        0,   0,   0,   1.1,   0.7,   0.9, 34, 36, 40,  0,  0, 22, 32,  0,  0,  0, 22,  0, 12, 31,  0,  0, 27,  0, 32,  0,  0, 27,  0, 36,  0,  0,  0,  0,  0,  0,  0,  0
6, 11115, 5,N0CALL,     0.13, 3,   boost,  108.85,  98576.00,  231.39,    0.00,   18.89, 22.1, 3.83, 3.84, 3.85,-123.46,  -1.30,   3.62,  19.43,   1.15,  -2.08,  -0.60,   0.19,   0.16,   5.64, 3.85, 0.00, 0.00, 0.00, 0.00, 1, 1, 12,  34.8946472, -86.6165756,   240.0, 2025,  5,  4, 14, 47, 58,        0,        0,   0,   0,   1.1,   0.7,   0.9, 34, 36, 40,  0,  0, 22, 32,  0,  0,  0, 22,  0, 12, 31,  0,  0, 27,  0, 32,  0,  0, 27,  0, 36,  0,  0,  0,  0,  0,  0,  0,  0
6, 11115, 5,N0CALL,     0.14, 3,   boost,  110.82,  98575.00,  231.47,    0.09,   19.99, 22.1, 3.83, 3.84, 3.85,-122.43,  -1.72,  -1.19,  21.44,   5.06,  -1.59,  -0.60,   0.19,   0.16,   5.63, 3.85, 0.00, 0.00, 0.00, 0.00, 1, 1, 12,  34.8946472, -86.6165756,   240.0, 2025,  5,  4, 14, 47, 58,        0,        0,   0,   0,   1.1,   0.7,   0.9, 34, 36, 40,  0,  0, 22, 32,  0,  0,  0, 22,  0, 12, 31,  0,  0, 27,  0, 32,  0,  0, 27,  0, 36,  0,  0,  0,  0,  0,  0,  0,  0
6, 11115, 5,N0CALL,     0.15, 3,   boost,  109.34,  98575.00,  231.47,    0.09,   21.09, 22.1, 3.83, 3.84, 3.85,-122.30,   0.83,  -0.41,  22.85,   0.12,  -1.89,  -0.60,   0.19,   0.16,   5.61, 3.85, 0.00, 0.00, 0.00, 0.00, 1, 1, 12,  34.8946472, -86.6165756,   240.0, 2025,  5,  4, 14, 47, 58,        0,        0,   0,   0,   1.1,   0.7,   0.9, 34, 36, 40,  0,  0, 22, 32,  0,  0,  0, 22,  0, 12, 31,  0,  0, 27,  0, 32,  0,  0, 27,  0, 36,  0,  0,  0,  0,  0,  0,  0,  0
6, 11115, 5,N0CALL,     0.16, 3,   boost,  109.83,  98564.00,  232.41,    1.02,   22.19, 22.1, 3.83, 3.84, 3.85,-123.33,  -0.65,  -0.47,  24.55,  -0.92,  -0.67,  -0.61,   0.19,   0.16,   5.60, 3.85, 0.00, 0.00, 0.00, 0.00, 1, 1, 12,  34.8946472, -86.6165756,   240.0, 2025,  5,  4, 14, 47, 58,        0,        0,   0,   0,   1.1,   0.7,   0.9, 34, 36, 40,  0,  0, 22, 32,  0,  0,  0, 22,  0, 12, 31,  0,  0, 27,  0, 32,  0,  0, 27,  0, 36,  0,  0,  0,  0,  0,  0,  0,  0
6, 11115, 5,N0CALL,     0.17, 3,   boost,  111.80,  98564.00,  232.41,    1.02,   23.30, 22.1, 3.83, 3.84, 3.85,-123.75,  -7.49,  -0.26,  45.37,  -1.59,   1.65,  -0.61,   0.18,   0.16,   5.62, 3.85, 0.00, 0.00, 0.00, 0.00, 1, 1, 12,  34.8946472, -86.6165756,   240.0, 2025,  5,  4, 14, 47, 58,        0,        0,   0,   0,   1.1,   0.7,   0.9, 34, 36, 40,  0,  0, 22, 32,  0,  0,  0, 22,  0, 12, 31,  0,  0, 27,  0, 32,  0,  0, 27,  0, 36,  0,  0,  0,  0,  0,  0,  0,  0
6, 11115, 5,N0CALL,     0.18, 3,   boost,  115.72,  98560.00,  232.75,    1.36,   24.43, 22.1, 3.83, 3.84, 3.85,-124.33,   2.98,  21.16,  41.34,  11.16,  -0.86,  -0.61,   0.19,   0.16,   5.62, 3.85, 0.00, 0.00, 0.00, 0.00, 1, 1, 12,  34.8946472, -86.6165756,   240.0, 2025,  5,  4, 14, 47, 58,        0,        0,   0,   0,   1.1,   0.7,   0.9, 34, 36, 40,  0,  0, 22, 32,  0,  0,  0, 22,  0, 12, 31,  0,  0, 27,  0, 32,  0,  0, 27,  0, 36,  0,  0,  0,  0,  0,  0,  0,  0
6, 11115, 5,N0CALL,     0.19, 3,   boost,  115.23,  98560.00,  232.75,    1.36,   25.56, 22.1, 3.83, 3.84, 3.85,-126.65,   7.64,   5.67, -17.99,   3.96,   1.03,  -0.61,   0.19,   0.16,   5.64, 3.85, 0.00, 0.00, 0.00, 0.00, 1, 1, 12,  34.8946472, -86.6165756,   240.0, 2025,  5,  4, 14, 47, 58,        0,        0,   0,   0,   1.1,   0.7,   0.9, 34, 36, 40,  0,  0, 22, 32,  0,  0,  0, 22,  0, 12, 31,  0,  0, 27,  0, 32,  0,  0, 27,  0, 36,  0,  0,  0,  0,  0,  0,  0,  0
6, 11115, 5,N0CALL,     0.20, 3,   boost,  113.76,  98542.00,  234.28,    2.89,   26.69, 22.1, 3.83, 3.84, 3.85,-126.54,  -4.58,  -5.73,  28.03,   4.75,  -0.55,  -0.61,   0.19,   0.16,   5.64, 3.85, 0.00, 0.00, 0.00, 0.00, 1, 1, 12,  34.8946472, -86.6165756,   240.0, 2025,  5,  4, 14, 47, 58,        0,        0,   0,   0,   1.1,   0.7,   0.9, 34, 36, 40,  0,  0, 22, 32,  0,  0,  0, 22,  0, 12, 31,  0,  0, 27,  0, 32,  0,  0, 27,  0, 36,  0,  0,  0,  0,  0,  0,  0,  0
6, 11115, 5,N0CALL,     0.21, 3,   boost,  114.25,  98542.00,  234.28,    2.89,   27.84, 22.1, 3.83, 3.84, 3.85,-127.23,  -4.78,  -8.43,  14.85,   7.50,  -2.93,  -0.61,   0.19,   0.17,   5.63, 3.85, 0.00, 0.00, 0.00, 0.00, 1, 1, 12,  34.8946472, -86.6165756,   240.0, 2025,  5,  4, 14, 47, 58,        0,        0,   0,   0,   1.1,   0.7,   0.9, 34, 36, 40,  0,  0, 22, 32,  0,  0,  0, 22,  0, 12, 31,  0,  0, 27,  0, 32,  0,  0, 27,  0, 36,  0,  0,  0,  0,  0,  0,  0,  0
6, 11115, 5,N0CALL,     0.22, 3,   boost,  115.72,  98539.00,  234.54,    3.15,   28.98, 22.1, 3.83, 3.84, 3.85,-128.22,  -8.36,  10.37,  27.42,   4.45,   2.87,  -0.61,   0.19,   0.17,   5.66, 3.85, 0.00, 0.00, 0.00, 0.00, 1, 1, 12,  34.8946472, -86.6165756,   240.0, 2025,  5,  4, 14, 47, 58,        0,        0,   0,   0,   1.1,   0.7,   0.9, 34, 36, 40,  0,  0, 22, 32,  0,  0,  0, 22,  0, 12, 31,  0,  0, 27,  0, 32,  0,  0, 27,  0, 36,  0,  0,  0,  0,  0,  0,  0,  0
6, 11115, 5,N0CALL,     0.23, 3,   boost,  115.23,  98539.00,  234.54,    3.15,   30.13, 22.1, 3.83, 3.84, 3.85,-130.19,  10.15,   6.83,  28.03,   5.67,  -6.05,  -0.61,   0.19,   0.17,   5.61, 3.85, 0.00, 0.00, 0.00, 0.00, 1, 1, 12,  34.8946472, -86.6165756,   240.0, 2025,  5,  4, 14, 47, 58,        0,        0,   0,   0,   1.1,   0.7,   0.9, 34, 36, 40,  0,  0, 22, 32,  0,  0,  0, 22,  0, 12, 31,  0,  0, 27,  0, 32,  0,  0, 27,  0, 36,  0,  0,  0,  0,  0,  0,  0,  0
6, 11115, 5,N0CALL,     0.24, 3,   boost,  115.72,  98543.00,  234.20,    2.81,   31.29, 22.1, 3.83, 3.84, 3.85,-130.25,   2.07,   1.11,  26.63,   4.94,  -2.26,  -0.61,   0.19,   0.17,   5.60, 3.85, 0.00, 0.00, 0.00, 0.00, 1, 1, 12,  34.8946472, -86.6165756,   240.0, 2025,  5,  4, 14, 47, 58,        0,        0,   0,   0,   1.1,   0.7,   0.9, 34, 36, 40,  0,  0, 22, 32,  0,  0,  0, 22,  0, 12, 31,  0,  0, 27,  0, 32,  0,  0, 27,  0, 36,  0,  0,  0,  0,  0,  0,  0,  0
6, 11115, 5,N0CALL,     0.25, 3,   boost,  118.66,  98543.00,  234.20,    2.81,   32.46, 22.1, 3.83, 3.84, 3.85,-131.11,  -3.28,  -1.63,  23.64,   6.52,  -6.29,  -0.61,   0.19,   0.17,   5.55, 3.85, 0.00, 0.00, 0.00, 0.00, 1, 1, 12,  34.8946472, -86.6165756,   240.0, 2025,  5,  4, 14, 47, 58,        0,        0,   0,   0,   1.1,   0.7,   0.9, 34, 36, 40,  0,  0, 22, 32,  0,  0,  0, 22,  0, 12, 31,  0,  0, 27,  0, 32,  0,  0, 27,  0, 36,  0,  0,  0,  0,  0,  0,  0,  0
6, 11115, 5,N0CALL,     0.26, 3,   boost,  119.15,  98528.00,  235.47,    4.09,   33.63, 22.1, 3.83, 3.84, 3.85,-132.34,  -4.89,   5.47,  19.06,   6.28,  -4.09,  -0.60,   0.19,   0.17,   5.52, 3.85, 0.00, 0.00, 0.00, 0.00, 1, 1, 12,  34.8946472, -86.6165756,   240.0, 2025,  5,  4, 14, 47, 58,        0,        0,   0,   0,   1.1,   0.7,   0.9, 34, 36, 40,  0,  0, 22, 32,  0,  0,  0, 22,  0, 12, 31,  0,  0, 27,  0, 32,  0,  0, 27,  0, 36,  0,  0,  0,  0,  0,  0,  0,  0
6, 11115, 5,N0CALL,     0.27, 3,   boost,  120.62,  98528.00,  235.47,    4.09,   34.82, 22.1, 3.83, 3.84, 3.85,-133.66,   2.03,   2.52,  19.00,   7.56,  -5.37,  -0.60,   0.19,   0.17,   5.49, 3.85, 0.00, 0.00, 0.00, 0.00, 1, 1, 12,  34.8946472, -86.6165756,   240.0, 2025,  5,  4, 14, 47, 58,        0,        0,   0,   0,   1.1,   0.7,   0.9, 34, 36, 40,  0,  0, 22, 32,  0,  0,  0, 22,  0, 12, 31,  0,  0, 27,  0, 32,  0,  0, 27,  0, 36,  0,  0,  0,  0,  0,  0,  0,  0
6, 11115, 5,N0CALL,     0.28, 3,   boost,  119.64,  98516.00,  236.50,    5.11,   36.02, 22.1, 3.83, 3.84, 3.85,-134.41,  -0.87,  -2.06,  17.78,   7.68,  -6.35,  -0.60,   0.19,   0.17,   5.44, 3.85, 0.00, 0.00, 0.00, 0.00, 1, 1, 12,  34.8946472, -86.6165756,   240.0, 2025,  5,  4, 14, 47, 58,        0,        0,   0,   0,   1.1,   0.7,   0.9, 34, 36, 40,  0,  0, 22, 32,  0,  0,  0, 22,  0, 12, 31,  0,  0, 27,  0, 32,  0,  0, 27,  0, 36,  0,  0,  0,  0,  0,  0,  0,  0
6, 11115, 5,N0CALL,     0.29, 3,   boost,  121.11,  98516.00,  236.50,    5.11,   37.22, 22.1, 3.83, 3.84, 3.85,-134.47,  -5.78,   2.44,  15.52,   7.38,  -6.78,  -0.60,   0.19,   0.17,   5.39, 3.85, 0.00, 0.00, 0.00, 0.00, 1, 1, 12,  34.8946472, -86.6165756,   240.0, 2025,  5,  4, 14, 47, 58,        0,        0,   0,   0,   1.1,   0.7,   0.9, 34, 36, 40,  0,  0, 22, 32,  0,  0,  0, 22,  0, 12, 31,  0,  0, 27,  0, 32,  0,  0, 27,  0, 36,  0,  0,  0,  0,  0,  0,  0,  0
6, 11115, 5,N0CALL,     0.30, 3,   boost,  121.60,  98514.00,  236.67,    5.28,   38.42, 22.1, 3.83, 3.84, 3.85,-135.02,  -3.29,   3.53,  12.35,   7.62,  -6.05,  -0.60,   0.19,   0.17,   5.35, 3.85, 0.00, 0.00, 0.00, 0.00, 1, 1, 12,  34.8946472, -86.6165756,   240.0, 2025,  5,  4, 14, 47, 58,        0,        0,   0,   0,   1.1,   0.7,   0.9, 34, 36, 40,  0,  0, 22, 32,  0,  0,  0, 22,  0, 12, 31,  0,  0, 27,  0, 32,  0,  0, 27,  0, 36,  0,  0,  0,  0,  0,  0,  0,  0
6, 11115, 5,N0CALL,     0.31, 3,   boost,  122.58,  98514.00,  236.67,    5.28,   39.63, 22.1, 3.83, 3.84, 3.85,-135.36,   0.32,  -0.17,  10.27,   8.42,  -6.78,  -0.60,   0.18,   0.18,   5.31, 3.85, 0.00, 0.00, 0.00, 0.00, 1, 1, 12,  34.8946472, -86.6165756,   240.0, 2025,  5,  4, 14, 47, 58,        0,        0,   0,   0,   1.1,   0.7,   0.9, 34, 36, 40,  0,  0, 22, 32,  0,  0,  0, 22,  0, 12, 31,  0,  0, 27,  0, 32,  0,  0, 27,  0, 36,  0,  0,  0,  0,  0,  0,  0,  0
6, 11115, 5,N0CALL,     0.32, 3,   boost,  122.09,  98501.00,  237.77,    6.39,   40.84, 22.1, 3.83, 3.84, 3.85,-135.83,  -3.02,  -0.24,   8.26,   7.93,  -7.51,  -0.60,   0.18,   0.18,   5.26, 3.85, 0.00, 0.00, 0.00, 0.00, 1, 1, 12,  34.8946472, -86.6165756,   240.0, 2025,  5,  4, 14, 47, 58,        0,        0,   0,   0,   1.1,   0.7,   0.9, 34, 36, 40,  0,  0, 22, 32,  0,  0,  0, 22,  0, 12, 31,  0,  0, 27,  0, 32,  0,  0, 27,  0, 36,  0,  0,  0,  0,  0,  0,  0,  0
6, 11115, 5,N0CALL,     0.33, 3,   boost,  119.64,  98501.00,  237.77,    6.39,   42.05, 22.1, 3.83, 3.84, 3.85,-135.71,  -5.06,   3.89,   6.06,   8.90,  -7.51,  -0.60,   0.18,   0.18,   5.21, 3.85, 0.00, 0.00, 0.00, 0.00, 1, 1, 12,  34.8946472, -86.6165756,   240.0, 2025,  5,  4, 14, 47, 58,        0,        0,   0,   0,   1.1,   0.7,   0.9, 34, 36, 40,  0,  0, 22, 32,  0,  0,  0, 22,  0, 12, 31,  0,  0, 27,  0, 32,  0,  0, 27,  0, 36,  0,  0,  0,  0,  0,  0,  0,  0
6, 11115, 5,N0CALL,     0.34, 3,   boost,  122.58,  98500.00,  237.86,    6.47,   43.27, 22.1, 3.84, 3.83, 3.84,-136.50,  -2.04,   2.62,   3.44,   9.15,  -7.27,  -0.60,   0.18,   0.18,   5.17, 3.86, 0.00, 0.00, 0.00, 0.00, 1, 1, 12,  34.8946472, -86.6165756,   240.0, 2025,  5,  4, 14, 47, 58,        0,        0,   0,   0,   1.1,   0.7,   0.9, 34, 36, 40,  0,  0, 22, 32,  0,  0,  0, 22,  0, 12, 31,  0,  0, 27,  0, 32,  0,  0, 27,  0, 36,  0,  0,  0,  0,  0,  0,  0,  0
6, 11115, 5,N0CALL,     0.34, 3,   boost,  122.58,  98500.00,  237.86,    6.47,   43.27, 22.1, 3.84, 3.83, 3.84,-136.50,  -2.04,   2.62,   3.44,   9.15,  -7.27,  -0.60,   0.18,   0.18,   5.17, 3.86, 0.00, 0.00, 0.00, 0.00, 1, 1, 12,  34.8946472, -86.6165756,   240.0, 2025,  5,  4, 14, 47, 58,        0,        0,   0,   0,   1.1,   0.7,   0.9, 34, 36, 40,  0,  0, 22, 32,  0,  0,  0, 22,  0, 12, 31,  0,  0, 27,  0, 32,  0,  0, 27,  0, 36,  0,  0,  0,  0,  0,  0,  0,  0
6, 11115, 5,N0CALL,     0.35, 3,   boost,  122.58,  98500.00,  237.86,    6.47,   44.48, 22.1, 3.84, 3.83, 3.84,-136.74,  -1.25,  -0.57,   0.69,   9.21,  -7.88,  -0.60,   0.18,   0.18,   5.13, 3.86, 0.00, 0.00, 0.00, 0.00, 1, 1, 12,  34.8946472, -86.6165756,   240.0, 2025,  5,  4, 14, 47, 58,        0,        0,   0,   0,   1.1,   0.7,   0.9, 34, 36, 40,  0,  0, 22, 32,  0,  0,  0, 22,  0, 12, 31,  0,  0, 27,  0, 32,  0,  0, 27,  0, 36,  0,  0,  0,  0,  0,  0,  0,  0
6, 11115, 5,N0CALL,     0.36, 3,   boost,  123.56,  98500.00,  237.86,    6.47,   45.70, 22.1, 3.84, 3.83, 3.84,-137.34,  -3.92,   1.89,  -1.45,   9.21,  -8.18,  -0.60,   0.18,   0.18,   5.09, 3.86, 0.00, 0.00, 0.00, 0.00, 1, 1, 12,  34.8946472, -86.6165756,   240.0, 2025,  5,  4, 14, 47, 58,        0,        0,   0,   0,   1.1,   0.7,   0.9, 34, 36, 40,  0,  0, 22, 32,  0,  0,  0, 22,  0, 12, 31,  0,  0, 27,  0, 32,  0,  0, 27,  0, 36,  0,  0,  0,  0,  0,  0,  0,  0
6, 11115, 5,N0CALL,     0.37, 3,   boost,  120.62,  98500.00,  237.86,    6.47,   46.92, 22.1, 3.84, 3.83, 3.84,-137.49,  -3.82,   3.35,  -4.86,   9.64,  -8.06,  -0.60,   0.18,   0.18,   5.05, 3.86, 0.00, 0.00, 0.00, 0.00, 1, 1, 12,  34.8946472, -86.6165756,   240.0, 2025,  5,  4, 14, 47, 58,        0,        0,   0,   0,   1.1,   0.7,   0.9, 34, 36, 40,  0,  0, 22, 32,  0,  0,  0, 22,  0, 12, 31,  0,  0, 27,  0, 32,  0,  0, 27,  0, 36,  0,  0,  0,  0,  0,  0,  0,  0
6, 11115, 5,N0CALL,     0.38, 3,   boost,  123.56,  98491.00,  238.63,    7.24,   48.14, 22.1, 3.84, 3.83, 3.84,-137.85,  -1.72,   0.38,  -7.73,  10.06,  -8.49,  -0.60,   0.18,   0.18,   5.01, 3.86, 0.00, 0.00, 0.00, 0.00, 1, 1, 12,  34.8946472, -86.6165756,   240.0, 2025,  5,  4, 14, 47, 58,        0,        0,   0,   0,   1.1,   0.7,   0.9, 34, 36, 40,  0,  0, 22, 32,  0,  0,  0, 22,  0, 12, 31,  0,  0, 27,  0, 32,  0,  0, 27,  0, 36,  0,  0,  0,  0,  0,  0,  0,  0
6, 11115, 5,N0CALL,     0.39, 3,   boost,  123.56,  98491.00,  238.63,    7.24,   49.37, 22.1, 3.84, 3.83, 3.84,-138.73,  -2.64,   0.43,  -9.75,  10.37,  -9.16,  -0.60,   0.18,   0.18,   4.97, 3.86, 0.00, 0.00, 0.00, 0.00, 1, 1, 12,  34.8946472, -86.6165756,   240.0, 2025,  5,  4, 14, 47, 58,        0,        0,   0,   0,   1.1,   0.7,   0.9, 34, 36, 40,  0,  0, 22, 32,  0,  0,  0, 22,  0, 12, 31,  0,  0, 27,  0, 32,  0,  0, 27,  0, 36,  0,  0,  0,  0,  0,  0,  0,  0
6, 11115, 5,N0CALL,     0.40, 3,   boost,  124.54,  98481.00,  239.48,    8.09,   50.61, 22.1, 3.84, 3.83, 3.84,-138.62,  -4.17,   3.08, -12.56,  10.55,  -8.85,  -0.60,   0.18,   0.18,   4.94, 3.86, 0.00, 0.00, 0.00, 0.00, 1, 1, 12,  34.8946472, -86.6165756,   240.0, 2025,  5,  4, 14, 47, 58,        0,        0,   0,   0,   1.1,   0.7,   0.9, 34, 36, 40,  0,  0, 22, 32,  0,  0,  0, 22,  0, 12, 31,  0,  0, 27,  0, 32,  0,  0, 27,  0, 36,  0,  0,  0,  0,  0,  0,  0,  0
6, 11115, 5,N0CALL,     0.41, 3,   boost,  124.54,  98481.00,  239.48,    8.09,   51.84, 22.1, 3.84, 3.83, 3.84,-138.98,  -2.79,   1.88, -15.61,  11.10,  -9.40,  -0.60,   0.18,   0.18,   4.91, 3.86, 0.00, 0.00, 0.00, 0.00, 1, 1, 12,  34.8946472, -86.6165756,   240.0, 2025,  5,  4, 14, 47, 58,        0,        0,   0,   0,   1.1,   0.7,   0.9, 34, 36, 40,  0,  0, 22, 32,  0,  0,  0, 22,  0, 12, 31,  0,  0, 27,  0, 32,  0,  0, 27,  0, 36,  0,  0,  0,  0,  0,  0,  0,  0
6, 11115, 5,N0CALL,     0.42, 3,   boost,  124.54,  98459.00,  241.35,    9.96,   53.08, 22.1, 3.84, 3.83, 3.84,-138.91,  -1.74,   0.11, -17.68,  11.04,  -9.52,  -0.60,   0.18,   0.18,   4.89, 3.86, 0.00, 0.00, 0.00, 0.00, 1, 1, 12,  34.8946472, -86.6165756,   240.0, 2025,  5,  4, 14, 47, 58,        0,        0,   0,   0,   1.1,   0.7,   0.9, 34, 36, 40,  0,  0, 22, 32,  0,  0,  0, 22,  0, 12, 31,  0,  0, 27,  0, 32,  0,  0, 27,  0, 36,  0,  0,  0,  0,  0,  0,  0,  0
6, 11115, 5,N0CALL,     0.43, 3,   boost,  124.54,  98459.00,  241.35,    9.96,   54.32, 22.1, 3.84, 3.83, 3.84,-139.51,  -3.64,   2.16, -20.18,  11.10,  -9.95,  -0.60,   0.17,   0.18,   4.86, 3.86, 0.00, 0.00, 0.00, 0.00, 1, 1, 12,  34.8946472, -86.6165756,   240.0, 2025,  5,  4, 14, 47, 58,        0,        0,   0,   0,   1.1,   0.7,   0.9, 34, 36, 40,  0,  0, 22, 32,  0,  0,  0, 22,  0, 12, 31,  0,  0, 27,  0, 32,  0,  0, 27,  0, 36,  0,  0,  0,  0,  0,  0,  0,  0
6, 11115, 5,N0CALL,     0.44, 3,   boost,  124.54,  98445.00,  242.54,   11.16,   55.57, 22.1, 3.84, 3.83, 3.84,-140.05,  -3.78,   2.54, -23.42,  11.77,  -9.95,  -0.60,   0.17,   0.18,   4.84, 3.86, 0.00, 0.00, 0.00, 0.00, 1, 1, 12,  34.8946472, -86.6165756,   240.0, 2025,  5,  4, 14, 47, 58,        0,        0,   0,   0,   1.1,   0.7,   0.9, 34, 36, 40,  0,  0, 22, 32,  0,  0,  0, 22,  0, 12, 31,  0,  0, 27,  0, 32,  0,  0, 27,  0, 36,  0,  0,  0,  0,  0,  0,  0,  0
6, 11115, 5,N0CALL,     0.45, 3,   boost,  126.51,  98445.00,  242.54,   11.16,   56.81, 22.1, 3.84, 3.83, 3.84,-139.97,  -2.25,   0.47, -26.04,  11.90, -10.26,  -0.60,   0.17,   0.18,   4.83, 3.86, 0.00, 0.00, 0.00, 0.00, 1, 1, 12,  34.8946472, -86.6165756,   240.0, 2025,  5,  4, 14, 47, 58,        0,        0,   0,   0,   1.1,   0.7,   0.9, 34, 36, 40,  0,  0, 22, 32,  0,  0,  0, 22,  0, 12, 31,  0,  0, 27,  0, 32,  0,  0, 27,  0, 36,  0,  0,  0,  0,  0,  0,  0,  0
6, 11115, 5,N0CALL,     0.46, 3,   boost,  125.03,  98448.00,  242.29,   10.90,   58.06, 22.1, 3.84, 3.83, 3.84,-140.09,  -3.17,   1.24, -28.49,  12.51, -10.44,  -0.60,   0.17,   0.18,   4.83, 3.86, 0.00, 0.00, 0.00, 0.00, 1, 1, 12,  34.8946472, -86.6165756,   240.0, 2025,  5,  4, 14, 47, 58,        0,        0,   0,   0,   1.1,   0.7,   0.9, 34, 36, 40,  0,  0, 22, 32,  0,  0,  0, 22,  0, 12, 31,  0,  0, 27,  0, 32,  0,  0, 27,  0, 36,  0,  0,  0,  0,  0,  0,  0,  0
6, 11115, 5,N0CALL,     0.47, 3,   boost,  123.07,  98448.00,  242.29,   10.90,   59.31, 22.1, 3.84, 3.83, 3.84,-140.36,  -4.04,   2.70, -31.48,  12.51, -10.32,  -0.60,   0.17,   0.18,   4.83, 3.86, 0.00, 0.00, 0.00, 0.00, 1, 1, 12,  34.8946472, -86.6165756,   240.0, 2025,  5,  4, 14, 47, 58,        0,        0,   0,   0,   1.1,   0.7,   0.9, 34, 36, 40,  0,  0, 22, 32,  0,  0,  0, 22,  0, 12, 31,  0,  0, 27,  0, 32,  0,  0, 27,  0, 36,  0,  0,  0,  0,  0,  0,  0,  0
6, 11115, 5,N0CALL,     0.48, 3,   boost,  127.98,  98425.00,  244.25,   12.86,   60.55, 22.1, 3.84, 3.83, 3.84,-140.66,  -3.39,   1.14, -34.59,  13.18, -10.26,  -0.59,   0.17,   0.18,   4.85, 3.86, 0.00, 0.00, 0.00, 0.00, 1, 1, 12,  34.8946472, -86.6165756,   240.0, 2025,  5,  4, 14, 47, 58,        0,        0,   0,   0,   1.1,   0.7,   0.9, 34, 36, 40,  0,  0, 22, 32,  0,  0,  0, 22,  0, 12, 31,  0,  0, 27,  0, 32,  0,  0, 27,  0, 36,  0,  0,  0,  0,  0,  0,  0,  0
6, 11115, 5,N0CALL,     0.49, 3,   boost,  124.54,  98425.00,  244.25,   12.86,   61.80, 22.1, 3.84, 3.83, 3.84,-140.75,  -2.70,   0.78, -37.40,  13.24, -10.13,  -0.59,   0.17,   0.18,   4.87, 3.86, 0.00, 0.00, 0.00, 0.00, 1, 1, 12,  34.8946472, -86.6165756,   240.0, 2025,  5,  4, 14, 47, 58,        0,        0,   0,   0,   1.1,   0.7,   0.9, 34, 36, 40,  0,  0, 22, 32,  0,  0,  0, 22,  0, 12, 31,  0,  0, 27,  0, 32,  0,  0, 27,  0, 36,  0,  0,  0,  0,  0,  0,  0,  0
6, 11115, 5,N0CALL,     0.50, 3,   boost,  124.54,  98427.00,  244.08,   12.69,   63.05, 22.1, 3.84, 3.83, 3.84,-140.48,  -3.77,   2.25, -40.81,  13.79, -10.44,  -0.59,   0.17,   0.18,   4.90, 3.86, 0.00, 0.00, 0.00, 0.00, 1, 1, 12,  34.8946472, -86.6165756,   240.0, 2025,  5,  4, 14, 47, 58,        0,        0,   0,   0,   1.1,   0.7,   0.9, 34, 36, 40,  0,  0, 22, 32,  0,  0,  0, 22,  0, 12, 31,  0,  0, 27,  0, 32,  0,  0, 27,  0, 36,  0,  0,  0,  0,  0,  0,  0,  0
6, 11115, 5,N0CALL,     0.51, 3,   boost,  125.53,  98427.00,  244.08,   12.69,   64.30, 22.1, 3.84, 3.83, 3.84,-140.20,  -3.85,   1.67, -43.93,  13.42, -10.07,  -0.59,   0.17,   0.18,   4.94, 3.86, 0.00, 0.00, 0.00, 0.00, 1, 1, 12,  34.8946472, -86.6165756,   240.0, 2025,  5,  4, 14, 47, 58,        0,        0,   0,   0,   1.1,   0.7,   0.9, 34, 36, 40,  0,  0, 22, 32,  0,  0,  0, 22,  0, 12, 31,  0,  0, 27,  0, 32,  0,  0, 27,  0, 36,  0,  0,  0,  0,  0,  0,  0,  0
6, 11115, 5,N0CALL,     0.52, 3,   boost,  126.02,  98410.00,  245.53,   14.14,   65.54, 22.1, 3.84, 3.83, 3.84,-140.13,  -3.31,   0.47, -47.10,  14.09,  -9.77,  -0.59,   0.16,   0.18,   4.99, 3.86, 0.00, 0.00, 0.00, 0.00, 1, 1, 12,  34.8946472, -86.6165756,   240.0, 2025,  5,  4, 14, 47, 58,        0,        0,   0,   0,   1.1,   0.7,   0.9, 34, 36, 40,  0,  0, 22, 32,  0,  0,  0, 22,  0, 12, 31,  0,  0, 27,  0, 32,  0,  0, 27,  0, 36,  0,  0,  0,  0,  0,  0,  0,  0
6, 11115, 5,N0CALL,     0.53, 3,   boost,  124.05,  98410.00,  245.53,   14.14,   66.79, 22.1, 3.84, 3.83, 3.84,-139.93,  -3.74,   1.77, -50.52,  14.40,  -9.34,  -0.59,   0.16,   0.18,   5.05, 3.86, 0.00, 0.00, 0.00, 0.00, 1, 1, 12,  34.8946472, -86.6165756,   240.0, 2025,  5,  4, 14, 47, 58,        0,        0,   0,   0,   1.1,   0.7,   0.9, 34, 36, 40,  0,  0, 22, 32,  0,  0,  0, 22,  0, 12, 31,  0,  0, 27,  0, 32,  0,  0, 27,  0, 36,  0,  0,  0,  0,  0,  0,  0,  0
6, 11115, 5,N0CALL,     0.54, 3,   boost,  125.53,  98399.00,  246.46,   15.08,   68.03, 22.1, 3.84, 3.83, 3.84,-139.97,  -3.92,   2.00, -53.63,  14.34,  -8.79,  -0.59,   0.16,   0.18,   5.12, 3.86, 0.00, 0.00, 0.00, 0.00, 1, 1, 12,  34.8946472, -86.6165756,   240.0, 2025,  5,  4, 14, 47, 58,        0,        0,   0,   0,   1.1,   0.7,   0.9, 34, 36, 40,  0,  0, 22, 32,  0,  0,  0, 22,  0, 12, 31,  0,  0, 27,  0, 32,  0,  0, 27,  0, 36,  0,  0,  0,  0,  0,  0,  0,  0
6, 11115, 5,N0CALL,     0.55, 3,   boost,  123.56,  98399.00,  246.46,   15.08,   69.27, 22.1, 3.84, 3.83, 3.84,-139.87,  -3.66,   0.75, -57.11,  14.40,  -8.85,  -0.59,   0.16,   0.18,   5.20, 3.86, 0.00, 0.00, 0.00, 0.00, 1, 1, 12,  34.8946472, -86.6165756,   240.0, 2025,  5,  4, 14, 47, 58,        0,        0,   0,   0,   1.1,   0.7,   0.9, 34, 36, 40,  0,  0, 22, 32,  0,  0,  0, 22,  0, 12, 31,  0,  0, 27,  0, 32,  0,  0, 27,  0, 36,  0,  0,  0,  0,  0,  0,  0,  0
