#version,serial,flight,call,time,state,state_name,acceleration,pressure,altitude,height,speed,temperature,drogue_voltage,main_voltage,battery_voltage,accel_x,accel_y,accel_z,gyro_roll,gyro_pitch,gyro_yaw,mag_x,mag_y,mag_z,tilt,pyro,igniter_a,igniter_b,igniter_c,igniter_d,connected,locked,nsat,latitude,longitude,altitude,year,month,day,hour,minute,second,pad_dist,pad_range,pad_az,pad_el,pdop,hdop,vdop,sat01,sat02,sat03,sat04,sat05,sat06,sat07,sat08,sat09,sat10,sat11,sat12,sat13,sat14,sat15,sat16,sat17,sat18,sat19,sat20,sat21,sat22,sat23,sat24,sat25,sat26,sat27,sat28,sat29,sat30,sat31,sat32
6, 11115, 9,KC9SZP,    -0.30, 3,   boost,    0.49,  90309.00,  960.23,   -0.91,    0.00, 55.8, 0.00, 3.64, 3.66,   9.76,   0.59,  -0.17,  -0.15,  -0.33,   0.08,   0.20,  -0.45,   0.01,   4.01, 3.66, 0.00, 0.00, 0.00, 0.00, 1, 1, 10,  31.0471372,-103.5271363,   890.0, 2026,  6, 17, 23, 54,  7,        0,        0,   0,   0,   1.3,   0.8,   1.0, 18, 22, 11,  0,  0,  0,  0, 10,  0, 23,  0, 28,  0,  0,  0,  0,  0,  0,  0,  0,  0,  0, 32,  0, 20, 21,  0, 18,  0,  0, 24, 32
6, 11115, 9,KC9SZP,    -0.29, 3,   boost,   -1.47,  90295.00,  961.51,    0.37,    0.00, 55.8, 0.00, 3.64, 3.66,   9.79,   0.63,  -0.13,   0.77,  -0.51,  -0.11,   0.21,  -0.45,   0.01,   4.01, 3.66, 0.00, 0.00, 0.00, 0.00, 1, 1, 10,  31.0471372,-103.5271363,   890.0, 2026,  6, 17, 23, 54,  7,        0,        0,   0,   0,   1.3,   0.8,   1.0, 18, 22, 11,  0,  0,  0,  0, 10,  0, 23,  0, 28,  0,  0,  0,  0,  0,  0,  0,  0,  0,  0, 32,  0, 20, 21,  0, 18,  0,  0, 24, 32
6, 11115, 9,KC9SZP,    -0.28, 3,   boost,   -2.45,  90295.00,  961.51,    0.37,    0.00, 55.8, 0.00, 3.64, 3.66,   9.74,   0.78,  -0.05,   1.38,  -0.15,   0.02,   0.21,  -0.45,   0.01,   4.01, 3.66, 0.00, 0.00, 0.00, 0.00, 1, 1, 10,  31.0471372,-103.5271363,   890.0, 2026,  6, 17, 23, 54,  7,        0,        0,   0,   0,   1.3,   0.8,   1.0, 18, 22, 11,  0,  0,  0,  0, 10,  0, 23,  0, 28,  0,  0,  0,  0,  0,  0,  0,  0,  0,  0, 32,  0, 20, 21,  0, 18,  0,  0, 24, 32
6, 11115, 9,KC9SZP,    -0.27, 3,   boost,    0.98,  90308.00,  960.32,   -0.82,    0.00, 55.8, 0.00, 3.64, 3.66,   9.78,   0.68,  -0.01,   0.46,  -0.70,   0.08,   0.20,  -0.45,   0.01,   4.01, 3.66, 0.00, 0.00, 0.00, 0.00, 1, 1, 10,  31.0471372,-103.5271363,   890.0, 2026,  6, 17, 23, 54,  7,        0,        0,   0,   0,   1.3,   0.8,   1.0, 18, 22, 11,  0,  0,  0,  0, 10,  0, 23,  0, 28,  0,  0,  0,  0,  0,  0,  0,  0,  0,  0, 32,  0, 20, 21,  0, 18,  0,  0, 24, 32
6, 11115, 9,KC9SZP,    -0.26, 3,   boost,    2.45,  90308.00,  960.32,   -0.82,    0.00, 55.8, 0.00, 3.64, 3.66,   9.81,   0.55,  -0.08,  -0.82,  -0.45,   0.02,   0.21,  -0.45,   0.00,   4.01, 3.66, 0.00, 0.00, 0.00, 0.00, 1, 1, 10,  31.0471372,-103.5271363,   890.0, 2026,  6, 17, 23, 54,  7,        0,        0,   0,   0,   1.3,   0.8,   1.0, 18, 22, 11,  0,  0,  0,  0, 10,  0, 23,  0, 28,  0,  0,  0,  0,  0,  0,  0,  0,  0,  0, 32,  0, 20, 21,  0, 18,  0,  0, 24, 32
6, 11115, 9,KC9SZP,    -0.25, 3,   boost,   -0.49,  90310.00,  960.14,   -1.01,    0.00, 55.8, 0.00, 3.64, 3.66,   9.77,   0.38,  -0.23,  -0.39,  -0.21,   0.14,   0.21,  -0.45,   0.01,   4.01, 3.66, 0.00, 0.00, 0.00, 0.00, 1, 1, 10,  31.0471372,-103.5271363,   890.0, 2026,  6, 17, 23, 54,  7,        0,        0,   0,   0,   1.3,   0.8,   1.0, 18, 22, 11,  0,  0,  0,  0, 10,  0, 23,  0, 28,  0,  0,  0,  0,  0,  0,  0,  0,  0,  0, 32,  0, 20, 21,  0, 18,  0,  0, 24, 32
6, 11115, 9,KC9SZP,    -0.24, 3,   boost,   -2.45,  90310.00,  960.14,   -1.01,    0.00, 55.8, 0.00, 3.64, 3.66,   9.78,   0.43,  -0.19,   0.52,   0.10,   0.32,   0.21,  -0.45,   0.01,   4.01, 3.66, 0.00, 0.00, 0.00, 0.00, 1, 1, 10,  31.0471372,-103.5271363,   890.0, 2026,  6, 17, 23, 54,  7,        0,        0,   0,   0,   1.3,   0.8,   1.0, 18, 22, 11,  0,  0,  0,  0, 10,  0, 23,  0, 28,  0,  0,  0,  0,  0,  0,  0,  0,  0,  0, 32,  0, 20, 21,  0, 18,  0,  0, 24, 32
6, 11115, 9,KC9SZP,    -0.23, 3,   boost,    0.98,  90294.00,  961.60,    0.46,    0.00, 55.8, 0.00, 3.64, 3.66,   9.76,   0.58,  -0.19,   0.89,  -0.27,   0.14,   0.21,  -0.45,   0.01,   4.01, 3.66, 0.00, 0.00, 0.00, 0.00, 1, 1, 10,  31.0471372,-103.5271363,   890.0, 2026,  6, 17, 23, 54,  7,        0,        0,   0,   0,   1.3,   0.8,   1.0, 18, 22, 11,  0,  0,  0,  0, 10,  0, 23,  0, 28,  0,  0,  0,  0,  0,  0,  0,  0,  0,  0, 32,  0, 20, 21,  0, 18,  0,  0, 24, 32
6, 11115, 9,KC9SZP,    -0.22, 3,   boost,   -0.49,  90294.00,  961.60,    0.46,    0.00, 55.8, 0.00, 3.64, 3.66,   9.76,   0.78,  -0.12,   0.71,  -0.09,   0.26,   0.20,  -0.45,   0.01,   4.01, 3.66, 0.00, 0.00, 0.00, 0.00, 1, 1, 10,  31.0471372,-103.5271363,   890.0, 2026,  6, 17, 23, 54,  7,        0,        0,   0,   0,   1.3,   0.8,   1.0, 18, 22, 11,  0,  0,  0,  0, 10,  0, 23,  0, 28,  0,  0,  0,  0,  0,  0,  0,  0,  0,  0, 32,  0, 20, 21,  0, 18,  0,  0, 24, 32
6, 11115, 9,KC9SZP,    -0.21, 3,   boost,    1.47,  90303.00,  960.78,   -0.37,    0.00, 55.8, 0.00, 3.64, 3.66,   9.73,   0.88,  -0.07,   0.34,  -0.33,   0.08,   0.20,  -0.45,   0.01,   4.01, 3.66, 0.00, 0.00, 0.00, 0.00, 1, 1, 10,  31.0471372,-103.5271363,   890.0, 2026,  6, 17, 23, 54,  7,        0,        0,   0,   0,   1.3,   0.8,   1.0, 18, 22, 11,  0,  0,  0,  0, 10,  0, 23,  0, 28,  0,  0,  0,  0,  0,  0,  0,  0,  0,  0, 32,  0, 20, 21,  0, 18,  0,  0, 24, 32
6, 11115, 9,KC9SZP,    -0.20, 3,   boost,    1.96,  90303.00,  960.78,   -0.37,    0.00, 55.8, 0.00, 3.64, 3.66,   9.79,   0.83,   0.04,  -0.51,   0.10,  -0.05,   0.20,  -0.45,   0.01,   4.01, 3.66, 0.00, 0.00, 0.00, 0.00, 1, 1, 10,  31.0471372,-103.5271363,   890.0, 2026,  6, 17, 23, 54,  7,        0,        0,   0,   0,   1.3,   0.8,   1.0, 18, 22, 11,  0,  0,  0,  0, 10,  0, 23,  0, 28,  0,  0,  0,  0,  0,  0,  0,  0,  0,  0, 32,  0, 20, 21,  0, 18,  0,  0, 24, 32
6, 11115, 9,KC9SZP,    -0.19, 3,   boost,   -0.49,  90306.00,  960.50,   -0.64,    0.02, 55.8, 0.00, 3.64, 3.66,   9.73,   0.77,   0.04,  -0.33,  -0.15,   0.26,   0.20,  -0.45,   0.01,   4.01, 3.66, 0.00, 0.00, 0.00, 0.00, 1, 1, 10,  31.0471372,-103.5271363,   890.0, 2026,  6, 17, 23, 54,  7,        0,        0,   0,   0,   1.3,   0.8,   1.0, 18, 22, 11,  0,  0,  0,  0, 10,  0, 23,  0, 28,  0,  0,  0,  0,  0,  0,  0,  0,  0,  0, 32,  0, 20, 21,  0, 18,  0,  0, 24, 32
6, 11115, 9,KC9SZP,    -0.18, 3,   boost,   -0.00,  90306.00,  960.50,   -0.64,    0.06, 55.8, 0.00, 3.64, 3.66,   9.82,   0.80,  -0.06,  -0.45,   0.10,  -0.05,   0.21,  -0.45,   0.01,   4.01, 3.66, 0.00, 0.00, 0.00, 0.00, 1, 1, 10,  31.0471372,-103.5271363,   890.0, 2026,  6, 17, 23, 54,  7,        0,        0,   0,   0,   1.3,   0.8,   1.0, 18, 22, 11,  0,  0,  0,  0, 10,  0, 23,  0, 28,  0,  0,  0,  0,  0,  0,  0,  0,  0,  0, 32,  0, 20, 21,  0, 18,  0,  0, 24, 32
6, 11115, 9,KC9SZP,    -0.17, 3,   boost,    4.41,  90308.00,  960.32,   -0.82,    0.14, 55.8, 0.00, 3.64, 3.66,   9.87,   0.68,  -0.04,  -0.33,   0.40,   0.14,   0.20,  -0.45,   0.01,   4.01, 3.66, 0.00, 0.00, 0.00, 0.00, 1, 1, 10,  31.0471372,-103.5271363,   890.0, 2026,  6, 17, 23, 54,  7,        0,        0,   0,   0,   1.3,   0.8,   1.0, 18, 22, 11,  0,  0,  0,  0, 10,  0, 23,  0, 28,  0,  0,  0,  0,  0,  0,  0,  0,  0,  0, 32,  0, 20, 21,  0, 18,  0,  0, 24, 32
6, 11115, 9,KC9SZP,    -0.16, 3,   boost,   13.24,  90308.00,  960.32,   -0.82,    0.28, 55.8, 0.00, 3.64, 3.66,  13.27,   0.43,  -0.36,  -0.57,  -0.51,   0.08,   0.20,  -0.45,   0.01,   4.01, 3.66, 0.00, 0.00, 0.00, 0.00, 1, 1, 10,  31.0471372,-103.5271363,   890.0, 2026,  6, 17, 23, 54,  7,        0,        0,   0,   0,   1.3,   0.8,   1.0, 18, 22, 11,  0,  0,  0,  0, 10,  0, 23,  0, 28,  0,  0,  0,  0,  0,  0,  0,  0,  0,  0, 32,  0, 20, 21,  0, 18,  0,  0, 24, 32
6, 11115, 9,KC9SZP,    -0.15, 3,   boost,   35.30,  90347.00,  956.76,   -4.39,    0.50, 55.8, 0.00, 3.64, 3.66,  20.63,  -0.29,  -0.71,  -2.59,   1.07,  -1.21,   0.21,  -0.45,   0.01,   4.01, 3.66, 0.00, 0.00, 0.00, 0.00, 1, 1, 10,  31.0471372,-103.5271363,   890.0, 2026,  6, 17, 23, 54,  7,        0,        0,   0,   0,   1.3,   0.8,   1.0, 18, 22, 11,  0,  0,  0,  0, 10,  0, 23,  0, 28,  0,  0,  0,  0,  0,  0,  0,  0,  0,  0, 32,  0, 20, 21,  0, 18,  0,  0, 24, 32
6, 11115, 9,KC9SZP,    -0.14, 3,   boost,   38.25,  90347.00,  956.76,   -4.39,    0.80, 55.8, 0.00, 3.64, 3.66,  42.00,   0.71,  -1.76,  -1.12,   6.75,  -1.27,   0.21,  -0.45,   0.01,   4.01, 3.66, 0.00, 0.00, 0.00, 0.00, 1, 1, 10,  31.0471372,-103.5271363,   890.0, 2026,  6, 17, 23, 54,  7,        0,        0,   0,   0,   1.3,   0.8,   1.0, 18, 22, 11,  0,  0,  0,  0, 10,  0, 23,  0, 28,  0,  0,  0,  0,  0,  0,  0,  0,  0,  0, 32,  0, 20, 21,  0, 18,  0,  0, 24, 32
6, 11115, 9,KC9SZP,    -0.13, 3,   boost,   37.27,  90301.00,  960.96,   -0.18,    1.15, 55.8, 0.00, 3.64, 3.66,  45.64,   0.75,  -0.73,  -0.70,  -0.27,   1.18,   0.21,  -0.45,   0.01,   4.01, 3.66, 0.00, 0.00, 0.00, 0.00, 1, 1, 10,  31.0471372,-103.5271363,   890.0, 2026,  6, 17, 23, 54,  7,        0,        0,   0,   0,   1.3,   0.8,   1.0, 18, 22, 11,  0,  0,  0,  0, 10,  0, 23,  0, 28,  0,  0,  0,  0,  0,  0,  0,  0,  0,  0, 32,  0, 20, 21,  0, 18,  0,  0, 24, 32
6, 11115, 9,KC9SZP,    -0.12, 3,   boost,   45.11,  90301.00,  960.96,   -0.18,    1.54, 55.8, 0.00, 3.64, 3.66,  48.02,   0.17,  -1.28,   6.51,  -0.21,   0.26,   0.21,  -0.45,   0.01,   4.01, 3.66, 0.00, 0.00, 0.00, 0.00, 1, 1, 10,  31.0471372,-103.5271363,   890.0, 2026,  6, 17, 23, 54,  7,        0,        0,   0,   0,   1.3,   0.8,   1.0, 18, 22, 11,  0,  0,  0,  0, 10,  0, 23,  0, 28,  0,  0,  0,  0,  0,  0,  0,  0,  0,  0, 32,  0, 20, 21,  0, 18,  0,  0, 24, 32
6, 11115, 9,KC9SZP,    -0.11, 3,   boost,   43.64,  90305.00,  960.59,   -0.55,    1.95, 55.8, 0.00, 3.64, 3.66,  51.00,   0.37,  -0.67,  10.72,   1.32,   0.56,   0.21,  -0.45,   0.01,   4.01, 3.66, 0.00, 0.00, 0.00, 0.00, 1, 1, 10,  31.0471372,-103.5271363,   890.0, 2026,  6, 17, 23, 54,  7,        0,        0,   0,   0,   1.3,   0.8,   1.0, 18, 22, 11,  0,  0,  0,  0, 10,  0, 23,  0, 28,  0,  0,  0,  0,  0,  0,  0,  0,  0,  0, 32,  0, 20, 21,  0, 18,  0,  0, 24, 32
6, 11115, 9,KC9SZP,    -0.10, 3,   boost,   43.64,  90305.00,  960.59,   -0.55,    2.38, 55.8, 0.00, 3.64, 3.66,  53.52,   1.42,  -1.34,  16.39,  -0.64,   0.38,   0.21,  -0.45,   0.01,   4.01, 3.66, 0.00, 0.00, 0.00, 0.00, 1, 1, 10,  31.0471372,-103.5271363,   890.0, 2026,  6, 17, 23, 54,  7,        0,        0,   0,   0,   1.3,   0.8,   1.0, 18, 22, 11,  0,  0,  0,  0, 10,  0, 23,  0, 28,  0,  0,  0,  0,  0,  0,  0,  0,  0,  0, 32,  0, 20, 21,  0, 18,  0,  0, 24, 32
6, 11115, 9,KC9SZP,    -0.09, 3,   boost,   41.68,  90280.00,  962.88,    1.74,    2.82, 55.8, 0.00, 3.64, 3.66,  52.19,   3.54,  -0.08,  18.65,   0.77,   1.11,   0.21,  -0.45,   0.01,   4.01, 3.66, 0.00, 0.00, 0.00, 0.00, 1, 1, 10,  31.0471372,-103.5271363,   890.0, 2026,  6, 17, 23, 54,  7,        0,        0,   0,   0,   1.3,   0.8,   1.0, 18, 22, 11,  0,  0,  0,  0, 10,  0, 23,  0, 28,  0,  0,  0,  0,  0,  0,  0,  0,  0,  0, 32,  0, 20, 21,  0, 18,  0,  0, 24, 32
6, 11115, 9,KC9SZP,    -0.08, 3,   boost,   46.09,  90280.00,  962.88,    1.74,    3.27, 55.8, 0.00, 3.64, 3.66,  53.65,   2.97,  -1.27,  14.13,   0.16,  -1.69,   0.21,  -0.45,   0.01,   4.01, 3.66, 0.00, 0.00, 0.00, 0.00, 1, 1, 10,  31.0471372,-103.5271363,   890.0, 2026,  6, 17, 23, 54,  7,        0,        0,   0,   0,   1.3,   0.8,   1.0, 18, 22, 11,  0,  0,  0,  0, 10,  0, 23,  0, 28,  0,  0,  0,  0,  0,  0,  0,  0,  0,  0, 32,  0, 20, 21,  0, 18,  0,  0, 24, 32
6, 11115, 9,KC9SZP,    -0.07, 3,   boost,   45.11,  90297.00,  961.32,    0.18,    3.73, 55.8, 0.00, 3.64, 3.66,  54.47,   0.32,  -1.03,  16.58,  -1.06,  -1.88,   0.21,  -0.45,   0.01,   4.01, 3.66, 0.00, 0.00, 0.00, 0.00, 1, 1, 10,  31.0471372,-103.5271363,   890.0, 2026,  6, 17, 23, 54,  7,        0,        0,   0,   0,   1.3,   0.8,   1.0, 18, 22, 11,  0,  0,  0,  0, 10,  0, 23,  0, 28,  0,  0,  0,  0,  0,  0,  0,  0,  0,  0, 32,  0, 20, 21,  0, 18,  0,  0, 24, 32
6, 11115, 9,KC9SZP,    -0.06, 3,   boost,   49.52,  90297.00,  961.32,    0.18,    4.22, 55.8, 0.00, 3.64, 3.66,  55.41,  -0.13,   0.06,  20.48,  -0.94,  -0.84,   0.21,  -0.45,   0.02,   4.01, 3.66, 0.00, 0.00, 0.00, 0.00, 1, 1, 10,  31.0471372,-103.5271363,   890.0, 2026,  6, 17, 23, 54,  7,        0,        0,   0,   0,   1.3,   0.8,   1.0, 18, 22, 11,  0,  0,  0,  0, 10,  0, 23,  0, 28,  0,  0,  0,  0,  0,  0,  0,  0,  0,  0, 32,  0, 20, 21,  0, 18,  0,  0, 24, 32
6, 11115, 9,KC9SZP,    -0.05, 3,   boost,   53.94,  90283.00,  962.60,    1.46,    4.72, 55.8, 0.00, 3.64, 3.66,  56.98,   1.63,  -1.10,  26.40,  -0.33,  -2.18,   0.21,  -0.45,   0.01,   4.01, 3.66, 0.00, 0.00, 0.00, 0.00, 1, 1, 10,  31.0471372,-103.5271363,   890.0, 2026,  6, 17, 23, 54,  7,        0,        0,   0,   0,   1.3,   0.8,   1.0, 18, 22, 11,  0,  0,  0,  0, 10,  0, 23,  0, 28,  0,  0,  0,  0,  0,  0,  0,  0,  0,  0, 32,  0, 20, 21,  0, 18,  0,  0, 24, 32
6, 11115, 9,KC9SZP,    -0.04, 3,   boost,   54.92,  90283.00,  962.60,    1.46,    5.24, 55.8, 0.00, 3.64, 3.66,  59.47,   2.17,  -0.22,  29.27,  -0.51,  -2.79,   0.21,  -0.45,   0.01,   4.01, 3.66, 0.00, 0.00, 0.00, 0.00, 1, 1, 10,  31.0471372,-103.5271363,   890.0, 2026,  6, 17, 23, 54,  7,        0,        0,   0,   0,   1.3,   0.8,   1.0, 18, 22, 11,  0,  0,  0,  0, 10,  0, 23,  0, 28,  0,  0,  0,  0,  0,  0,  0,  0,  0,  0, 32,  0, 20, 21,  0, 18,  0,  0, 24, 32
6, 11115, 9,KC9SZP,    -0.03, 3,   boost,   52.47,  90284.00,  962.51,    1.37,    5.78, 55.8, 0.00, 3.64, 3.66,  62.76,   0.30,  -0.84,  30.49,  -0.21,  -3.34,   0.21,  -0.45,   0.02,   4.01, 3.66, 0.00, 0.00, 0.00, 0.00, 1, 1, 10,  31.0471372,-103.5271363,   890.0, 2026,  6, 17, 23, 54,  7,        0,        0,   0,   0,   1.3,   0.8,   1.0, 18, 22, 11,  0,  0,  0,  0, 10,  0, 23,  0, 28,  0,  0,  0,  0,  0,  0,  0,  0,  0,  0, 32,  0, 20, 21,  0, 18,  0,  0, 24, 32
6, 11115, 9,KC9SZP,    -0.02, 3,   boost,   56.39,  90284.00,  962.51,    1.37,    6.32, 55.8, 0.00, 3.64, 3.66,  64.90,   0.83,  -0.74,  32.45,   0.58,  -2.85,   0.21,  -0.45,   0.02,   4.01, 3.66, 0.00, 0.00, 0.00, 0.00, 1, 1, 10,  31.0471372,-103.5271363,   890.0, 2026,  6, 17, 23, 54,  7,        0,        0,   0,   0,   1.3,   0.8,   1.0, 18, 22, 11,  0,  0,  0,  0, 10,  0, 23,  0, 28,  0,  0,  0,  0,  0,  0,  0,  0,  0,  0, 32,  0, 20, 21,  0, 18,  0,  0, 24, 32
6, 11115, 9,KC9SZP,    -0.01, 3,   boost,   55.41,  90265.00,  964.25,    3.11,    6.87, 55.8, 0.00, 3.64, 3.66,  65.43,   2.49,  -0.80,  30.68,   0.46,  -2.85,   0.21,  -0.44,   0.02,   4.01, 3.66, 0.00, 0.00, 0.00, 0.00, 1, 1, 10,  31.0471372,-103.5271363,   890.0, 2026,  6, 17, 23, 54,  7,        0,        0,   0,   0,   1.3,   0.8,   1.0, 18, 22, 11,  0,  0,  0,  0, 10,  0, 23,  0, 28,  0,  0,  0,  0,  0,  0,  0,  0,  0,  0, 32,  0, 20, 21,  0, 18,  0,  0, 24, 32
6, 11115, 9,KC9SZP,     0.00, 3,   boost,   55.90,  90265.00,  964.25,    3.11,    7.43, 55.8, 0.00, 3.64, 3.66,  65.12,   1.48,  -0.76,  27.99,   1.07,  -2.91,   0.21,  -0.44,   0.02,   4.01, 3.66, 0.00, 0.00, 0.00, 0.00, 1, 1, 10,  31.0471372,-103.5271363,   890.0, 2026,  6, 17, 23, 54,  7,        0,        0,   0,   0,   1.3,   0.8,   1.0, 18, 22, 11,  0,  0,  0,  0, 10,  0, 23,  0, 28,  0,  0,  0,  0,  0,  0,  0,  0,  0,  0, 32,  0, 20, 21,  0, 18,  0,  0, 24, 32
6, 11115, 9,KC9SZP,     0.00, 3,   boost,   55.90,  90265.00,  964.25,    3.11,    7.43, 55.8, 0.00, 3.64, 3.66,  65.12,   1.48,  -0.76,  27.99,   1.07,  -2.91,   0.21,  -0.44,   0.02,   4.01, 3.66, 0.00, 0.00, 0.00, 0.00, 1, 1, 10,  31.0471372,-103.5271363,   890.0, 2026,  6, 17, 23, 54,  7,        0,        0,   0,   0,   1.3,   0.8,   1.0, 18, 22, 11,  0,  0,  0,  0, 10,  0, 23,  0, 28,  0,  0,  0,  0,  0,  0,  0,  0,  0,  0, 32,  0, 20, 21,  0, 18,  0,  0, 24, 32
6, 11115, 9,KC9SZP,     0.00, 3,   boost,   55.90,  90265.00,  964.25,    3.11,    7.43, 55.8, 0.00, 3.64, 3.66,  65.12,   1.48,  -0.76,  27.99,   1.07,  -2.91,   0.21,  -0.44,   0.02,   4.01, 3.66, 0.00, 0.00, 0.00, 0.00, 1, 1, 10,  31.0471372,-103.5271363,   890.0, 2026,  6, 17, 23, 54,  7,        0,        0,   0,   0,   1.3,   0.8,   1.0, 18, 22, 11,  0,  0,  0,  0, 10,  0, 23,  0, 28,  0,  0,  0,  0,  0,  0,  0,  0,  0,  0, 32,  0, 20, 21,  0, 18,  0,  0, 24, 32
6, 11115, 9,KC9SZP,     0.00, 3,   boost,   55.90,  90265.00,  964.25,    3.11,    7.43, 55.8, 0.00, 3.64, 3.66,  65.12,   1.48,  -0.76,  27.99,   1.07,  -2.91,   0.21,  -0.44,   0.02,   4.01, 3.66, 0.00, 0.00, 0.00, 0.00, 1, 1, 10,  31.0471372,-103.5271363,   890.0, 2026,  6, 17, 23, 54,  7,        0,        0,   0,   0,   1.3,   0.8,   1.0, 18, 22, 11,  0,  0,  0,  0, 10,  0, 23,  0, 28,  0,  0,  0,  0,  0,  0,  0,  0,  0,  0, 32,  0, 20, 21,  0, 18,  0,  0, 24, 32
6, 11115, 9,KC9SZP,     0.00, 3,   boost,   55.90,  90265.00,  964.25,    3.11,    7.43, 55.8, 0.00, 3.64, 3.66,  65.12,   1.48,  -0.76,  27.99,   1.07,  -2.91,   0.21,  -0.44,   0.02,   4.01, 3.66, 0.00, 0.00, 0.00, 0.00, 1, 1, 10,  31.0471372,-103.5271363,   890.0, 2026,  6, 17, 23, 54,  7,        0,        0,   0,   0,   1.3,   0.8,   1.0, 18, 22, 11,  0,  0,  0,  0, 10,  0, 23,  0, 28,  0,  0,  0,  0,  0,  0,  0,  0,  0,  0, 32,  0, 20, 21,  0, 18,  0,  0, 24, 32
6, 11115, 9,KC9SZP,     0.00, 3,   boost,   55.90,  90265.00,  964.25,    3.11,    7.43, 55.8, 0.00, 3.64, 3.66,  65.12,   1.48,  -0.76,  27.99,   1.07,  -2.91,   0.21,  -0.44,   0.02,   4.00, 3.66, 0.00, 0.00, 0.00, 0.00, 1, 1, 10,  31.0471372,-103.5271363,   890.0, 2026,  6, 17, 23, 54,  7,        0,        0,   0,   0,   1.3,   0.8,   1.0, 18, 22, 11,  0,  0,  0,  0, 10,  0, 23,  0, 28,  0,  0,  0,  0,  0,  0,  0,  0,  0,  0, 32,  0, 20, 21,  0, 18,  0,  0, 24, 32
6, 11115, 9,KC9SZP,     0.00, 3,   boost,   55.90,  90265.00,  964.25,    3.11,    7.43, 55.8, 0.00, 3.64, 3.66,  65.12,   1.48,  -0.76,  27.99,   1.07,  -2.91,   0.21,  -0.44,   0.02,   4.00, 3.66, 0.00, 0.00, 0.00, 0.00, 1, 1, 10,  31.0471372,-103.5271363,   890.0, 2026,  6, 17, 23, 54,  7,        0,        0,   0,   0,   1.3,   0.8,   1.0, 18, 22, 11,  0,  0,  0,  0, 10,  0, 23,  0, 28,  0,  0,  0,  0,  0,  0,  0,  0,  0,  0, 32,  0, 20, 21,  0, 18,  0,  0, 24, 32
6, 11115, 9,KC9SZP,     0.00, 3,   boost,   55.90,  90265.00,  964.25,    3.11,    7.43, 55.8, 0.00, 3.64, 3.66,  65.12,   1.48,  -0.76,  27.99,   1.07,  -2.91,   0.21,  -0.44,   0.02,   4.00, 3.66, 0.00, 0.00, 0.00, 0.00, 1, 1, 10,  31.0471372,-103.5271363,   890.0, 2026,  6, 17, 23, 54,  7,        0,        0,   0,   0,   1.3,   0.8,   1.0, 18, 22, 11,  0,  0,  0,  0, 10,  0, 23,  0, 28,  0,  0,  0,  0,  0,  0,  0,  0,  0,  0, 32,  0, 20, 21,  0, 18,  0,  0, 24, 32
6, 11115, 9,KC9SZP,     0.00, 3,   boost,   55.90,  90265.00,  964.25,    3.11,    7.43, 55.8, 0.00, 3.64, 3.66,  65.12,   1.48,  -0.76,  27.99,   1.07,  -2.91,   0.21,  -0.44,   0.02,   4.00, 3.66, 0.00, 0.00, 0.00, 0.00, 1, 1, 10,  31.0471372,-103.5271363,   890.0, 2026,  6, 17, 23, 54,  7,        0,        0,   0,   0,   1.3,   0.8,   1.0, 18, 22, 11,  0,  0,  0,  0, 10,  0, 23,  0, 28,  0,  0,  0,  0,  0,  0,  0,  0,  0,  0, 32,  0, 20, 21,  0, 18,  0,  0, 24, 32
6, 11115, 9,KC9SZP,     0.00, 3,   boost,   55.90,  90265.00,  964.25,    3.11,    7.43, 55.8, 0.00, 3.64, 3.66,  65.12,   1.48,  -0.76,  27.99,   1.07,  -2.91,   0.21,  -0.44,   0.02,   4.00, 3.66, 0.00, 0.00, 0.00, 0.00, 1, 1, 10,  31.0471372,-103.5271363,   890.0, 2026,  6, 17, 23, 54,  7,        0,        0,   0,   0,   1.3,   0.8,   1.0, 18, 22, 11,  0,  0,  0,  0, 10,  0, 23,  0, 28,  0,  0,  0,  0,  0,  0,  0,  0,  0,  0, 32,  0, 20, 21,  0, 18,  0,  0, 24, 32
6, 11115, 9,KC9SZP,     0.00, 3,   boost,   55.90,  90265.00,  964.25,    3.11,    7.43, 55.8, 0.00, 3.64, 3.66,  65.12,   1.48,  -0.76,  27.99,   1.07,  -2.91,   0.21,  -0.44,   0.02,   4.01, 3.66, 0.00, 0.00, 0.00, 0.00, 1, 1, 10,  31.0471372,-103.5271363,   890.0, 2026,  6, 17, 23, 54,  7,        0,        0,   0,   0,   1.3,   0.8,   1.0, 18, 22, 11,  0,  0,  0,  0, 10,  0, 23,  0, 28,  0,  0,  0,  0,  0,  0,  0,  0,  0,  0, 32,  0, 20, 21,  0, 18,  0,  0, 24, 32
6, 11115, 9,KC9SZP,     0.00, 3,   boost,   55.90,  90265.00,  964.25,    3.11,    7.43, 55.8, 0.00, 3.64, 3.66,  65.12,   1.48,  -0.76,  27.99,   1.07,  -2.91,   0.21,  -0.44,   0.02,   4.01, 3.66, 0.00, 0.00, 0.00, 0.00, 1, 1, 10,  31.0471372,-103.5271363,   890.0, 2026,  6, 17, 23, 54,  7,        0,        0,   0,   0,   1.3,   0.8,   1.0, 18, 22, 11,  0,  0,  0,  0, 10,  0, 23,  0, 28,  0,  0,  0,  0,  0,  0,  0,  0,  0,  0, 32,  0, 20, 21,  0, 18,  0,  0, 24, 32
6, 11115, 9,KC9SZP,     0.00, 3,   boost,   55.90,  90265.00,  964.25,    3.11,    7.43, 55.8, 0.00, 3.64, 3.66,  65.12,   1.48,  -0.76,  27.99,   1.07,  -2.91,   0.21,  -0.44,   0.02,   4.01, 3.66, 0.00, 0.00, 0.00, 0.00, 1, 1, 10,  31.0471372,-103.5271363,   890.0, 2026,  6, 17, 23, 54,  7,        0,        0,   0,   0,   1.3,   0.8,   1.0, 18, 22, 11,  0,  0,  0,  0, 10,  0, 23,  0, 28,  0,  0,  0,  0,  0,  0,  0,  0,  0,  0, 32,  0, 20, 21,  0, 18,  0,  0, 24, 32
6, 11115, 9,KC9SZP,     0.00, 3,   boost,   55.90,  90265.00,  964.25,    3.11,    7.43, 55.8, 0.00, 3.64, 3.66,  65.12,   1.48,  -0.76,  27.99,   1.07,  -2.91,   0.21,  -0.44,   0.02,   4.01, 3.66, 0.00, 0.00, 0.00, 0.00, 1, 1, 10,  31.0471372,-103.5271363,   890.0, 2026,  6, 17, 23, 54,  7,        0,        0,   0,   0,   1.3,   0.8,   1.0, 18, 22, 11,  0,  0,  0,  0, 10,  0, 23,  0, 28,  0,  0,  0,  0,  0,  0,  0,  0,  0,  0, 32,  0, 20, 21,  0, 18,  0,  0, 24, 32
6, 11115, 9,KC9SZP,     0.00, 3,   boost,   55.90,  90265.00,  964.25,    3.11,    7.43, 55.8, 0.00, 3.64, 3.66,  65.12,   1.48,  -0.76,  27.99,   1.07,  -2.91,   0.21,  -0.44,   0.02,   4.01, 3.66, 0.00, 0.00, 0.00, 0.00, 1, 1, 10,  31.0471372,-103.5271363,   890.0, 2026,  6, 17, 23, 54,  7,        0,        0,   0,   0,   1.3,   0.8,   1.0, 18, 22, 11,  0,  0,  0,  0, 10,  0, 23,  0, 28,  0,  0,  0,  0,  0,  0,  0,  0,  0,  0, 32,  0, 20, 21,  0, 18,  0,  0, 24, 32
6, 11115, 9,KC9SZP,     0.00, 3,   boost,   55.90,  90265.00,  964.25,    3.11,    7.43, 55.8, 0.00, 3.64, 3.66,  65.12,   1.48,  -0.76,  27.99,   1.07,  -2.91,   0.21,  -0.44,   0.02,   4.01, 3.66, 0.00, 0.00, 0.00, 0.00, 1, 1, 10,  31.0471372,-103.5271363,   890.0, 2026,  6, 17, 23, 54,  7,        0,        0,   0,   0,   1.3,   0.8,   1.0, 18, 22, 11,  0,  0,  0,  0, 10,  0, 23,  0, 28,  0,  0,  0,  0,  0,  0,  0,  0,  0,  0, 32,  0, 20, 21,  0, 18,  0,  0, 24, 32
6, 11115, 9,KC9SZP,     0.00, 3,   boost,   55.90,  90265.00,  964.25,    3.11,    7.43, 55.8, 0.00, 3.64, 3.66,  65.12,   1.48,  -0.76,  27.99,   1.07,  -2.91,   0.21,  -0.44,   0.02,   4.01, 3.66, 0.00, 0.00, 0.00, 0.00, 1, 1, 10,  31.0471372,-103.5271363,   890.0, 2026,  6, 17, 23, 54,  7,        0,        0,   0,   0,   1.3,   0.8,   1.0, 18, 22, 11,  0,  0,  0,  0, 10,  0, 23,  0, 28,  0,  0,  0,  0,  0,  0,  0,  0,  0,  0, 32,  0, 20, 21,  0, 18,  0,  0, 24, 32
6, 11115, 9,KC9SZP,     0.00, 3,   boost,   55.90,  90265.00,  964.25,    3.11,    7.43, 55.8, 0.00, 3.64, 3.66,  65.12,   1.48,  -0.76,  27.99,   1.07,  -2.91,   0.21,  -0.44,   0.02,   4.01, 3.66, 0.00, 0.00, 0.00, 0.00, 1, 1, 10,  31.0471372,-103.5271363,   890.0, 2026,  6, 17, 23, 54,  7,        0,        0,   0,   0,   1.3,   0.8,   1.0, 18, 22, 11,  0,  0,  0,  0, 10,  0, 23,  0, 28,  0,  0,  0,  0,  0,  0,  0,  0,  0,  0, 32,  0, 20, 21,  0, 18,  0,  0, 24, 32
6, 11115, 9,KC9SZP,     0.00, 3,   boost,   55.90,  90265.00,  964.25,    3.11,    7.43, 55.8, 0.00, 3.64, 3.66,  65.12,   1.48,  -0.76,  27.99,   1.07,  -2.91,   0.21,  -0.44,   0.02,   4.01, 3.66, 0.00, 0.00, 0.00, 0.00, 1, 1, 10,  31.0471372,-103.5271363,   890.0, 2026,  6, 17, 23, 54,  7,        0,        0,   0,   0,   1.3,   0.8,   1.0, 18, 22, 11,  0,  0,  0,  0, 10,  0, 23,  0, 28,  0,  0,  0,  0,  0,  0,  0,  0,  0,  0, 32,  0, 20, 21,  0, 18,  0,  0, 24, 32
6, 11115, 9,KC9SZP,     0.00, 3,   boost,   55.90,  90265.00,  964.25,    3.11,    7.43, 55.8, 0.00, 3.64, 3.66,  65.12,   1.48,  -0.76,  27.99,   1.07,  -2.91,   0.21,  -0.44,   0.02,   4.00, 3.66, 0.00, 0.00, 0.00, 0.00, 1, 1, 10,  31.0471372,-103.5271363,   890.0, 2026,  6, 17, 23, 54,  7,        0,        0,   0,   0,   1.3,   0.8,   1.0, 18, 22, 11,  0,  0,  0,  0, 10,  0, 23,  0, 28,  0,  0,  0,  0,  0,  0,  0,  0,  0,  0, 32,  0, 20, 21,  0, 18,  0,  0, 24, 32
6, 11115, 9,KC9SZP,     0.00, 3,   boost,   55.90,  90265.00,  964.25,    3.11,    7.43, 55.8, 0.00, 3.64, 3.66,  65.12,   1.48,  -0.76,  27.99,   1.07,  -2.91,   0.21,  -0.44,   0.02,   4.01, 3.66, 0.00, 0.00, 0.00, 0.00, 1, 1, 10,  31.0471372,-103.5271363,   890.0, 2026,  6, 17, 23, 54,  7,        0,        0,   0,   0,   1.3,   0.8,   1.0, 18, 22, 11,  0,  0,  0,  0, 10,  0, 23,  0, 28,  0,  0,  0,  0,  0,  0,  0,  0,  0,  0, 32,  0, 20, 21,  0, 18,  0,  0, 24, 32
6, 11115, 9,KC9SZP,     0.00, 3,   boost,   55.90,  90265.00,  964.25,    3.11,    7.43, 55.8, 0.00, 3.64, 3.66,  65.12,   1.48,  -0.76,  27.99,   1.07,  -2.91,   0.21,  -0.44,   0.02,   4.02, 3.66, 0.00, 0.00, 0.00, 0.00, 1, 1, 10,  31.0471372,-103.5271363,   890.0, 2026,  6, 17, 23, 54,  7,        0,        0,   0,   0,   1.3,   0.8,   1.0, 18, 22, 11,  0,  0,  0,  0, 10,  0, 23,  0, 28,  0,  0,  0,  0,  0,  0,  0,  0,  0,  0, 32,  0, 20, 21,  0, 18,  0,  0, 24, 32
6, 11115, 9,KC9SZP,     0.00, 3,   boost,   55.90,  90265.00,  964.25,    3.11,    7.43, 55.8, 0.00, 3.64, 3.66,  65.12,   1.48,  -0.76,  27.99,   1.07,  -2.91,   0.21,  -0.44,   0.02,   4.02, 3.66, 0.00, 0.00, 0.00, 0.00, 1, 1, 10,  31.0471372,-103.5271363,   890.0, 2026,  6, 17, 23, 54,  7,        0,        0,   0,   0,   1.3,   0.8,   1.0, 18, 22, 11,  0,  0,  0,  0, 10,  0, 23,  0, 28,  0,  0,  0,  0,  0,  0,  0,  0,  0,  0, 32,  0, 20, 21,  0, 18,  0,  0, 24, 32
6, 11115, 9,KC9SZP,     0.00, 3,   boost,   55.90,  90265.00,  964.25,    3.11,    7.43, 55.8, 0.00, 3.64, 3.66,  65.12,   1.48,  -0.76,  27.99,   1.07,  -2.91,   0.21,  -0.44,   0.02,   4.03, 3.66, 0.00, 0.00, 0.00, 0.00, 1, 1, 10,  31.0471372,-103.5271363,   890.0, 2026,  6, 17, 23, 54,  7,        0,        0,   0,   0,   1.3,   0.8,   1.0, 18, 22, 11,  0,  0,  0,  0, 10,  0, 23,  0, 28,  0,  0,  0,  0,  0,  0,  0,  0,  0,  0, 32,  0, 20, 21,  0, 18,  0,  0, 24, 32
6, 11115, 9,KC9SZP,     0.00, 3,   boost,   55.90,  90265.00,  964.25,    3.11,    7.43, 55.8, 0.00, 3.64, 3.66,  65.12,   1.48,  -0.76,  27.99,   1.07,  -2.91,   0.21,  -0.44,   0.02,   4.03, 3.66, 0.00, 0.00, 0.00, 0.00, 1, 1, 10,  31.0471372,-103.5271363,   890.0, 2026,  6, 17, 23, 54,  7,        0,        0,   0,   0,   1.3,   0.8,   1.0, 18, 22, 11,  0,  0,  0,  0, 10,  0, 23,  0, 28,  0,  0,  0,  0,  0,  0,  0,  0,  0,  0, 32,  0, 20, 21,  0, 18,  0,  0, 24, 32
6, 11115, 9,KC9SZP,     0.00, 3,   boost,   55.90,  90265.00,  964.25,    3.11,    7.43, 55.8, 0.00, 3.64, 3.66,  65.12,   1.48,  -0.76,  27.99,   1.07,  -2.91,   0.21,  -0.44,   0.02,   4.04, 3.66, 0.00, 0.00, 0.00, 0.00, 1, 1, 10,  31.0471372,-103.5271363,   890.0, 2026,  6, 17, 23, 54,  7,        0,        0,   0,   0,   1.3,   0.8,   1.0, 18, 22, 11,  0,  0,  0,  0, 10,  0, 23,  0, 28,  0,  0,  0,  0,  0,  0,  0,  0,  0,  0, 32,  0, 20, 21,  0, 18,  0,  0, 24, 32
6, 11115, 9,KC9SZP,     0.00, 3,   boost,   55.90,  90265.00,  964.25,    3.11,    7.43, 55.8, 0.00, 3.64, 3.66,  65.12,   1.48,  -0.76,  27.99,   1.07,  -2.91,   0.21,  -0.44,   0.02,   4.03, 3.66, 0.00, 0.00, 0.00, 0.00, 1, 1, 10,  31.0471372,-103.5271363,   890.0, 2026,  6, 17, 23, 54,  7,        0,        0,   0,   0,   1.3,   0.8,   1.0, 18, 22, 11,  0,  0,  0,  0, 10,  0, 23,  0, 28,  0,  0,  0,  0,  0,  0,  0,  0,  0,  0, 32,  0, 20, 21,  0, 18,  0,  0, 24, 32
6, 11115, 9,KC9SZP,     0.00, 3,   boost,   55.90,  90265.00,  964.25,    3.11,    7.43, 55.8, 0.00, 3.64, 3.66,  65.12,   1.48,  -0.76,  27.99,   1.07,  -2.91,   0.21,  -0.44,   0.02,   4.01, 3.66, 0.00, 0.00, 0.00, 0.00, 1, 1, 10,  31.0471372,-103.5271363,   890.0, 2026,  6, 17, 23, 54,  7,        0,        0,   0,   0,   1.3,   0.8,   1.0, 18, 22, 11,  0,  0,  0,  0, 10,  0, 23,  0, 28,  0,  0,  0,  0,  0,  0,  0,  0,  0,  0, 32,  0, 20, 21,  0, 18,  0,  0, 24, 32
6, 11115, 9,KC9SZP,     0.00, 3,   boost,   55.90,  90265.00,  964.25,    3.11,    7.43, 55.8, 0.00, 3.64, 3.66,  65.12,   1.48,  -0.76,  27.99,   1.07,  -2.91,   0.21,  -0.44,   0.02,   4.00, 3.66, 0.00, 0.00, 0.00, 0.00, 1, 1, 10,  31.0471372,-103.5271363,   890.0, 2026,  6, 17, 23, 54,  7,        0,        0,   0,   0,   1.3,   0.8,   1.0, 18, 22, 11,  0,  0,  0,  0, 10,  0, 23,  0, 28,  0,  0,  0,  0,  0,  0,  0,  0,  0,  0, 32,  0, 20, 21,  0, 18,  0,  0, 24, 32
6, 11115, 9,KC9SZP,     0.00, 3,   boost,   55.90,  90265.00,  964.25,    3.11,    7.43, 55.8, 0.00, 3.64, 3.66,  65.12,   1.48,  -0.76,  27.99,   1.07,  -2.91,   0.21,  -0.44,   0.02,   3.97, 3.66, 0.00, 0.00, 0.00, 0.00, 1, 1, 10,  31.0471372,-103.5271363,   890.0, 2026,  6, 17, 23, 54,  7,        0,        0,   0,   0,   1.3,   0.8,   1.0, 18, 22, 11,  0,  0,  0,  0, 10,  0, 23,  0, 28,  0,  0,  0,  0,  0,  0,  0,  0,  0,  0, 32,  0, 20, 21,  0, 18,  0,  0, 24, 32
6, 11115, 9,KC9SZP,     0.00, 3,   boost,   55.90,  90265.00,  964.25,    3.11,    7.43, 55.8, 0.00, 3.64, 3.66,  65.12,   1.48,  -0.76,  27.99,   1.07,  -2.91,   0.21,  -0.44,   0.02,   3.95, 3.66, 0.00, 0.00, 0.00, 0.00, 1, 1, 10,  31.0471372,-103.5271363,   890.0, 2026,  6, 17, 23, 54,  7,        0,        0,   0,   0,   1.3,   0.8,   1.0, 18, 22, 11,  0,  0,  0,  0, 10,  0, 23,  0, 28,  0,  0,  0,  0,  0,  0,  0,  0,  0,  0, 32,  0, 20, 21,  0, 18,  0,  0, 24, 32
6, 11115, 9,KC9SZP,     0.00, 3,   boost,   55.90,  90265.00,  964.25,    3.11,    7.43, 55.8, 0.00, 3.64, 3.66,  65.12,   1.48,  -0.76,  27.99,   1.07,  -2.91,   0.21,  -0.44,   0.02,   3.91, 3.66, 0.00, 0.00, 0.00, 0.00, 1, 1, 10,  31.0471372,-103.5271363,   890.0, 2026,  6, 17, 23, 54,  7,        0,        0,   0,   0,   1.3,   0.8,   1.0, 18, 22, 11,  0,  0,  0,  0, 10,  0, 23,  0, 28,  0,  0,  0,  0,  0,  0,  0,  0,  0,  0, 32,  0, 20, 21,  0, 18,  0,  0, 24, 32
6, 11115, 9,KC9SZP,     0.00, 3,   boost,   55.90,  90265.00,  964.25,    3.11,    7.43, 55.8, 0.00, 3.64, 3.66,  65.12,   1.48,  -0.76,  27.99,   1.07,  -2.91,   0.21,  -0.44,   0.02,   3.89, 3.66, 0.00, 0.00, 0.00, 0.00, 1, 1, 10,  31.0471372,-103.5271363,   890.0, 2026,  6, 17, 23, 54,  7,        0,        0,   0,   0,   1.3,   0.8,   1.0, 18, 22, 11,  0,  0,  0,  0, 10,  0, 23,  0, 28,  0,  0,  0,  0,  0,  0,  0,  0,  0,  0, 32,  0, 20, 21,  0, 18,  0,  0, 24, 32
6, 11115, 9,KC9SZP,     0.00, 3,   boost,   55.90,  90265.00,  964.25,    3.11,    7.43, 55.8, 0.00, 3.64, 3.66,  65.12,   1.48,  -0.76,  27.99,   1.07,  -2.91,   0.21,  -0.44,   0.02,   3.86, 3.66, 0.00, 0.00, 0.00, 0.00, 1, 1, 10,  31.0471372,-103.5271363,   890.0, 2026,  6, 17, 23, 54,  7,        0,        0,   0,   0,   1.3,   0.8,   1.0, 18, 22, 11,  0,  0,  0,  0, 10,  0, 23,  0, 28,  0,  0,  0,  0,  0,  0,  0,  0,  0,  0, 32,  0, 20, 21,  0, 18,  0,  0, 24, 32
6, 11115, 9,KC9SZP,     0.00, 3,   boost,   55.90,  90265.00,  964.25,    3.11,    7.43, 55.8, 0.00, 3.64, 3.66,  65.12,   1.48,  -0.76,  27.99,   1.07,  -2.91,   0.21,  -0.44,   0.02,   3.83, 3.66, 0.00, 0.00, 0.00, 0.00, 1, 1, 10,  31.0471372,-103.5271363,   890.0, 2026,  6, 17, 23, 54,  7,        0,        0,   0,   0,   1.3,   0.8,   1.0, 18, 22, 11,  0,  0,  0,  0, 10,  0, 23,  0, 28,  0,  0,  0,  0,  0,  0,  0,  0,  0,  0, 32,  0, 20, 21,  0, 18,  0,  0, 24, 32
6, 11115, 9,KC9SZP,     0.01, 3,   boost,   56.88,  90279.00,  962.97,    1.83,    7.98, 55.8, 0.00, 3.64, 3.66,  64.88,   1.31,  -0.19,  31.65,   1.19,  -2.12,   0.21,  -0.44,   0.02,   3.81, 3.66, 0.00, 0.00, 0.00, 0.00, 1, 1, 10,  31.0471372,-103.5271363,   890.0, 2026,  6, 17, 23, 54,  7,        0,        0,   0,   0,   1.3,   0.8,   1.0, 18, 22, 11,  0,  0,  0,  0, 10,  0, 23,  0, 28,  0,  0,  0,  0,  0,  0,  0,  0,  0,  0, 32,  0, 20, 21,  0, 18,  0,  0, 24, 32
6, 11115, 9,KC9SZP,     0.01, 3,   boost,   56.88,  90279.00,  962.97,    1.83,    7.98, 55.8, 0.00, 3.64, 3.66,  64.88,   1.31,  -0.19,  31.65,   1.19,  -2.12,   0.21,  -0.44,   0.02,   3.81, 3.66, 0.00, 0.00, 0.00, 0.00, 1, 1, 10,  31.0471372,-103.5271363,   890.0, 2026,  6, 17, 23, 54,  7,        0,        0,   0,   0,   1.3,   0.8,   1.0, 18, 22, 11,  0,  0,  0,  0, 10,  0, 23,  0, 28,  0,  0,  0,  0,  0,  0,  0,  0,  0,  0, 32,  0, 20, 21,  0, 18,  0,  0, 24, 32
6, 11115, 9,KC9SZP,     0.02, 3,   boost,   55.90,  90279.00,  962.97,    1.83,    8.54, 55.8, 0.00, 3.64, 3.64,  65.07,   1.42,  -0.29,  34.64,   0.28,  -1.63,   0.21,  -0.44,   0.02,   3.80, 3.66, 0.00, 0.00, 0.00, 0.00, 1, 1, 10,  31.0471372,-103.5271363,   890.0, 2026,  6, 17, 23, 54,  7,        0,        0,   0,   0,   1.3,   0.8,   1.0, 18, 22, 11,  0,  0,  0,  0, 10,  0, 23,  0, 28,  0,  0,  0,  0,  0,  0,  0,  0,  0,  0, 32,  0, 20, 21,  0, 18,  0,  0, 24, 32
6, 11115, 9,KC9SZP,     0.02, 3,   boost,   55.90,  90279.00,  962.97,    1.83,    8.54, 55.8, 0.00, 3.64, 3.64,  65.07,   1.42,  -0.29,  34.64,   0.28,  -1.63,   0.21,  -0.44,   0.02,   3.80, 3.66, 0.00, 0.00, 0.00, 0.00, 1, 1, 10,  31.0471372,-103.5271363,   890.0, 2026,  6, 17, 23, 54,  7,        0,        0,   0,   0,   1.3,   0.8,   1.0, 18, 22, 11,  0,  0,  0,  0, 10,  0, 23,  0, 28,  0,  0,  0,  0,  0,  0,  0,  0,  0,  0, 32,  0, 20, 21,  0, 18,  0,  0, 24, 32
6, 11115, 9,KC9SZP,     0.03, 3,   boost,   55.90,  90268.00,  963.97,    2.83,    9.09, 55.8, 0.00, 3.64, 3.64,  64.93,   0.57,  -1.24,  35.44,   0.03,  -1.33,   0.21,  -0.44,   0.02,   3.78, 3.66, 0.00, 0.00, 0.00, 0.00, 1, 1, 10,  31.0471372,-103.5271363,   890.0, 2026,  6, 17, 23, 54,  7,        0,        0,   0,   0,   1.3,   0.8,   1.0, 18, 22, 11,  0,  0,  0,  0, 10,  0, 23,  0, 28,  0,  0,  0,  0,  0,  0,  0,  0,  0,  0, 32,  0, 20, 21,  0, 18,  0,  0, 24, 32
6, 11115, 9,KC9SZP,     0.04, 3,   boost,   52.47,  90268.00,  963.97,    2.83,    9.63, 55.8, 0.00, 3.64, 3.64,  64.28,   0.55,  -0.07,  31.71,  -0.27,  -0.96,   0.21,  -0.44,   0.02,   3.77, 3.66, 0.00, 0.00, 0.00, 0.00, 1, 1, 10,  31.0471372,-103.5271363,   890.0, 2026,  6, 17, 23, 54,  7,        0,        0,   0,   0,   1.3,   0.8,   1.0, 18, 22, 11,  0,  0,  0,  0, 10,  0, 23,  0, 28,  0,  0,  0,  0,  0,  0,  0,  0,  0,  0, 32,  0, 20, 21,  0, 18,  0,  0, 24, 32
6, 11115, 9,KC9SZP,     0.05, 3,   boost,   53.94,  90274.00,  963.43,    2.28,   10.17, 55.8, 0.00, 3.64, 3.64,  64.35,   0.42,  -0.29,  25.85,  -2.16,  -0.29,   0.21,  -0.43,   0.02,   3.77, 3.66, 0.00, 0.00, 0.00, 0.00, 1, 1, 10,  31.0471372,-103.5271363,   890.0, 2026,  6, 17, 23, 54,  7,        0,        0,   0,   0,   1.3,   0.8,   1.0, 18, 22, 11,  0,  0,  0,  0, 10,  0, 23,  0, 28,  0,  0,  0,  0,  0,  0,  0,  0,  0,  0, 32,  0, 20, 21,  0, 18,  0,  0, 24, 32
6, 11115, 9,KC9SZP,     0.06, 3,   boost,   52.96,  90274.00,  963.43,    2.28,   10.71, 55.8, 0.00, 3.64, 3.64,  64.17,   1.04,   0.40,  20.18,  -0.94,  -0.53,   0.21,  -0.43,   0.03,   3.76, 3.66, 0.00, 0.00, 0.00, 0.00, 1, 1, 10,  31.0471372,-103.5271363,   890.0, 2026,  6, 17, 23, 54,  7,        0,        0,   0,   0,   1.3,   0.8,   1.0, 18, 22, 11,  0,  0,  0,  0, 10,  0, 23,  0, 28,  0,  0,  0,  0,  0,  0,  0,  0,  0,  0, 32,  0, 20, 21,  0, 18,  0,  0, 24, 32
6, 11115, 9,KC9SZP,     0.07, 3,   boost,   54.43,  90295.00,  961.51,    0.37,   11.26, 55.8, 0.00, 3.64, 3.64,  64.25,   0.27,  -0.55,  16.03,  -3.08,  -0.17,   0.21,  -0.43,   0.02,   3.76, 3.66, 0.00, 0.00, 0.00, 0.00, 1, 1, 10,  31.0471372,-103.5271363,   890.0, 2026,  6, 17, 23, 54,  7,        0,        0,   0,   0,   1.3,   0.8,   1.0, 18, 22, 11,  0,  0,  0,  0, 10,  0, 23,  0, 28,  0,  0,  0,  0,  0,  0,  0,  0,  0,  0, 32,  0, 20, 21,  0, 18,  0,  0, 24, 32
6, 11115, 9,KC9SZP,     0.08, 3,   boost,   56.39,  90295.00,  961.51,    0.37,   11.81, 55.8, 0.00, 3.64, 3.64,  64.98,   1.34,  -0.13,   8.40,  -1.86,  -0.17,   0.21,  -0.43,   0.03,   3.75, 3.66, 0.00, 0.00, 0.00, 0.00, 1, 1, 10,  31.0471372,-103.5271363,   890.0, 2026,  6, 17, 23, 54,  7,        0,        0,   0,   0,   1.3,   0.8,   1.0, 18, 22, 11,  0,  0,  0,  0, 10,  0, 23,  0, 28,  0,  0,  0,  0,  0,  0,  0,  0,  0,  0, 32,  0, 20, 21,  0, 18,  0,  0, 24, 32
6, 11115, 9,KC9SZP,     0.09, 3,   boost,   55.90,  90258.00,  964.89,    3.75,   12.36, 55.8, 0.00, 3.64, 3.64,  64.62,   1.24,  -0.15,   4.19,  -3.38,   0.02,   0.21,  -0.43,   0.03,   3.75, 3.66, 0.00, 0.00, 0.00, 0.00, 1, 1, 10,  31.0471372,-103.5271363,   890.0, 2026,  6, 17, 23, 54,  7,        0,        0,   0,   0,   1.3,   0.8,   1.0, 18, 22, 11,  0,  0,  0,  0, 10,  0, 23,  0, 28,  0,  0,  0,  0,  0,  0,  0,  0,  0,  0, 32,  0, 20, 21,  0, 18,  0,  0, 24, 32
6, 11115, 9,KC9SZP,     0.10, 3,   boost,   54.92,  90258.00,  964.89,    3.75,   12.92, 55.8, 0.00, 3.64, 3.64,  65.02,   1.14,   0.02,  -0.82,  -2.35,   0.08,   0.21,  -0.43,   0.02,   3.74, 3.66, 0.00, 0.00, 0.00, 0.00, 1, 1, 10,  31.0471372,-103.5271363,   890.0, 2026,  6, 17, 23, 54,  7,        0,        0,   0,   0,   1.3,   0.8,   1.0, 18, 22, 11,  0,  0,  0,  0, 10,  0, 23,  0, 28,  0,  0,  0,  0,  0,  0,  0,  0,  0,  0, 32,  0, 20, 21,  0, 18,  0,  0, 24, 32
6, 11115, 9,KC9SZP,     0.11, 3,   boost,   57.86,  90236.00,  966.90,    5.76,   13.48, 55.8, 0.00, 3.64, 3.64,  65.51,   2.68,  -0.69,  -1.67,  -2.83,  -0.17,   0.21,  -0.43,   0.02,   3.74, 3.66, 0.00, 0.00, 0.00, 0.00, 1, 1, 10,  31.0471372,-103.5271363,   890.0, 2026,  6, 17, 23, 54,  7,        0,        0,   0,   0,   1.3,   0.8,   1.0, 18, 22, 11,  0,  0,  0,  0, 10,  0, 23,  0, 28,  0,  0,  0,  0,  0,  0,  0,  0,  0,  0, 32,  0, 20, 21,  0, 18,  0,  0, 24, 32
6, 11115, 9,KC9SZP,     0.12, 3,   boost,   54.92,  90236.00,  966.90,    5.76,   14.04, 55.8, 0.00, 3.64, 3.64,  65.99,   1.93,  -0.04,  -1.67,  -1.92,  -1.21,   0.21,  -0.43,   0.03,   3.73, 3.66, 0.00, 0.00, 0.00, 0.00, 1, 1, 10,  31.0471372,-103.5271363,   890.0, 2026,  6, 17, 23, 54,  7,        0,        0,   0,   0,   1.3,   0.8,   1.0, 18, 22, 11,  0,  0,  0,  0, 10,  0, 23,  0, 28,  0,  0,  0,  0,  0,  0,  0,  0,  0,  0, 32,  0, 20, 21,  0, 18,  0,  0, 24, 32
6, 11115, 9,KC9SZP,     0.13, 3,   boost,   60.31,  90262.00,  964.52,    3.38,   14.61, 55.8, 0.00, 3.64, 3.64,  65.49,   0.65,  -1.34,   0.65,  -1.43,  -0.84,   0.21,  -0.43,   0.03,   3.72, 3.66, 0.00, 0.00, 0.00, 0.00, 1, 1, 10,  31.0471372,-103.5271363,   890.0, 2026,  6, 17, 23, 54,  7,        0,        0,   0,   0,   1.3,   0.8,   1.0, 18, 22, 11,  0,  0,  0,  0, 10,  0, 23,  0, 28,  0,  0,  0,  0,  0,  0,  0,  0,  0,  0, 32,  0, 20, 21,  0, 18,  0,  0, 24, 32
6, 11115, 9,KC9SZP,     0.14, 3,   boost,   56.39,  90262.00,  964.52,    3.38,   15.18, 55.8, 0.00, 3.64, 3.64,  65.07,  -0.55,  -1.72,   1.13,  -0.58,  -1.51,   0.21,  -0.43,   0.03,   3.70, 3.66, 0.00, 0.00, 0.00, 0.00, 1, 1, 10,  31.0471372,-103.5271363,   890.0, 2026,  6, 17, 23, 54,  7,        0,        0,   0,   0,   1.3,   0.8,   1.0, 18, 22, 11,  0,  0,  0,  0, 10,  0, 23,  0, 28,  0,  0,  0,  0,  0,  0,  0,  0,  0,  0, 32,  0, 20, 21,  0, 18,  0,  0, 24, 32
6, 11115, 9,KC9SZP,     0.15, 3,   boost,   53.94,  90256.00,  965.07,    3.93,   15.74, 55.8, 0.00, 3.64, 3.64,  66.71,   2.51,  -0.49,  -2.83,  -1.37,   0.99,   0.21,  -0.43,   0.03,   3.71, 3.66, 0.00, 0.00, 0.00, 0.00, 1, 1, 10,  31.0471372,-103.5271363,   890.0, 2026,  6, 17, 23, 54,  7,        0,        0,   0,   0,   1.3,   0.8,   1.0, 18, 22, 11,  0,  0,  0,  0, 10,  0, 23,  0, 28,  0,  0,  0,  0,  0,  0,  0,  0,  0,  0, 32,  0, 20, 21,  0, 18,  0,  0, 24, 32
6, 11115, 9,KC9SZP,     0.16, 3,   boost,   57.37,  90256.00,  965.07,    3.93,   16.32, 55.8, 0.00, 3.64, 3.64,  66.00,   0.26,   0.14, -13.76,  -1.43,  -1.08,   0.21,  -0.43,   0.02,   3.70, 3.66, 0.00, 0.00, 0.00, 0.00, 1, 1, 10,  31.0471372,-103.5271363,   890.0, 2026,  6, 17, 23, 54,  7,        0,        0,   0,   0,   1.3,   0.8,   1.0, 18, 22, 11,  0,  0,  0,  0, 10,  0, 23,  0, 28,  0,  0,  0,  0,  0,  0,  0,  0,  0,  0, 32,  0, 20, 21,  0, 18,  0,  0, 24, 32
6, 11115, 9,KC9SZP,     0.17, 3,   boost,   59.33,  90254.00,  965.25,    4.11,   16.89, 55.8, 0.00, 3.64, 3.64,  66.43,  -2.00,  -0.50, -29.26,  -2.47,   4.23,   0.21,  -0.43,   0.02,   3.74, 3.66, 0.00, 0.00, 0.00, 0.00, 1, 1, 10,  31.0471372,-103.5271363,   890.0, 2026,  6, 17, 23, 54,  7,        0,        0,   0,   0,   1.3,   0.8,   1.0, 18, 22, 11,  0,  0,  0,  0, 10,  0, 23,  0, 28,  0,  0,  0,  0,  0,  0,  0,  0,  0,  0, 32,  0, 20, 21,  0, 18,  0,  0, 24, 32
6, 11115, 9,KC9SZP,     0.18, 3,   boost,   60.31,  90254.00,  965.25,    4.11,   17.47, 55.8, 0.00, 3.64, 3.64,  66.77,   1.08,  -1.35, -40.74,  -4.05,   1.18,   0.21,  -0.42,   0.02,   3.74, 3.66, 0.00, 0.00, 0.00, 0.00, 1, 1, 10,  31.0471372,-103.5271363,   890.0, 2026,  6, 17, 23, 54,  7,        0,        0,   0,   0,   1.3,   0.8,   1.0, 18, 22, 11,  0,  0,  0,  0, 10,  0, 23,  0, 28,  0,  0,  0,  0,  0,  0,  0,  0,  0,  0, 32,  0, 20, 21,  0, 18,  0,  0, 24, 32
6, 11115, 9,KC9SZP,     0.19, 3,   boost,   58.35,  90256.00,  965.07,    3.93,   18.06, 55.8, 0.00, 3.64, 3.64,  67.28,   0.11,  -0.06, -58.50,  -2.59,   1.36,   0.21,  -0.42,   0.01,   3.76, 3.66, 0.00, 0.00, 0.00, 0.00, 1, 1, 10,  31.0471372,-103.5271363,   890.0, 2026,  6, 17, 23, 54,  7,        0,        0,   0,   0,   1.3,   0.8,   1.0, 18, 22, 11,  0,  0,  0,  0, 10,  0, 23,  0, 28,  0,  0,  0,  0,  0,  0,  0,  0,  0,  0, 32,  0, 20, 21,  0, 18,  0,  0, 24, 32
6, 11115, 9,KC9SZP,     0.20, 3,   boost,   57.86,  90256.00,  965.07,    3.93,   18.64, 55.8, 0.00, 3.64, 3.64,  67.57,   0.00,  -3.46, -67.22,  -2.83,   2.88,   0.21,  -0.42,   0.00,   3.78, 3.66, 0.00, 0.00, 0.00, 0.00, 1, 1, 10,  31.0471372,-103.5271363,   890.0, 2026,  6, 17, 23, 54,  7,        0,        0,   0,   0,   1.3,   0.8,   1.0, 18, 22, 11,  0,  0,  0,  0, 10,  0, 23,  0, 28,  0,  0,  0,  0,  0,  0,  0,  0,  0,  0, 32,  0, 20, 21,  0, 18,  0,  0, 24, 32
6, 11115, 9,KC9SZP,     0.21, 3,   boost,   59.33,  90252.00,  965.44,    4.30,   19.22, 55.8, 0.00, 3.64, 3.64,  68.26,   1.84,  -1.37, -68.51,  -3.44,   3.49,   0.21,  -0.42,   0.00,   3.81, 3.66, 0.00, 0.00, 0.00, 0.00, 1, 1, 10,  31.0471372,-103.5271363,   890.0, 2026,  6, 17, 23, 54,  7,        0,        0,   0,   0,   1.3,   0.8,   1.0, 18, 22, 11,  0,  0,  0,  0, 10,  0, 23,  0, 28,  0,  0,  0,  0,  0,  0,  0,  0,  0,  0, 32,  0, 20, 21,  0, 18,  0,  0, 24, 32
6, 11115, 9,KC9SZP,     0.22, 3,   boost,   56.39,  90252.00,  965.44,    4.30,   19.80, 55.8, 0.00, 3.64, 3.64,  68.05,   2.10,  -0.89, -65.70,  -3.44,   2.21,   0.21,  -0.42,   0.00,   3.83, 3.66, 0.00, 0.00, 0.00, 0.00, 1, 1, 10,  31.0471372,-103.5271363,   890.0, 2026,  6, 17, 23, 54,  7,        0,        0,   0,   0,   1.3,   0.8,   1.0, 18, 22, 11,  0,  0,  0,  0, 10,  0, 23,  0, 28,  0,  0,  0,  0,  0,  0,  0,  0,  0,  0, 32,  0, 20, 21,  0, 18,  0,  0, 24, 32
6, 11115, 9,KC9SZP,     0.23, 3,   boost,   56.88,  90243.00,  966.26,    5.12,   20.37, 55.8, 0.00, 3.64, 3.64,  67.72,  -0.74,  -1.16, -57.22,  -3.14,  -0.66,   0.21,  -0.42,  -0.00,   3.82, 3.66, 0.00, 0.00, 0.00, 0.00, 1, 1, 10,  31.0471372,-103.5271363,   890.0, 2026,  6, 17, 23, 54,  7,        0,        0,   0,   0,   1.3,   0.8,   1.0, 18, 22, 11,  0,  0,  0,  0, 10,  0, 23,  0, 28,  0,  0,  0,  0,  0,  0,  0,  0,  0,  0, 32,  0, 20, 21,  0, 18,  0,  0, 24, 32
6, 11115, 9,KC9SZP,     0.24, 3,   boost,   57.86,  90243.00,  966.26,    5.12,   20.95, 55.8, 0.00, 3.64, 3.64,  68.29,  -1.65,  -1.15, -62.22,  -2.77,   0.14,   0.21,  -0.42,  -0.01,   3.82, 3.66, 0.00, 0.00, 0.00, 0.00, 1, 1, 10,  31.0471372,-103.5271363,   890.0, 2026,  6, 17, 23, 54,  7,        0,        0,   0,   0,   1.3,   0.8,   1.0, 18, 22, 11,  0,  0,  0,  0, 10,  0, 23,  0, 28,  0,  0,  0,  0,  0,  0,  0,  0,  0,  0, 32,  0, 20, 21,  0, 18,  0,  0, 24, 32
6, 11115, 9,KC9SZP,     0.25, 3,   boost,   58.35,  90237.00,  966.81,    5.67,   21.53, 55.8, 0.00, 3.64, 3.64,  68.04,   0.24,  -2.79, -61.30,  -3.81,  -0.72,   0.21,  -0.42,  -0.01,   3.81, 3.66, 0.00, 0.00, 0.00, 0.00, 1, 1, 10,  31.0471372,-103.5271363,   890.0, 2026,  6, 17, 23, 54,  7,        0,        0,   0,   0,   1.3,   0.8,   1.0, 18, 22, 11,  0,  0,  0,  0, 10,  0, 23,  0, 28,  0,  0,  0,  0,  0,  0,  0,  0,  0,  0, 32,  0, 20, 21,  0, 18,  0,  0, 24, 32
6, 11115, 9,KC9SZP,     0.26, 3,   boost,   57.86,  90237.00,  966.81,    5.67,   22.10, 55.8, 0.00, 3.64, 3.64,  68.07,   1.93,  -0.97, -64.97,  -1.55,  -0.90,   0.21,  -0.42,  -0.01,   3.80, 3.66, 0.00, 0.00, 0.00, 0.00, 1, 1, 10,  31.0471372,-103.5271363,   890.0, 2026,  6, 17, 23, 54,  7,        0,        0,   0,   0,   1.3,   0.8,   1.0, 18, 22, 11,  0,  0,  0,  0, 10,  0, 23,  0, 28,  0,  0,  0,  0,  0,  0,  0,  0,  0,  0, 32,  0, 20, 21,  0, 18,  0,  0, 24, 32
6, 11115, 9,KC9SZP,     0.27, 3,   boost,   57.86,  90228.00,  967.63,    6.49,   22.68, 55.8, 0.00, 3.64, 3.64,  67.76,   0.71,  -2.22, -65.64,  -1.61,  -0.78,   0.21,  -0.42,  -0.01,   3.79, 3.66, 0.00, 0.00, 0.00, 0.00, 1, 1, 10,  31.0471372,-103.5271363,   890.0, 2026,  6, 17, 23, 54,  7,        0,        0,   0,   0,   1.3,   0.8,   1.0, 18, 22, 11,  0,  0,  0,  0, 10,  0, 23,  0, 28,  0,  0,  0,  0,  0,  0,  0,  0,  0,  0, 32,  0, 20, 21,  0, 18,  0,  0, 24, 32
6, 11115, 9,KC9SZP,     0.28, 3,   boost,   56.88,  90228.00,  967.63,    6.49,   23.27, 55.8, 0.00, 3.64, 3.64,  68.04,   0.24,  -2.20, -67.77,  -0.94,   0.69,   0.21,  -0.42,  -0.01,   3.80, 3.66, 0.00, 0.00, 0.00, 0.00, 1, 1, 10,  31.0471372,-103.5271363,   890.0, 2026,  6, 17, 23, 54,  7,        0,        0,   0,   0,   1.3,   0.8,   1.0, 18, 22, 11,  0,  0,  0,  0, 10,  0, 23,  0, 28,  0,  0,  0,  0,  0,  0,  0,  0,  0,  0, 32,  0, 20, 21,  0, 18,  0,  0, 24, 32
6, 11115, 9,KC9SZP,     0.29, 3,   boost,   59.82,  90232.00,  967.27,    6.12,   23.86, 55.8, 0.00, 3.64, 3.64,  67.58,   0.31,  -1.29, -64.60,  -1.74,  -0.29,   0.20,  -0.43,  -0.02,   3.79, 3.66, 0.00, 0.00, 0.00, 0.00, 1, 1, 10,  31.0471372,-103.5271363,   890.0, 2026,  6, 17, 23, 54,  7,        0,        0,   0,   0,   1.3,   0.8,   1.0, 18, 22, 11,  0,  0,  0,  0, 10,  0, 23,  0, 28,  0,  0,  0,  0,  0,  0,  0,  0,  0,  0, 32,  0, 20, 21,  0, 18,  0,  0, 24, 32
6, 11115, 9,KC9SZP,     0.30, 3,   boost,   62.27,  90232.00,  967.27,    6.12,   24.45, 55.8, 0.00, 3.64, 3.64,  67.91,   1.33,  -1.70, -63.56,  -1.61,  -0.66,   0.20,  -0.43,  -0.01,   3.78, 3.66, 0.00, 0.00, 0.00, 0.00, 1, 1, 10,  31.0471372,-103.5271363,   890.0, 2026,  6, 17, 23, 54,  7,        0,        0,   0,   0,   1.3,   0.8,   1.0, 18, 22, 11,  0,  0,  0,  0, 10,  0, 23,  0, 28,  0,  0,  0,  0,  0,  0,  0,  0,  0,  0, 32,  0, 20, 21,  0, 18,  0,  0, 24, 32
6, 11115, 9,KC9SZP,     0.31, 3,   boost,   59.82,  90230.00,  967.45,    6.31,   25.05, 55.8, 0.00, 3.64, 3.64,  69.97,  -0.60,  -2.27, -60.94,  -0.94,  -1.33,   0.20,  -0.43,  -0.02,   3.77, 3.66, 0.00, 0.00, 0.00, 0.00, 1, 1, 10,  31.0471372,-103.5271363,   890.0, 2026,  6, 17, 23, 54,  7,        0,        0,   0,   0,   1.3,   0.8,   1.0, 18, 22, 11,  0,  0,  0,  0, 10,  0, 23,  0, 28,  0,  0,  0,  0,  0,  0,  0,  0,  0,  0, 32,  0, 20, 21,  0, 18,  0,  0, 24, 32
6, 11115, 9,KC9SZP,     0.31, 3,   boost,   59.82,  90230.00,  967.45,    6.31,   25.05, 55.8, 0.00, 3.64, 3.64,  69.97,  -0.60,  -2.27, -60.94,  -0.94,  -1.33,   0.20,  -0.43,  -0.02,   3.77, 3.66, 0.00, 0.00, 0.00, 0.00, 1, 1, 10,  31.0471372,-103.5271363,   890.0, 2026,  6, 17, 23, 54,  7,        0,        0,   0,   0,   1.3,   0.8,   1.0, 18, 22, 11,  0,  0,  0,  0, 10,  0, 23,  0, 28,  0,  0,  0,  0,  0,  0,  0,  0,  0,  0, 32,  0, 20, 21,  0, 18,  0,  0, 24, 32
6, 11115, 9,KC9SZP,     0.31, 3,   boost,   59.82,  90230.00,  967.45,    6.31,   25.05, 55.8, 0.00, 3.64, 3.64,  69.97,  -0.60,  -2.27, -60.94,  -0.94,  -1.33,   0.20,  -0.43,  -0.02,   3.77, 3.66, 0.00, 0.00, 0.00, 0.00, 1, 1, 10,  31.0471372,-103.5271363,   890.0, 2026,  6, 17, 23, 54,  7,        0,        0,   0,   0,   1.3,   0.8,   1.0, 18, 22, 11,  0,  0,  0,  0, 10,  0, 23,  0, 28,  0,  0,  0,  0,  0,  0,  0,  0,  0,  0, 32,  0, 20, 21,  0, 18,  0,  0, 24, 32
6, 11115, 9,KC9SZP,     0.32, 3,   boost,   59.82,  90230.00,  967.45,    6.31,   25.66, 55.8, 0.00, 3.64, 3.64,  69.87,   1.08,  -1.62, -62.40,  -0.82,  -0.41,   0.20,  -0.43,  -0.02,   3.76, 3.66, 0.00, 0.00, 0.00, 0.00, 1, 1, 10,  31.0472070,-103.5271108,   892.0, 2026,  6, 17, 23, 54,  8,        8,        8,  17,  14,   1.3,   0.8,   1.0, 17, 21, 14,  0,  0,  0,  0,  8,  0, 22,  0, 28,  0,  0,  0,  0,  0,  0,  0,  0,  0,  0, 28,  0, 20, 20,  0, 17,  0,  0, 22, 32
6, 11115, 9,KC9SZP,     0.33, 3,   boost,   62.76,  90211.00,  969.19,    8.04,   26.27, 55.8, 0.00, 3.64, 3.64,  69.77,   2.59,  -1.20, -64.17,  -1.00,  -1.45,   0.20,  -0.43,  -0.02,   3.75, 3.66, 0.00, 0.00, 0.00, 0.00, 1, 1, 10,  31.0472070,-103.5271108,   892.0, 2026,  6, 17, 23, 54,  8,        8,        8,  17,  14,   1.3,   0.8,   1.0, 17, 21, 14,  0,  0,  0,  0,  8,  0, 22,  0, 28,  0,  0,  0,  0,  0,  0,  0,  0,  0,  0, 28,  0, 20, 20,  0, 17,  0,  0, 22, 32
6, 11115, 9,KC9SZP,     0.34, 3,   boost,   62.76,  90211.00,  969.19,    8.04,   26.89, 55.8, 0.00, 3.64, 3.64,  70.39,   1.39,  -2.08, -65.21,  -1.19,  -1.94,   0.20,  -0.43,  -0.02,   3.72, 3.65, 0.00, 0.00, 0.00, 0.00, 1, 1, 10,  31.0472070,-103.5271108,   892.0, 2026,  6, 17, 23, 54,  8,        8,        8,  17,  14,   1.3,   0.8,   1.0, 17, 21, 14,  0,  0,  0,  0,  8,  0, 22,  0, 28,  0,  0,  0,  0,  0,  0,  0,  0,  0,  0, 28,  0, 20, 20,  0, 17,  0,  0, 22, 32
6, 11115, 9,KC9SZP,     0.34, 3,   boost,   62.76,  90211.00,  969.19,    8.04,   26.89, 55.8, 0.00, 3.64, 3.64,  70.39,   1.39,  -2.08, -65.21,  -1.19,  -1.94,   0.20,  -0.43,  -0.02,   3.72, 3.65, 0.00, 0.00, 0.00, 0.00, 1, 1, 10,  31.0472070,-103.5271108,   892.0, 2026,  6, 17, 23, 54,  8,        8,        8,  17,  14,   1.3,   0.8,   1.0, 17, 21, 14,  0,  0,  0,  0,  8,  0, 22,  0, 28,  0,  0,  0,  0,  0,  0,  0,  0,  0,  0, 28,  0, 20, 20,  0, 17,  0,  0, 22, 32
6, 11115, 9,KC9SZP,     0.35, 3,   boost,   61.29,  90213.00,  969.00,    7.86,   27.50, 55.8, 0.00, 3.64, 3.64,  70.58,   0.78,  -2.23, -65.94,  -1.49,  -1.88,   0.20,  -0.43,  -0.03,   3.70, 3.65, 0.00, 0.00, 0.00, 0.00, 1, 1, 10,  31.0472070,-103.5271108,   892.0, 2026,  6, 17, 23, 54,  8,        8,        8,  17,  14,   1.3,   0.8,   1.0, 17, 21, 14,  0,  0,  0,  0,  8,  0, 22,  0, 28,  0,  0,  0,  0,  0,  0,  0,  0,  0,  0, 28,  0, 20, 20,  0, 17,  0,  0, 22, 32
6, 11115, 9,KC9SZP,     0.36, 3,   boost,   61.78,  90213.00,  969.00,    7.86,   28.12, 55.8, 0.00, 3.64, 3.64,  70.54,   1.21,  -2.18, -65.09,  -1.19,  -2.00,   0.20,  -0.43,  -0.03,   3.68, 3.65, 0.00, 0.00, 0.00, 0.00, 1, 1, 10,  31.0472070,-103.5271108,   892.0, 2026,  6, 17, 23, 54,  8,        8,        8,  17,  14,   1.3,   0.8,   1.0, 17, 21, 14,  0,  0,  0,  0,  8,  0, 22,  0, 28,  0,  0,  0,  0,  0,  0,  0,  0,  0,  0, 28,  0, 20, 20,  0, 17,  0,  0, 22, 32
6, 11115, 9,KC9SZP,     0.37, 3,   boost,   61.78,  90190.00,  971.11,    9.97,   28.74, 55.8, 0.00, 3.64, 3.64,  71.15,   1.76,  -2.21, -64.05,  -0.94,  -3.16,   0.20,  -0.43,  -0.03,   3.65, 3.65, 0.00, 0.00, 0.00, 0.00, 1, 1, 10,  31.0472070,-103.5271108,   892.0, 2026,  6, 17, 23, 54,  8,        8,        8,  17,  14,   1.3,   0.8,   1.0, 17, 21, 14,  0,  0,  0,  0,  8,  0, 22,  0, 28,  0,  0,  0,  0,  0,  0,  0,  0,  0,  0, 28,  0, 20, 20,  0, 17,  0,  0, 22, 32
6, 11115, 9,KC9SZP,     0.38, 3,   boost,   62.27,  90190.00,  971.11,    9.97,   29.36, 55.8, 0.00, 3.64, 3.64,  71.11,   0.32,  -2.56, -64.72,  -0.88,  -3.16,   0.20,  -0.44,  -0.04,   3.62, 3.65, 0.00, 0.00, 0.00, 0.00, 1, 1, 10,  31.0472070,-103.5271108,   892.0, 2026,  6, 17, 23, 54,  8,        8,        8,  17,  14,   1.3,   0.8,   1.0, 17, 21, 14,  0,  0,  0,  0,  8,  0, 22,  0, 28,  0,  0,  0,  0,  0,  0,  0,  0,  0,  0, 28,  0, 20, 20,  0, 17,  0,  0, 22, 32
6, 11115, 9,KC9SZP,     0.39, 3,   boost,   62.76,  90178.00,  972.20,   11.06,   29.98, 55.8, 0.00, 3.64, 3.64,  71.37,   1.23,  -2.56, -63.81,  -0.82,  -3.04,   0.20,  -0.44,  -0.04,   3.58, 3.65, 0.00, 0.00, 0.00, 0.00, 1, 1, 10,  31.0472070,-103.5271108,   892.0, 2026,  6, 17, 23, 54,  8,        8,        8,  17,  14,   1.3,   0.8,   1.0, 17, 21, 14,  0,  0,  0,  0,  8,  0, 22,  0, 28,  0,  0,  0,  0,  0,  0,  0,  0,  0,  0, 28,  0, 20, 20,  0, 17,  0,  0, 22, 32
6, 11115, 9,KC9SZP,     0.40, 3,   boost,   63.74,  90178.00,  972.20,   11.06,   30.60, 55.8, 0.00, 3.64, 3.64,  71.36,   2.33,  -2.69, -62.71,  -0.94,  -3.95,   0.20,  -0.43,  -0.04,   3.54, 3.65, 0.00, 0.00, 0.00, 0.00, 1, 1, 10,  31.0472070,-103.5271108,   892.0, 2026,  6, 17, 23, 54,  8,        8,        8,  17,  14,   1.3,   0.8,   1.0, 17, 21, 14,  0,  0,  0,  0,  8,  0, 22,  0, 28,  0,  0,  0,  0,  0,  0,  0,  0,  0,  0, 28,  0, 20, 20,  0, 17,  0,  0, 22, 32
6, 11115, 9,KC9SZP,     0.41, 3,   boost,   60.80,  90174.00,  972.57,   11.43,   31.22, 55.8, 0.00, 3.64, 3.64,  71.48,   0.55,  -2.46, -62.77,  -0.70,  -4.20,   0.20,  -0.44,  -0.05,   3.50, 3.65, 0.00, 0.00, 0.00, 0.00, 1, 1, 10,  31.0472070,-103.5271108,   892.0, 2026,  6, 17, 23, 54,  8,        8,        8,  17,  14,   1.3,   0.8,   1.0, 17, 21, 14,  0,  0,  0,  0,  8,  0, 22,  0, 28,  0,  0,  0,  0,  0,  0,  0,  0,  0,  0, 28,  0, 20, 20,  0, 17,  0,  0, 22, 32
6, 11115, 9,KC9SZP,     0.42, 3,   boost,   61.29,  90174.00,  972.57,   11.43,   31.85, 55.8, 0.00, 3.64, 3.64,  72.12,   1.02,  -2.89, -62.46,  -0.27,  -4.68,   0.20,  -0.44,  -0.04,   3.46, 3.65, 0.00, 0.00, 0.00, 0.00, 1, 1, 10,  31.0472070,-103.5271108,   892.0, 2026,  6, 17, 23, 54,  8,        8,        8,  17,  14,   1.3,   0.8,   1.0, 17, 21, 14,  0,  0,  0,  0,  8,  0, 22,  0, 28,  0,  0,  0,  0,  0,  0,  0,  0,  0,  0, 28,  0, 20, 20,  0, 17,  0,  0, 22, 32
6, 11115, 9,KC9SZP,     0.43, 3,   boost,   63.25,  90162.00,  973.67,   12.53,   32.47, 55.8, 0.00, 3.64, 3.64,  71.87,   1.92,  -2.72, -61.98,   0.46,  -4.62,   0.20,  -0.44,  -0.05,   3.41, 3.65, 0.00, 0.00, 0.00, 0.00, 1, 1, 10,  31.0472070,-103.5271108,   892.0, 2026,  6, 17, 23, 54,  8,        8,        8,  17,  14,   1.3,   0.8,   1.0, 17, 21, 14,  0,  0,  0,  0,  8,  0, 22,  0, 28,  0,  0,  0,  0,  0,  0,  0,  0,  0,  0, 28,  0, 20, 20,  0, 17,  0,  0, 22, 32
6, 11115, 9,KC9SZP,     0.44, 3,   boost,   62.27,  90162.00,  973.67,   12.53,   33.09, 55.8, 0.00, 3.64, 3.64,  71.87,   1.68,  -2.72, -61.67,   0.52,  -5.60,   0.20,  -0.44,  -0.05,   3.36, 3.65, 0.00, 0.00, 0.00, 0.00, 1, 1, 10,  31.0472070,-103.5271108,   892.0, 2026,  6, 17, 23, 54,  8,        8,        8,  17,  14,   1.3,   0.8,   1.0, 17, 21, 14,  0,  0,  0,  0,  8,  0, 22,  0, 28,  0,  0,  0,  0,  0,  0,  0,  0,  0,  0, 28,  0, 20, 20,  0, 17,  0,  0, 22, 32
6, 11115, 9,KC9SZP,     0.45, 3,   boost,   62.76,  90155.00,  974.31,   13.17,   33.72, 55.8, 0.00, 3.64, 3.64,  72.43,   0.95,  -2.67, -61.85,   0.95,  -5.66,   0.20,  -0.44,  -0.05,   3.31, 3.65, 0.00, 0.00, 0.00, 0.00, 1, 1, 10,  31.0472070,-103.5271108,   892.0, 2026,  6, 17, 23, 54,  8,        8,        8,  17,  14,   1.3,   0.8,   1.0, 17, 21, 14,  0,  0,  0,  0,  8,  0, 22,  0, 28,  0,  0,  0,  0,  0,  0,  0,  0,  0,  0, 28,  0, 20, 20,  0, 17,  0,  0, 22, 32
6, 11115, 9,KC9SZP,     0.46, 3,   boost,   63.74,  90155.00,  974.31,   13.17,   34.35, 55.8, 0.00, 3.64, 3.64,  72.66,   1.58,  -2.84, -63.38,   1.07,  -5.60,   0.20,  -0.44,  -0.05,   3.26, 3.65, 0.00, 0.00, 0.00, 0.00, 1, 1, 10,  31.0472070,-103.5271108,   892.0, 2026,  6, 17, 23, 54,  8,        8,        8,  17,  14,   1.3,   0.8,   1.0, 17, 21, 14,  0,  0,  0,  0,  8,  0, 22,  0, 28,  0,  0,  0,  0,  0,  0,  0,  0,  0,  0, 28,  0, 20, 20,  0, 17,  0,  0, 22, 32
6, 11115, 9,KC9SZP,     0.47, 3,   boost,   62.76,  90160.00,  973.85,   12.71,   34.98, 55.8, 0.00, 3.64, 3.64,  72.35,   2.45,  -2.58, -66.43,   1.80,  -6.09,   0.20,  -0.44,  -0.05,   3.21, 3.65, 0.00, 0.00, 0.00, 0.00, 1, 1, 10,  31.0472070,-103.5271108,   892.0, 2026,  6, 17, 23, 54,  8,        8,        8,  17,  14,   1.3,   0.8,   1.0, 17, 21, 14,  0,  0,  0,  0,  8,  0, 22,  0, 28,  0,  0,  0,  0,  0,  0,  0,  0,  0,  0, 28,  0, 20, 20,  0, 17,  0,  0, 22, 32
6, 11115, 9,KC9SZP,     0.48, 3,   boost,   63.74,  90160.00,  973.85,   12.71,   35.61, 55.8, 0.00, 3.64, 3.64,  72.50,   1.33,  -2.41, -70.15,   2.23,  -6.27,   0.20,  -0.44,  -0.07,   3.16, 3.65, 0.00, 0.00, 0.00, 0.00, 1, 1, 10,  31.0472070,-103.5271108,   892.0, 2026,  6, 17, 23, 54,  8,        8,        8,  17,  14,   1.3,   0.8,   1.0, 17, 21, 14,  0,  0,  0,  0,  8,  0, 22,  0, 28,  0,  0,  0,  0,  0,  0,  0,  0,  0,  0, 28,  0, 20, 20,  0, 17,  0,  0, 22, 32
6, 11115, 9,KC9SZP,     0.49, 3,   boost,   63.74,  90151.00,  974.67,   13.53,   36.24, 55.8, 0.00, 3.64, 3.64,  73.09,   1.47,  -2.59, -73.94,   2.78,  -6.64,   0.20,  -0.44,  -0.07,   3.11, 3.65, 0.00, 0.00, 0.00, 0.00, 1, 1, 10,  31.0472070,-103.5271108,   892.0, 2026,  6, 17, 23, 54,  8,        8,        8,  17,  14,   1.3,   0.8,   1.0, 17, 21, 14,  0,  0,  0,  0,  8,  0, 22,  0, 28,  0,  0,  0,  0,  0,  0,  0,  0,  0,  0, 28,  0, 20, 20,  0, 17,  0,  0, 22, 32
6, 11115, 9,KC9SZP,     0.50, 3,   boost,   64.23,  90151.00,  974.67,   13.53,   36.88, 55.8, 0.00, 3.64, 3.64,  73.14,   2.23,  -2.78, -77.91,   2.90,  -6.58,   0.20,  -0.44,  -0.07,   3.06, 3.65, 0.00, 0.00, 0.00, 0.00, 1, 1, 10,  31.0472070,-103.5271108,   892.0, 2026,  6, 17, 23, 54,  8,        8,        8,  17,  14,   1.3,   0.8,   1.0, 17, 21, 14,  0,  0,  0,  0,  8,  0, 22,  0, 28,  0,  0,  0,  0,  0,  0,  0,  0,  0,  0, 28,  0, 20, 20,  0, 17,  0,  0, 22, 32
6, 11115, 9,KC9SZP,     0.51, 3,   boost,   63.25,  90147.00,  975.04,   13.90,   37.51, 55.8, 0.00, 3.64, 3.64,  72.95,   2.10,  -2.42, -82.12,   3.39,  -7.19,   0.20,  -0.44,  -0.08,   3.01, 3.65, 0.00, 0.00, 0.00, 0.00, 1, 1, 10,  31.0472070,-103.5271108,   892.0, 2026,  6, 17, 23, 54,  8,        8,        8,  17,  14,   1.3,   0.8,   1.0, 17, 21, 14,  0,  0,  0,  0,  8,  0, 22,  0, 28,  0,  0,  0,  0,  0,  0,  0,  0,  0,  0, 28,  0, 20, 20,  0, 17,  0,  0, 22, 32
6, 11115, 9,KC9SZP,     0.52, 3,   boost,   62.27,  90147.00,  975.04,   13.90,   38.15, 55.8, 0.00, 3.64, 3.64,  72.61,   1.37,  -2.56, -86.57,   3.82,  -7.19,   0.20,  -0.44,  -0.08,   2.97, 3.65, 0.00, 0.00, 0.00, 0.00, 1, 1, 10,  31.0472070,-103.5271108,   892.0, 2026,  6, 17, 23, 54,  8,        8,        8,  17,  14,   1.3,   0.8,   1.0, 17, 21, 14,  0,  0,  0,  0,  8,  0, 22,  0, 28,  0,  0,  0,  0,  0,  0,  0,  0,  0,  0, 28,  0, 20, 20,  0, 17,  0,  0, 22, 32
6, 11115, 9,KC9SZP,     0.53, 3,   boost,   63.74,  90140.00,  975.68,   14.54,   38.78, 55.8, 0.00, 3.64, 3.64,  73.33,   1.97,  -2.49, -91.03,   4.43,  -7.19,   0.20,  -0.44,  -0.08,   2.93, 3.65, 0.00, 0.00, 0.00, 0.00, 1, 1, 10,  31.0472070,-103.5271108,   892.0, 2026,  6, 17, 23, 54,  8,        8,        8,  17,  14,   1.3,   0.8,   1.0, 17, 21, 14,  0,  0,  0,  0,  8,  0, 22,  0, 28,  0,  0,  0,  0,  0,  0,  0,  0,  0,  0, 28,  0, 20, 20,  0, 17,  0,  0, 22, 32
6, 11115, 9,KC9SZP,     0.54, 3,   boost,   64.23,  90140.00,  975.68,   14.54,   39.42, 55.8, 0.00, 3.64, 3.64,  72.89,   2.41,  -2.68, -95.79,   4.73,  -7.49,   0.20,  -0.44,  -0.08,   2.89, 3.65, 0.00, 0.00, 0.00, 0.00, 1, 1, 10,  31.0472070,-103.5271108,   892.0, 2026,  6, 17, 23, 54,  8,        8,        8,  17,  14,   1.3,   0.8,   1.0, 17, 21, 14,  0,  0,  0,  0,  8,  0, 22,  0, 28,  0,  0,  0,  0,  0,  0,  0,  0,  0,  0, 28,  0, 20, 20,  0, 17,  0,  0, 22, 32
6, 11115, 9,KC9SZP,     0.55, 3,   boost,   65.70,  90133.00,  976.32,   15.18,   40.06, 55.8, 0.00, 3.64, 3.64,  72.97,   1.59,  -2.39, -99.09,   5.10,  -7.55,   0.20,  -0.44,  -0.08,   2.86, 3.65, 0.00, 0.00, 0.00, 0.00, 1, 1, 10,  31.0472070,-103.5271108,   892.0, 2026,  6, 17, 23, 54,  8,        8,        8,  17,  14,   1.3,   0.8,   1.0, 17, 21, 14,  0,  0,  0,  0,  8,  0, 22,  0, 28,  0,  0,  0,  0,  0,  0,  0,  0,  0,  0, 28,  0, 20, 20,  0, 17,  0,  0, 22, 32
