#version,serial,flight,call,time,state,state_name,acceleration,pressure,altitude,height,speed,temperature,drogue_voltage,main_voltage,battery_voltage,accel_x,accel_y,accel_z,gyro_roll,gyro_pitch,gyro_yaw,mag_x,mag_y,mag_z,tilt,pyro,igniter_a,igniter_b,igniter_c,igniter_d,connected,locked,nsat,latitude,longitude,altitude,year,month,day,hour,minute,second,pad_dist,pad_range,pad_az,pad_el,pdop,hdop,vdop,sat01,sat02,sat03,sat04,sat05,sat06,sat07,sat08,sat09,sat10,sat11,sat12,sat13,sat14,sat15,sat16,sat17,sat18,sat19,sat20,sat21,sat22,sat23,sat24,sat25,sat26,sat27,sat28,sat29,sat30,sat31,sat32
6, 16162, 6,KC9SZP,    -0.30, 3,   boost,   -0.98,  90199.00,  970.28,   -1.19,    0.00, 49.7, 4.08, 4.08, 4.08,  -9.96,   0.13,  -0.43,   0.29,   0.13,   0.16,  -0.51,  -0.02,  -0.22,   3.24, 4.08, 0.00, 0.00, 0.00, 0.00, 1, 1, 15,  31.0470828,-103.5271395,   888.0, 2026,  6, 17, 23, 54,  7,        0,        0,   0,   0,   0.9,   0.5,   0.7, 39, 32, 40,  0,  0,  0,  0,  0,  0, 10,  0, 42,  0,  0,  0,  0,  0,  0,  0,  0,  0,  0, 43,  0,  0, 43,  0, 34,  0,  0, 40, 39
6, 16162, 6,KC9SZP,    -0.29, 3,   boost,   -0.00,  90199.00,  970.28,   -1.19,    0.00, 49.7, 4.08, 4.08, 4.08,  -9.79,   0.04,  -0.50,  -1.30,  -0.30,   0.40,  -0.51,  -0.02,  -0.22,   3.24, 4.08, 0.00, 0.00, 0.00, 0.00, 1, 1, 15,  31.0470828,-103.5271395,   888.0, 2026,  6, 17, 23, 54,  7,        0,        0,   0,   0,   0.9,   0.5,   0.7, 39, 32, 40,  0,  0,  0,  0,  0,  0, 10,  0, 42,  0,  0,  0,  0,  0,  0,  0,  0,  0,  0, 43,  0,  0, 43,  0, 34,  0,  0, 40, 39
6, 16162, 6,KC9SZP,    -0.28, 3,   boost,   -0.00,  90191.00,  971.01,   -0.46,    0.00, 49.7, 4.08, 4.08, 4.08,  -9.89,  -0.12,  -0.52,  -1.48,  -0.18,   0.40,  -0.51,  -0.02,  -0.22,   3.24, 4.08, 0.00, 0.00, 0.00, 0.00, 1, 1, 15,  31.0470828,-103.5271395,   888.0, 2026,  6, 17, 23, 54,  7,        0,        0,   0,   0,   0.9,   0.5,   0.7, 39, 32, 40,  0,  0,  0,  0,  0,  0, 10,  0, 42,  0,  0,  0,  0,  0,  0,  0,  0,  0,  0, 43,  0,  0, 43,  0, 34,  0,  0, 40, 39
6, 16162, 6,KC9SZP,    -0.27, 3,   boost,   -0.49,  90191.00,  971.01,   -0.46,    0.00, 49.7, 4.08, 4.08, 4.08,  -9.84,  -0.21,  -0.52,  -0.69,   0.07,   0.10,  -0.51,  -0.02,  -0.22,   3.24, 4.08, 0.00, 0.00, 0.00, 0.00, 1, 1, 15,  31.0470828,-103.5271395,   888.0, 2026,  6, 17, 23, 54,  7,        0,        0,   0,   0,   0.9,   0.5,   0.7, 39, 32, 40,  0,  0,  0,  0,  0,  0, 10,  0, 42,  0,  0,  0,  0,  0,  0,  0,  0,  0,  0, 43,  0,  0, 43,  0, 34,  0,  0, 40, 39
6, 16162, 6,KC9SZP,    -0.26, 3,   boost,   -0.00,  90176.00,  972.39,    0.91,    0.00, 49.7, 4.08, 4.08, 4.08,  -9.89,  -0.19,  -0.59,   0.04,   0.07,   0.40,  -0.51,  -0.02,  -0.22,   3.24, 4.08, 0.00, 0.00, 0.00, 0.00, 1, 1, 15,  31.0470828,-103.5271395,   888.0, 2026,  6, 17, 23, 54,  7,        0,        0,   0,   0,   0.9,   0.5,   0.7, 39, 32, 40,  0,  0,  0,  0,  0,  0, 10,  0, 42,  0,  0,  0,  0,  0,  0,  0,  0,  0,  0, 43,  0,  0, 43,  0, 34,  0,  0, 40, 39
6, 16162, 6,KC9SZP,    -0.25, 3,   boost,   -0.49,  90176.00,  972.39,    0.91,    0.00, 49.7, 4.08, 4.08, 4.08,  -9.84,  -0.14,  -0.52,   0.23,  -0.06,   0.34,  -0.51,  -0.02,  -0.22,   3.24, 4.08, 0.00, 0.00, 0.00, 0.00, 1, 1, 15,  31.0470828,-103.5271395,   888.0, 2026,  6, 17, 23, 54,  7,        0,        0,   0,   0,   0.9,   0.5,   0.7, 39, 32, 40,  0,  0,  0,  0,  0,  0, 10,  0, 42,  0,  0,  0,  0,  0,  0,  0,  0,  0,  0, 43,  0,  0, 43,  0, 34,  0,  0, 40, 39
6, 16162, 6,KC9SZP,    -0.24, 3,   boost,   -1.47,  90178.00,  972.20,    0.73,    0.00, 49.7, 4.08, 4.08, 4.08,  -9.89,  -0.19,  -0.53,  -0.44,   0.25,   0.40,  -0.51,  -0.02,  -0.22,   3.24, 4.08, 0.00, 0.00, 0.00, 0.00, 1, 1, 15,  31.0470828,-103.5271395,   888.0, 2026,  6, 17, 23, 54,  7,        0,        0,   0,   0,   0.9,   0.5,   0.7, 39, 32, 40,  0,  0,  0,  0,  0,  0, 10,  0, 42,  0,  0,  0,  0,  0,  0,  0,  0,  0,  0, 43,  0,  0, 43,  0, 34,  0,  0, 40, 39
6, 16162, 6,KC9SZP,    -0.23, 3,   boost,   -0.00,  90178.00,  972.20,    0.73,    0.00, 49.7, 4.08, 4.08, 4.08,  -9.81,  -0.19,  -0.65,  -1.36,  -0.18,   0.40,  -0.51,  -0.02,  -0.22,   3.24, 4.08, 0.00, 0.00, 0.00, 0.00, 1, 1, 15,  31.0470828,-103.5271395,   888.0, 2026,  6, 17, 23, 54,  7,        0,        0,   0,   0,   0.9,   0.5,   0.7, 39, 32, 40,  0,  0,  0,  0,  0,  0, 10,  0, 42,  0,  0,  0,  0,  0,  0,  0,  0,  0,  0, 43,  0,  0, 43,  0, 34,  0,  0, 40, 39
6, 16162, 6,KC9SZP,    -0.22, 3,   boost,   -0.00,  90182.00,  971.84,    0.37,    0.00, 49.7, 4.08, 4.08, 4.08,  -9.90,  -0.28,  -0.50,  -0.69,  -0.12,   0.34,  -0.51,  -0.02,  -0.22,   3.24, 4.08, 0.00, 0.00, 0.00, 0.00, 1, 1, 15,  31.0470828,-103.5271395,   888.0, 2026,  6, 17, 23, 54,  7,        0,        0,   0,   0,   0.9,   0.5,   0.7, 39, 32, 40,  0,  0,  0,  0,  0,  0, 10,  0, 42,  0,  0,  0,  0,  0,  0,  0,  0,  0,  0, 43,  0,  0, 43,  0, 34,  0,  0, 40, 39
6, 16162, 6,KC9SZP,    -0.21, 3,   boost,   -1.96,  90182.00,  971.84,    0.37,    0.00, 49.7, 4.08, 4.08, 4.08,  -9.88,  -0.24,  -0.32,   0.35,   0.01,   0.52,  -0.51,  -0.02,  -0.22,   3.24, 4.08, 0.00, 0.00, 0.00, 0.00, 1, 1, 15,  31.0470828,-103.5271395,   888.0, 2026,  6, 17, 23, 54,  7,        0,        0,   0,   0,   0.9,   0.5,   0.7, 39, 32, 40,  0,  0,  0,  0,  0,  0, 10,  0, 42,  0,  0,  0,  0,  0,  0,  0,  0,  0,  0, 43,  0,  0, 43,  0, 34,  0,  0, 40, 39
6, 16162, 6,KC9SZP,    -0.20, 3,   boost,   -0.49,  90188.00,  971.29,   -0.18,    0.00, 49.7, 4.08, 4.08, 4.08,  -9.86,  -0.22,  -0.28,   0.96,  -0.30,   0.58,  -0.51,  -0.02,  -0.22,   3.24, 4.08, 0.00, 0.00, 0.00, 0.00, 1, 1, 15,  31.0470828,-103.5271395,   888.0, 2026,  6, 17, 23, 54,  7,        0,        0,   0,   0,   0.9,   0.5,   0.7, 39, 32, 40,  0,  0,  0,  0,  0,  0, 10,  0, 42,  0,  0,  0,  0,  0,  0,  0,  0,  0,  0, 43,  0,  0, 43,  0, 34,  0,  0, 40, 39
6, 16162, 6,KC9SZP,    -0.19, 3,   boost,    0.49,  90188.00,  971.29,   -0.18,    0.00, 49.7, 4.08, 4.08, 4.08,  -9.91,  -0.12,  -0.29,  -0.38,   0.31,   0.46,  -0.51,  -0.02,  -0.22,   3.24, 4.08, 0.00, 0.00, 0.00, 0.00, 1, 1, 15,  31.0470828,-103.5271395,   888.0, 2026,  6, 17, 23, 54,  7,        0,        0,   0,   0,   0.9,   0.5,   0.7, 39, 32, 40,  0,  0,  0,  0,  0,  0, 10,  0, 42,  0,  0,  0,  0,  0,  0,  0,  0,  0,  0, 43,  0,  0, 43,  0, 34,  0,  0, 40, 39
6, 16162, 6,KC9SZP,    -0.18, 3,   boost,    0.98,  90185.00,  971.56,    0.09,    0.00, 49.6, 4.08, 4.08, 4.08,  -9.84,  -0.14,  -0.47,  -0.87,  -0.36,   0.46,  -0.51,  -0.02,  -0.22,   3.24, 4.08, 0.00, 0.00, 0.00, 0.00, 1, 1, 15,  31.0470828,-103.5271395,   888.0, 2026,  6, 17, 23, 54,  7,        0,        0,   0,   0,   0.9,   0.5,   0.7, 39, 32, 40,  0,  0,  0,  0,  0,  0, 10,  0, 42,  0,  0,  0,  0,  0,  0,  0,  0,  0,  0, 43,  0,  0, 43,  0, 34,  0,  0, 40, 39
6, 16162, 6,KC9SZP,    -0.17, 3,   boost,   -0.98,  90185.00,  971.56,    0.09,    0.00, 49.6, 4.08, 4.08, 4.08,  -9.83,  -0.27,  -0.65,  -0.75,  -0.12,   0.28,  -0.51,  -0.02,  -0.22,   3.24, 4.08, 0.00, 0.00, 0.00, 0.00, 1, 1, 15,  31.0470828,-103.5271395,   888.0, 2026,  6, 17, 23, 54,  7,        0,        0,   0,   0,   0.9,   0.5,   0.7, 39, 32, 40,  0,  0,  0,  0,  0,  0, 10,  0, 42,  0,  0,  0,  0,  0,  0,  0,  0,  0,  0, 43,  0,  0, 43,  0, 34,  0,  0, 40, 39
6, 16162, 6,KC9SZP,    -0.16, 3,   boost,    0.98,  90168.00,  973.12,    1.65,    0.00, 49.6, 4.08, 4.08, 4.08,  -9.80,  -0.34,  -0.73,  -0.32,  -0.24,  -0.03,  -0.51,  -0.02,  -0.22,   3.24, 4.08, 0.00, 0.00, 0.00, 0.00, 1, 1, 15,  31.0470828,-103.5271395,   888.0, 2026,  6, 17, 23, 54,  7,        0,        0,   0,   0,   0.9,   0.5,   0.7, 39, 32, 40,  0,  0,  0,  0,  0,  0, 10,  0, 42,  0,  0,  0,  0,  0,  0,  0,  0,  0,  0, 43,  0,  0, 43,  0, 34,  0,  0, 40, 39
6, 16162, 6,KC9SZP,    -0.15, 3,   boost,   -0.49,  90168.00,  973.12,    1.65,    0.00, 49.6, 4.08, 4.08, 4.08,  -9.88,  -0.42,  -0.70,  -0.08,  -0.30,  -0.33,  -0.51,  -0.02,  -0.22,   3.24, 4.08, 0.00, 0.00, 0.00, 0.00, 1, 1, 15,  31.0470828,-103.5271395,   888.0, 2026,  6, 17, 23, 54,  7,        0,        0,   0,   0,   0.9,   0.5,   0.7, 39, 32, 40,  0,  0,  0,  0,  0,  0, 10,  0, 42,  0,  0,  0,  0,  0,  0,  0,  0,  0,  0, 43,  0,  0, 43,  0, 34,  0,  0, 40, 39
6, 16162, 6,KC9SZP,    -0.14, 3,   boost,    0.49,  90173.00,  972.66,    1.19,    0.01, 49.7, 4.08, 4.08, 4.08,  -9.73,  -0.27,  -0.68,   0.41,  -0.30,  -0.09,  -0.51,  -0.02,  -0.22,   3.24, 4.08, 0.00, 0.00, 0.00, 0.00, 1, 1, 15,  31.0470828,-103.5271395,   888.0, 2026,  6, 17, 23, 54,  7,        0,        0,   0,   0,   0.9,   0.5,   0.7, 39, 32, 40,  0,  0,  0,  0,  0,  0, 10,  0, 42,  0,  0,  0,  0,  0,  0,  0,  0,  0,  0, 43,  0,  0, 43,  0, 34,  0,  0, 40, 39
6, 16162, 6,KC9SZP,    -0.13, 3,   boost,   -0.00,  90173.00,  972.66,    1.19,    0.05, 49.7, 4.08, 4.08, 4.08,  -9.95,  -0.35,  -0.58,   0.47,  -0.06,   0.10,  -0.51,  -0.02,  -0.22,   3.24, 4.08, 0.00, 0.00, 0.00, 0.00, 1, 1, 15,  31.0470828,-103.5271395,   888.0, 2026,  6, 17, 23, 54,  7,        0,        0,   0,   0,   0.9,   0.5,   0.7, 39, 32, 40,  0,  0,  0,  0,  0,  0, 10,  0, 42,  0,  0,  0,  0,  0,  0,  0,  0,  0,  0, 43,  0,  0, 43,  0, 34,  0,  0, 40, 39
6, 16162, 6,KC9SZP,    -0.12, 3,   boost,    4.90,  90177.00,  972.30,    0.82,    0.14, 49.6, 4.08, 4.08, 4.08,  -9.96,  -0.20,  -0.71,   0.71,  -0.18,   0.10,  -0.51,  -0.02,  -0.22,   3.24, 4.08, 0.00, 0.00, 0.00, 0.00, 1, 1, 15,  31.0470828,-103.5271395,   888.0, 2026,  6, 17, 23, 54,  7,        0,        0,   0,   0,   0.9,   0.5,   0.7, 39, 32, 40,  0,  0,  0,  0,  0,  0, 10,  0, 42,  0,  0,  0,  0,  0,  0,  0,  0,  0,  0, 43,  0,  0, 43,  0, 34,  0,  0, 40, 39
6, 16162, 6,KC9SZP,    -0.11, 3,   boost,   14.71,  90177.00,  972.30,    0.82,    0.30, 49.6, 4.08, 4.08, 4.08, -12.56,  -0.19,  -0.51,   0.65,  -0.12,  -0.03,  -0.51,  -0.02,  -0.22,   3.24, 4.08, 0.00, 0.00, 0.00, 0.00, 1, 1, 15,  31.0470828,-103.5271395,   888.0, 2026,  6, 17, 23, 54,  7,        0,        0,   0,   0,   0.9,   0.5,   0.7, 39, 32, 40,  0,  0,  0,  0,  0,  0, 10,  0, 42,  0,  0,  0,  0,  0,  0,  0,  0,  0,  0, 43,  0,  0, 43,  0, 34,  0,  0, 40, 39
6, 16162, 6,KC9SZP,    -0.10, 3,   boost,   46.58,  90221.00,  968.27,   -3.20,    0.54, 49.7, 4.08, 4.08, 4.08, -20.22,   0.20,  -1.65,   2.48,  -1.58,  -0.27,  -0.51,  -0.02,  -0.22,   3.24, 4.08, 0.00, 0.00, 0.00, 0.00, 1, 1, 15,  31.0470828,-103.5271395,   888.0, 2026,  6, 17, 23, 54,  7,        0,        0,   0,   0,   0.9,   0.5,   0.7, 39, 32, 40,  0,  0,  0,  0,  0,  0, 10,  0, 42,  0,  0,  0,  0,  0,  0,  0,  0,  0,  0, 43,  0,  0, 43,  0, 34,  0,  0, 40, 39
6, 16162, 6,KC9SZP,    -0.09, 3,   boost,   36.28,  90221.00,  968.27,   -3.20,    0.85, 49.7, 4.08, 4.08, 4.08, -35.63,  -4.12,   1.67,   0.04,  -6.16,   0.83,  -0.51,  -0.02,  -0.22,   3.24, 4.08, 0.00, 0.00, 0.00, 0.00, 1, 1, 15,  31.0470828,-103.5271395,   888.0, 2026,  6, 17, 23, 54,  7,        0,        0,   0,   0,   0.9,   0.5,   0.7, 39, 32, 40,  0,  0,  0,  0,  0,  0, 10,  0, 42,  0,  0,  0,  0,  0,  0,  0,  0,  0,  0, 43,  0,  0, 43,  0, 34,  0,  0, 40, 39
6, 16162, 6,KC9SZP,    -0.08, 3,   boost,   39.23,  90205.00,  969.73,   -1.74,    1.22, 49.7, 4.08, 4.08, 4.08, -46.92,  -1.11,   1.03,  -6.61,  -5.00,   0.40,  -0.51,  -0.02,  -0.22,   3.24, 4.08, 0.00, 0.00, 0.00, 0.00, 1, 1, 15,  31.0470828,-103.5271395,   888.0, 2026,  6, 17, 23, 54,  7,        0,        0,   0,   0,   0.9,   0.5,   0.7, 39, 32, 40,  0,  0,  0,  0,  0,  0, 10,  0, 42,  0,  0,  0,  0,  0,  0,  0,  0,  0,  0, 43,  0,  0, 43,  0, 34,  0,  0, 40, 39
6, 16162, 6,KC9SZP,    -0.07, 3,   boost,   44.62,  90205.00,  969.73,   -1.74,    1.62, 49.7, 4.08, 4.08, 4.08, -48.21,  -1.28,  -2.06,  -0.63,  -1.64,  -1.06,  -0.51,  -0.02,  -0.22,   3.24, 4.08, 0.00, 0.00, 0.00, 0.00, 1, 1, 15,  31.0470828,-103.5271395,   888.0, 2026,  6, 17, 23, 54,  7,        0,        0,   0,   0,   0.9,   0.5,   0.7, 39, 32, 40,  0,  0,  0,  0,  0,  0, 10,  0, 42,  0,  0,  0,  0,  0,  0,  0,  0,  0,  0, 43,  0,  0, 43,  0, 34,  0,  0, 40, 39
6, 16162, 6,KC9SZP,    -0.06, 3,   boost,   44.13,  90168.00,  973.12,    1.65,    2.05, 49.7, 4.08, 4.08, 4.08, -51.47,  -1.02,   0.16,  -7.77,  -0.67,  -0.33,  -0.51,  -0.02,  -0.22,   3.24, 4.08, 0.00, 0.00, 0.00, 0.00, 1, 1, 15,  31.0470828,-103.5271395,   888.0, 2026,  6, 17, 23, 54,  7,        0,        0,   0,   0,   0.9,   0.5,   0.7, 39, 32, 40,  0,  0,  0,  0,  0,  0, 10,  0, 42,  0,  0,  0,  0,  0,  0,  0,  0,  0,  0, 43,  0,  0, 43,  0, 34,  0,  0, 40, 39
6, 16162, 6,KC9SZP,    -0.05, 3,   boost,   43.64,  90168.00,  973.12,    1.65,    2.48, 49.7, 4.08, 4.08, 4.08, -53.61,  -0.28,  -0.45, -15.64,  -0.61,   0.16,  -0.51,  -0.02,  -0.22,   3.24, 4.08, 0.00, 0.00, 0.00, 0.00, 1, 1, 15,  31.0470828,-103.5271395,   888.0, 2026,  6, 17, 23, 54,  7,        0,        0,   0,   0,   0.9,   0.5,   0.7, 39, 32, 40,  0,  0,  0,  0,  0,  0, 10,  0, 42,  0,  0,  0,  0,  0,  0,  0,  0,  0,  0, 43,  0,  0, 43,  0, 34,  0,  0, 40, 39
6, 16162, 6,KC9SZP,    -0.04, 3,   boost,   45.11,  90154.00,  974.40,    2.93,    2.93, 49.6, 4.08, 4.08, 4.08, -52.81,  -1.23,  -2.07, -19.79,  -1.46,   0.46,  -0.51,  -0.02,  -0.22,   3.24, 4.08, 0.00, 0.00, 0.00, 0.00, 1, 1, 15,  31.0470828,-103.5271395,   888.0, 2026,  6, 17, 23, 54,  7,        0,        0,   0,   0,   0.9,   0.5,   0.7, 39, 32, 40,  0,  0,  0,  0,  0,  0, 10,  0, 42,  0,  0,  0,  0,  0,  0,  0,  0,  0,  0, 43,  0,  0, 43,  0, 34,  0,  0, 40, 39
6, 16162, 6,KC9SZP,    -0.03, 3,   boost,   45.11,  90154.00,  974.40,    2.93,    3.38, 49.6, 4.08, 4.08, 4.08, -53.56,  -1.49,  -5.51, -16.74,   1.84,   1.01,  -0.51,  -0.02,  -0.22,   3.24, 4.08, 0.00, 0.00, 0.00, 0.00, 1, 1, 15,  31.0470828,-103.5271395,   888.0, 2026,  6, 17, 23, 54,  7,        0,        0,   0,   0,   0.9,   0.5,   0.7, 39, 32, 40,  0,  0,  0,  0,  0,  0, 10,  0, 42,  0,  0,  0,  0,  0,  0,  0,  0,  0,  0, 43,  0,  0, 43,  0, 34,  0,  0, 40, 39
6, 16162, 6,KC9SZP,    -0.02, 3,   boost,   46.58,  90178.00,  972.20,    0.73,    3.85, 49.7, 4.08, 4.08, 4.08, -54.89,   0.60,  -0.07, -13.51,   0.07,  -0.09,  -0.51,  -0.02,  -0.22,   3.24, 4.08, 0.00, 0.00, 0.00, 0.00, 1, 1, 15,  31.0470828,-103.5271395,   888.0, 2026,  6, 17, 23, 54,  7,        0,        0,   0,   0,   0.9,   0.5,   0.7, 39, 32, 40,  0,  0,  0,  0,  0,  0, 10,  0, 42,  0,  0,  0,  0,  0,  0,  0,  0,  0,  0, 43,  0,  0, 43,  0, 34,  0,  0, 40, 39
6, 16162, 6,KC9SZP,    -0.01, 3,   boost,   48.05,  90178.00,  972.20,    0.73,    4.33, 49.7, 4.08, 4.08, 4.08, -55.59,  -3.28,  -0.67, -18.69,  -0.06,   0.65,  -0.51,  -0.02,  -0.22,   3.24, 4.08, 0.00, 0.00, 0.00, 0.00, 1, 1, 15,  31.0470828,-103.5271395,   888.0, 2026,  6, 17, 23, 54,  7,        0,        0,   0,   0,   0.9,   0.5,   0.7, 39, 32, 40,  0,  0,  0,  0,  0,  0, 10,  0, 42,  0,  0,  0,  0,  0,  0,  0,  0,  0,  0, 43,  0,  0, 43,  0, 34,  0,  0, 40, 39
6, 16162, 6,KC9SZP,     0.00, 3,   boost,   52.47,  90192.00,  970.92,   -0.55,    4.83, 49.7, 4.08, 4.08, 4.08, -57.53,   0.11,  -2.29, -21.07,   1.41,   1.26,  -0.51,  -0.02,  -0.22,   3.24, 4.08, 0.00, 0.00, 0.00, 0.00, 1, 1, 15,  31.0470828,-103.5271395,   888.0, 2026,  6, 17, 23, 54,  7,        0,        0,   0,   0,   0.9,   0.5,   0.7, 39, 32, 40,  0,  0,  0,  0,  0,  0, 10,  0, 42,  0,  0,  0,  0,  0,  0,  0,  0,  0,  0, 43,  0,  0, 43,  0, 34,  0,  0, 40, 39
6, 16162, 6,KC9SZP,     0.00, 3,   boost,   52.47,  90192.00,  970.92,   -0.55,    4.83, 49.7, 4.08, 4.08, 4.08, -57.53,   0.11,  -2.29, -21.07,   1.41,   1.26,  -0.51,  -0.02,  -0.22,   3.24, 4.08, 0.00, 0.00, 0.00, 0.00, 1, 1, 15,  31.0470828,-103.5271395,   888.0, 2026,  6, 17, 23, 54,  7,        0,        0,   0,   0,   0.9,   0.5,   0.7, 39, 32, 40,  0,  0,  0,  0,  0,  0, 10,  0, 42,  0,  0,  0,  0,  0,  0,  0,  0,  0,  0, 43,  0,  0, 43,  0, 34,  0,  0, 40, 39
6, 16162, 6,KC9SZP,     0.00, 3,   boost,   52.47,  90192.00,  970.92,   -0.55,    4.83, 49.7, 4.08, 4.08, 4.08, -57.53,   0.11,  -2.29, -21.07,   1.41,   1.26,  -0.51,  -0.02,  -0.22,   3.24, 4.08, 0.00, 0.00, 0.00, 0.00, 1, 1, 15,  31.0470828,-103.5271395,   888.0, 2026,  6, 17, 23, 54,  7,        0,        0,   0,   0,   0.9,   0.5,   0.7, 39, 32, 40,  0,  0,  0,  0,  0,  0, 10,  0, 42,  0,  0,  0,  0,  0,  0,  0,  0,  0,  0, 43,  0,  0, 43,  0, 34,  0,  0, 40, 39
6, 16162, 6,KC9SZP,     0.00, 3,   boost,   52.47,  90192.00,  970.92,   -0.55,    4.83, 49.7, 4.08, 4.08, 4.08, -57.53,   0.11,  -2.29, -21.07,   1.41,   1.26,  -0.51,  -0.02,  -0.22,   3.24, 4.08, 0.00, 0.00, 0.00, 0.00, 1, 1, 15,  31.0470828,-103.5271395,   888.0, 2026,  6, 17, 23, 54,  7,        0,        0,   0,   0,   0.9,   0.5,   0.7, 39, 32, 40,  0,  0,  0,  0,  0,  0, 10,  0, 42,  0,  0,  0,  0,  0,  0,  0,  0,  0,  0, 43,  0,  0, 43,  0, 34,  0,  0, 40, 39
6, 16162, 6,KC9SZP,     0.00, 3,   boost,   52.47,  90192.00,  970.92,   -0.55,    4.83, 49.7, 4.08, 4.08, 4.08, -57.53,   0.11,  -2.29, -21.07,   1.41,   1.26,  -0.51,  -0.02,  -0.22,   3.24, 4.08, 0.00, 0.00, 0.00, 0.00, 1, 1, 15,  31.0470828,-103.5271395,   888.0, 2026,  6, 17, 23, 54,  7,        0,        0,   0,   0,   0.9,   0.5,   0.7, 39, 32, 40,  0,  0,  0,  0,  0,  0, 10,  0, 42,  0,  0,  0,  0,  0,  0,  0,  0,  0,  0, 43,  0,  0, 43,  0, 34,  0,  0, 40, 39
6, 16162, 6,KC9SZP,     0.00, 3,   boost,   52.47,  90192.00,  970.92,   -0.55,    4.83, 49.7, 4.08, 4.08, 4.08, -57.53,   0.11,  -2.29, -21.07,   1.41,   1.26,  -0.51,  -0.02,  -0.22,   3.24, 4.08, 0.00, 0.00, 0.00, 0.00, 1, 1, 15,  31.0470828,-103.5271395,   888.0, 2026,  6, 17, 23, 54,  7,        0,        0,   0,   0,   0.9,   0.5,   0.7, 39, 32, 40,  0,  0,  0,  0,  0,  0, 10,  0, 42,  0,  0,  0,  0,  0,  0,  0,  0,  0,  0, 43,  0,  0, 43,  0, 34,  0,  0, 40, 39
6, 16162, 6,KC9SZP,     0.00, 3,   boost,   52.47,  90192.00,  970.92,   -0.55,    4.83, 49.7, 4.08, 4.08, 4.08, -57.53,   0.11,  -2.29, -21.07,   1.41,   1.26,  -0.51,  -0.02,  -0.22,   3.24, 4.08, 0.00, 0.00, 0.00, 0.00, 1, 1, 15,  31.0470828,-103.5271395,   888.0, 2026,  6, 17, 23, 54,  7,        0,        0,   0,   0,   0.9,   0.5,   0.7, 39, 32, 40,  0,  0,  0,  0,  0,  0, 10,  0, 42,  0,  0,  0,  0,  0,  0,  0,  0,  0,  0, 43,  0,  0, 43,  0, 34,  0,  0, 40, 39
6, 16162, 6,KC9SZP,     0.00, 3,   boost,   52.47,  90192.00,  970.92,   -0.55,    4.83, 49.7, 4.08, 4.08, 4.08, -57.53,   0.11,  -2.29, -21.07,   1.41,   1.26,  -0.51,  -0.02,  -0.22,   3.24, 4.08, 0.00, 0.00, 0.00, 0.00, 1, 1, 15,  31.0470828,-103.5271395,   888.0, 2026,  6, 17, 23, 54,  7,        0,        0,   0,   0,   0.9,   0.5,   0.7, 39, 32, 40,  0,  0,  0,  0,  0,  0, 10,  0, 42,  0,  0,  0,  0,  0,  0,  0,  0,  0,  0, 43,  0,  0, 43,  0, 34,  0,  0, 40, 39
6, 16162, 6,KC9SZP,     0.00, 3,   boost,   52.47,  90192.00,  970.92,   -0.55,    4.83, 49.7, 4.08, 4.08, 4.08, -57.53,   0.11,  -2.29, -21.07,   1.41,   1.26,  -0.51,  -0.02,  -0.22,   3.24, 4.08, 0.00, 0.00, 0.00, 0.00, 1, 1, 15,  31.0470828,-103.5271395,   888.0, 2026,  6, 17, 23, 54,  7,        0,        0,   0,   0,   0.9,   0.5,   0.7, 39, 32, 40,  0,  0,  0,  0,  0,  0, 10,  0, 42,  0,  0,  0,  0,  0,  0,  0,  0,  0,  0, 43,  0,  0, 43,  0, 34,  0,  0, 40, 39
6, 16162, 6,KC9SZP,     0.00, 3,   boost,   52.47,  90192.00,  970.92,   -0.55,    4.83, 49.7, 4.08, 4.08, 4.08, -57.53,   0.11,  -2.29, -21.07,   1.41,   1.26,  -0.51,  -0.02,  -0.22,   3.24, 4.08, 0.00, 0.00, 0.00, 0.00, 1, 1, 15,  31.0470828,-103.5271395,   888.0, 2026,  6, 17, 23, 54,  7,        0,        0,   0,   0,   0.9,   0.5,   0.7, 39, 32, 40,  0,  0,  0,  0,  0,  0, 10,  0, 42,  0,  0,  0,  0,  0,  0,  0,  0,  0,  0, 43,  0,  0, 43,  0, 34,  0,  0, 40, 39
6, 16162, 6,KC9SZP,     0.00, 3,   boost,   52.47,  90192.00,  970.92,   -0.55,    4.83, 49.7, 4.08, 4.08, 4.08, -57.53,   0.11,  -2.29, -21.07,   1.41,   1.26,  -0.51,  -0.02,  -0.22,   3.24, 4.08, 0.00, 0.00, 0.00, 0.00, 1, 1, 15,  31.0470828,-103.5271395,   888.0, 2026,  6, 17, 23, 54,  7,        0,        0,   0,   0,   0.9,   0.5,   0.7, 39, 32, 40,  0,  0,  0,  0,  0,  0, 10,  0, 42,  0,  0,  0,  0,  0,  0,  0,  0,  0,  0, 43,  0,  0, 43,  0, 34,  0,  0, 40, 39
6, 16162, 6,KC9SZP,     0.00, 3,   boost,   52.47,  90192.00,  970.92,   -0.55,    4.83, 49.7, 4.08, 4.08, 4.08, -57.53,   0.11,  -2.29, -21.07,   1.41,   1.26,  -0.51,  -0.02,  -0.22,   3.25, 4.08, 0.00, 0.00, 0.00, 0.00, 1, 1, 15,  31.0470828,-103.5271395,   888.0, 2026,  6, 17, 23, 54,  7,        0,        0,   0,   0,   0.9,   0.5,   0.7, 39, 32, 40,  0,  0,  0,  0,  0,  0, 10,  0, 42,  0,  0,  0,  0,  0,  0,  0,  0,  0,  0, 43,  0,  0, 43,  0, 34,  0,  0, 40, 39
6, 16162, 6,KC9SZP,     0.00, 3,   boost,   52.47,  90192.00,  970.92,   -0.55,    4.83, 49.7, 4.08, 4.08, 4.08, -57.53,   0.11,  -2.29, -21.07,   1.41,   1.26,  -0.51,  -0.02,  -0.22,   3.24, 4.08, 0.00, 0.00, 0.00, 0.00, 1, 1, 15,  31.0470828,-103.5271395,   888.0, 2026,  6, 17, 23, 54,  7,        0,        0,   0,   0,   0.9,   0.5,   0.7, 39, 32, 40,  0,  0,  0,  0,  0,  0, 10,  0, 42,  0,  0,  0,  0,  0,  0,  0,  0,  0,  0, 43,  0,  0, 43,  0, 34,  0,  0, 40, 39
6, 16162, 6,KC9SZP,     0.00, 3,   boost,   52.47,  90192.00,  970.92,   -0.55,    4.83, 49.7, 4.08, 4.08, 4.08, -57.53,   0.11,  -2.29, -21.07,   1.41,   1.26,  -0.51,  -0.02,  -0.22,   3.25, 4.08, 0.00, 0.00, 0.00, 0.00, 1, 1, 15,  31.0470828,-103.5271395,   888.0, 2026,  6, 17, 23, 54,  7,        0,        0,   0,   0,   0.9,   0.5,   0.7, 39, 32, 40,  0,  0,  0,  0,  0,  0, 10,  0, 42,  0,  0,  0,  0,  0,  0,  0,  0,  0,  0, 43,  0,  0, 43,  0, 34,  0,  0, 40, 39
6, 16162, 6,KC9SZP,     0.00, 3,   boost,   52.47,  90192.00,  970.92,   -0.55,    4.83, 49.7, 4.08, 4.08, 4.08, -57.53,   0.11,  -2.29, -21.07,   1.41,   1.26,  -0.51,  -0.02,  -0.22,   3.25, 4.08, 0.00, 0.00, 0.00, 0.00, 1, 1, 15,  31.0470828,-103.5271395,   888.0, 2026,  6, 17, 23, 54,  7,        0,        0,   0,   0,   0.9,   0.5,   0.7, 39, 32, 40,  0,  0,  0,  0,  0,  0, 10,  0, 42,  0,  0,  0,  0,  0,  0,  0,  0,  0,  0, 43,  0,  0, 43,  0, 34,  0,  0, 40, 39
6, 16162, 6,KC9SZP,     0.00, 3,   boost,   52.47,  90192.00,  970.92,   -0.55,    4.83, 49.7, 4.08, 4.08, 4.08, -57.53,   0.11,  -2.29, -21.07,   1.41,   1.26,  -0.51,  -0.02,  -0.22,   3.25, 4.08, 0.00, 0.00, 0.00, 0.00, 1, 1, 15,  31.0470828,-103.5271395,   888.0, 2026,  6, 17, 23, 54,  7,        0,        0,   0,   0,   0.9,   0.5,   0.7, 39, 32, 40,  0,  0,  0,  0,  0,  0, 10,  0, 42,  0,  0,  0,  0,  0,  0,  0,  0,  0,  0, 43,  0,  0, 43,  0, 34,  0,  0, 40, 39
6, 16162, 6,KC9SZP,     0.00, 3,   boost,   52.47,  90192.00,  970.92,   -0.55,    4.83, 49.7, 4.08, 4.08, 4.08, -57.53,   0.11,  -2.29, -21.07,   1.41,   1.26,  -0.51,  -0.02,  -0.22,   3.26, 4.08, 0.00, 0.00, 0.00, 0.00, 1, 1, 15,  31.0470828,-103.5271395,   888.0, 2026,  6, 17, 23, 54,  7,        0,        0,   0,   0,   0.9,   0.5,   0.7, 39, 32, 40,  0,  0,  0,  0,  0,  0, 10,  0, 42,  0,  0,  0,  0,  0,  0,  0,  0,  0,  0, 43,  0,  0, 43,  0, 34,  0,  0, 40, 39
6, 16162, 6,KC9SZP,     0.00, 3,   boost,   52.47,  90192.00,  970.92,   -0.55,    4.83, 49.7, 4.08, 4.08, 4.08, -57.53,   0.11,  -2.29, -21.07,   1.41,   1.26,  -0.51,  -0.02,  -0.22,   3.25, 4.08, 0.00, 0.00, 0.00, 0.00, 1, 1, 15,  31.0470828,-103.5271395,   888.0, 2026,  6, 17, 23, 54,  7,        0,        0,   0,   0,   0.9,   0.5,   0.7, 39, 32, 40,  0,  0,  0,  0,  0,  0, 10,  0, 42,  0,  0,  0,  0,  0,  0,  0,  0,  0,  0, 43,  0,  0, 43,  0, 34,  0,  0, 40, 39
6, 16162, 6,KC9SZP,     0.00, 3,   boost,   52.47,  90192.00,  970.92,   -0.55,    4.83, 49.7, 4.08, 4.08, 4.08, -57.53,   0.11,  -2.29, -21.07,   1.41,   1.26,  -0.51,  -0.02,  -0.22,   3.26, 4.08, 0.00, 0.00, 0.00, 0.00, 1, 1, 15,  31.0470828,-103.5271395,   888.0, 2026,  6, 17, 23, 54,  7,        0,        0,   0,   0,   0.9,   0.5,   0.7, 39, 32, 40,  0,  0,  0,  0,  0,  0, 10,  0, 42,  0,  0,  0,  0,  0,  0,  0,  0,  0,  0, 43,  0,  0, 43,  0, 34,  0,  0, 40, 39
6, 16162, 6,KC9SZP,     0.00, 3,   boost,   52.47,  90192.00,  970.92,   -0.55,    4.83, 49.7, 4.08, 4.08, 4.08, -57.53,   0.11,  -2.29, -21.07,   1.41,   1.26,  -0.51,  -0.02,  -0.22,   3.26, 4.08, 0.00, 0.00, 0.00, 0.00, 1, 1, 15,  31.0470828,-103.5271395,   888.0, 2026,  6, 17, 23, 54,  7,        0,        0,   0,   0,   0.9,   0.5,   0.7, 39, 32, 40,  0,  0,  0,  0,  0,  0, 10,  0, 42,  0,  0,  0,  0,  0,  0,  0,  0,  0,  0, 43,  0,  0, 43,  0, 34,  0,  0, 40, 39
6, 16162, 6,KC9SZP,     0.00, 3,   boost,   52.47,  90192.00,  970.92,   -0.55,    4.83, 49.7, 4.08, 4.08, 4.08, -57.53,   0.11,  -2.29, -21.07,   1.41,   1.26,  -0.51,  -0.02,  -0.22,   3.26, 4.08, 0.00, 0.00, 0.00, 0.00, 1, 1, 15,  31.0470828,-103.5271395,   888.0, 2026,  6, 17, 23, 54,  7,        0,        0,   0,   0,   0.9,   0.5,   0.7, 39, 32, 40,  0,  0,  0,  0,  0,  0, 10,  0, 42,  0,  0,  0,  0,  0,  0,  0,  0,  0,  0, 43,  0,  0, 43,  0, 34,  0,  0, 40, 39
6, 16162, 6,KC9SZP,     0.00, 3,   boost,   52.47,  90192.00,  970.92,   -0.55,    4.83, 49.7, 4.08, 4.08, 4.08, -57.53,   0.11,  -2.29, -21.07,   1.41,   1.26,  -0.51,  -0.02,  -0.22,   3.26, 4.08, 0.00, 0.00, 0.00, 0.00, 1, 1, 15,  31.0470828,-103.5271395,   888.0, 2026,  6, 17, 23, 54,  7,        0,        0,   0,   0,   0.9,   0.5,   0.7, 39, 32, 40,  0,  0,  0,  0,  0,  0, 10,  0, 42,  0,  0,  0,  0,  0,  0,  0,  0,  0,  0, 43,  0,  0, 43,  0, 34,  0,  0, 40, 39
6, 16162, 6,KC9SZP,     0.00, 3,   boost,   52.47,  90192.00,  970.92,   -0.55,    4.83, 49.7, 4.08, 4.08, 4.08, -57.53,   0.11,  -2.29, -21.07,   1.41,   1.26,  -0.51,  -0.02,  -0.22,   3.27, 4.08, 0.00, 0.00, 0.00, 0.00, 1, 1, 15,  31.0470828,-103.5271395,   888.0, 2026,  6, 17, 23, 54,  7,        0,        0,   0,   0,   0.9,   0.5,   0.7, 39, 32, 40,  0,  0,  0,  0,  0,  0, 10,  0, 42,  0,  0,  0,  0,  0,  0,  0,  0,  0,  0, 43,  0,  0, 43,  0, 34,  0,  0, 40, 39
6, 16162, 6,KC9SZP,     0.00, 3,   boost,   52.47,  90192.00,  970.92,   -0.55,    4.83, 49.7, 4.08, 4.08, 4.08, -57.53,   0.11,  -2.29, -21.07,   1.41,   1.26,  -0.51,  -0.02,  -0.22,   3.27, 4.08, 0.00, 0.00, 0.00, 0.00, 1, 1, 15,  31.0470828,-103.5271395,   888.0, 2026,  6, 17, 23, 54,  7,        0,        0,   0,   0,   0.9,   0.5,   0.7, 39, 32, 40,  0,  0,  0,  0,  0,  0, 10,  0, 42,  0,  0,  0,  0,  0,  0,  0,  0,  0,  0, 43,  0,  0, 43,  0, 34,  0,  0, 40, 39
6, 16162, 6,KC9SZP,     0.00, 3,   boost,   52.47,  90192.00,  970.92,   -0.55,    4.83, 49.7, 4.08, 4.08, 4.08, -57.53,   0.11,  -2.29, -21.07,   1.41,   1.26,  -0.51,  -0.02,  -0.22,   3.27, 4.08, 0.00, 0.00, 0.00, 0.00, 1, 1, 15,  31.0470828,-103.5271395,   888.0, 2026,  6, 17, 23, 54,  7,        0,        0,   0,   0,   0.9,   0.5,   0.7, 39, 32, 40,  0,  0,  0,  0,  0,  0, 10,  0, 42,  0,  0,  0,  0,  0,  0,  0,  0,  0,  0, 43,  0,  0, 43,  0, 34,  0,  0, 40, 39
6, 16162, 6,KC9SZP,     0.00, 3,   boost,   52.47,  90192.00,  970.92,   -0.55,    4.83, 49.7, 4.08, 4.08, 4.08, -57.53,   0.11,  -2.29, -21.07,   1.41,   1.26,  -0.51,  -0.02,  -0.22,   3.27, 4.08, 0.00, 0.00, 0.00, 0.00, 1, 1, 15,  31.0470828,-103.5271395,   888.0, 2026,  6, 17, 23, 54,  7,        0,        0,   0,   0,   0.9,   0.5,   0.7, 39, 32, 40,  0,  0,  0,  0,  0,  0, 10,  0, 42,  0,  0,  0,  0,  0,  0,  0,  0,  0,  0, 43,  0,  0, 43,  0, 34,  0,  0, 40, 39
6, 16162, 6,KC9SZP,     0.00, 3,   boost,   52.47,  90192.00,  970.92,   -0.55,    4.83, 49.7, 4.08, 4.08, 4.08, -57.53,   0.11,  -2.29, -21.07,   1.41,   1.26,  -0.51,  -0.02,  -0.22,   3.29, 4.08, 0.00, 0.00, 0.00, 0.00, 1, 1, 15,  31.0470828,-103.5271395,   888.0, 2026,  6, 17, 23, 54,  7,        0,        0,   0,   0,   0.9,   0.5,   0.7, 39, 32, 40,  0,  0,  0,  0,  0,  0, 10,  0, 42,  0,  0,  0,  0,  0,  0,  0,  0,  0,  0, 43,  0,  0, 43,  0, 34,  0,  0, 40, 39
6, 16162, 6,KC9SZP,     0.00, 3,   boost,   52.47,  90192.00,  970.92,   -0.55,    4.83, 49.7, 4.08, 4.08, 4.08, -57.53,   0.11,  -2.29, -21.07,   1.41,   1.26,  -0.51,  -0.02,  -0.22,   3.35, 4.08, 0.00, 0.00, 0.00, 0.00, 1, 1, 15,  31.0470828,-103.5271395,   888.0, 2026,  6, 17, 23, 54,  7,        0,        0,   0,   0,   0.9,   0.5,   0.7, 39, 32, 40,  0,  0,  0,  0,  0,  0, 10,  0, 42,  0,  0,  0,  0,  0,  0,  0,  0,  0,  0, 43,  0,  0, 43,  0, 34,  0,  0, 40, 39
6, 16162, 6,KC9SZP,     0.00, 3,   boost,   52.47,  90192.00,  970.92,   -0.55,    4.83, 49.7, 4.08, 4.08, 4.08, -57.53,   0.11,  -2.29, -21.07,   1.41,   1.26,  -0.51,  -0.02,  -0.22,   3.40, 4.08, 0.00, 0.00, 0.00, 0.00, 1, 1, 15,  31.0470828,-103.5271395,   888.0, 2026,  6, 17, 23, 54,  7,        0,        0,   0,   0,   0.9,   0.5,   0.7, 39, 32, 40,  0,  0,  0,  0,  0,  0, 10,  0, 42,  0,  0,  0,  0,  0,  0,  0,  0,  0,  0, 43,  0,  0, 43,  0, 34,  0,  0, 40, 39
6, 16162, 6,KC9SZP,     0.00, 3,   boost,   52.47,  90192.00,  970.92,   -0.55,    4.83, 49.7, 4.08, 4.08, 4.08, -57.53,   0.11,  -2.29, -21.07,   1.41,   1.26,  -0.51,  -0.02,  -0.22,   3.41, 4.08, 0.00, 0.00, 0.00, 0.00, 1, 1, 15,  31.0470828,-103.5271395,   888.0, 2026,  6, 17, 23, 54,  7,        0,        0,   0,   0,   0.9,   0.5,   0.7, 39, 32, 40,  0,  0,  0,  0,  0,  0, 10,  0, 42,  0,  0,  0,  0,  0,  0,  0,  0,  0,  0, 43,  0,  0, 43,  0, 34,  0,  0, 40, 39
6, 16162, 6,KC9SZP,     0.00, 3,   boost,   52.47,  90192.00,  970.92,   -0.55,    4.83, 49.7, 4.08, 4.08, 4.08, -57.53,   0.11,  -2.29, -21.07,   1.41,   1.26,  -0.51,  -0.02,  -0.22,   3.42, 4.08, 0.00, 0.00, 0.00, 0.00, 1, 1, 15,  31.0470828,-103.5271395,   888.0, 2026,  6, 17, 23, 54,  7,        0,        0,   0,   0,   0.9,   0.5,   0.7, 39, 32, 40,  0,  0,  0,  0,  0,  0, 10,  0, 42,  0,  0,  0,  0,  0,  0,  0,  0,  0,  0, 43,  0,  0, 43,  0, 34,  0,  0, 40, 39
6, 16162, 6,KC9SZP,     0.00, 3,   boost,   52.47,  90192.00,  970.92,   -0.55,    4.83, 49.7, 4.08, 4.08, 4.08, -57.53,   0.11,  -2.29, -21.07,   1.41,   1.26,  -0.51,  -0.02,  -0.22,   3.42, 4.08, 0.00, 0.00, 0.00, 0.00, 1, 1, 15,  31.0470828,-103.5271395,   888.0, 2026,  6, 17, 23, 54,  7,        0,        0,   0,   0,   0.9,   0.5,   0.7, 39, 32, 40,  0,  0,  0,  0,  0,  0, 10,  0, 42,  0,  0,  0,  0,  0,  0,  0,  0,  0,  0, 43,  0,  0, 43,  0, 34,  0,  0, 40, 39
6, 16162, 6,KC9SZP,     0.00, 3,   boost,   52.47,  90192.00,  970.92,   -0.55,    4.83, 49.7, 4.08, 4.08, 4.08, -57.53,   0.11,  -2.29, -21.07,   1.41,   1.26,  -0.51,  -0.02,  -0.22,   3.44, 4.08, 0.00, 0.00, 0.00, 0.00, 1, 1, 15,  31.0470828,-103.5271395,   888.0, 2026,  6, 17, 23, 54,  7,        0,        0,   0,   0,   0.9,   0.5,   0.7, 39, 32, 40,  0,  0,  0,  0,  0,  0, 10,  0, 42,  0,  0,  0,  0,  0,  0,  0,  0,  0,  0, 43,  0,  0, 43,  0, 34,  0,  0, 40, 39
6, 16162, 6,KC9SZP,     0.00, 3,   boost,   52.47,  90192.00,  970.92,   -0.55,    4.83, 49.7, 4.08, 4.08, 4.08, -57.53,   0.11,  -2.29, -21.07,   1.41,   1.26,  -0.51,  -0.02,  -0.22,   3.42, 4.08, 0.00, 0.00, 0.00, 0.00, 1, 1, 15,  31.0470828,-103.5271395,   888.0, 2026,  6, 17, 23, 54,  7,        0,        0,   0,   0,   0.9,   0.5,   0.7, 39, 32, 40,  0,  0,  0,  0,  0,  0, 10,  0, 42,  0,  0,  0,  0,  0,  0,  0,  0,  0,  0, 43,  0,  0, 43,  0, 34,  0,  0, 40, 39
6, 16162, 6,KC9SZP,     0.00, 3,   boost,   52.47,  90192.00,  970.92,   -0.55,    4.83, 49.7, 4.08, 4.08, 4.08, -57.53,   0.11,  -2.29, -21.07,   1.41,   1.26,  -0.51,  -0.02,  -0.22,   3.42, 4.08, 0.00, 0.00, 0.00, 0.00, 1, 1, 15,  31.0470828,-103.5271395,   888.0, 2026,  6, 17, 23, 54,  7,        0,        0,   0,   0,   0.9,   0.5,   0.7, 39, 32, 40,  0,  0,  0,  0,  0,  0, 10,  0, 42,  0,  0,  0,  0,  0,  0,  0,  0,  0,  0, 43,  0,  0, 43,  0, 34,  0,  0, 40, 39
6, 16162, 6,KC9SZP,     0.00, 3,   boost,   52.47,  90192.00,  970.92,   -0.55,    4.83, 49.7, 4.08, 4.08, 4.08, -57.53,   0.11,  -2.29, -21.07,   1.41,   1.26,  -0.51,  -0.02,  -0.22,   3.42, 4.08, 0.00, 0.00, 0.00, 0.00, 1, 1, 15,  31.0470828,-103.5271395,   888.0, 2026,  6, 17, 23, 54,  7,        0,        0,   0,   0,   0.9,   0.5,   0.7, 39, 32, 40,  0,  0,  0,  0,  0,  0, 10,  0, 42,  0,  0,  0,  0,  0,  0,  0,  0,  0,  0, 43,  0,  0, 43,  0, 34,  0,  0, 40, 39
6, 16162, 6,KC9SZP,     0.00, 3,   boost,   52.47,  90192.00,  970.92,   -0.55,    4.83, 49.7, 4.08, 4.08, 4.08, -57.53,   0.11,  -2.29, -21.07,   1.41,   1.26,  -0.51,  -0.02,  -0.22,   3.41, 4.08, 0.00, 0.00, 0.00, 0.00, 1, 1, 15,  31.0470828,-103.5271395,   888.0, 2026,  6, 17, 23, 54,  7,        0,        0,   0,   0,   0.9,   0.5,   0.7, 39, 32, 40,  0,  0,  0,  0,  0,  0, 10,  0, 42,  0,  0,  0,  0,  0,  0,  0,  0,  0,  0, 43,  0,  0, 43,  0, 34,  0,  0, 40, 39
6, 16162, 6,KC9SZP,     0.01, 3,   boost,   52.47,  90192.00,  970.92,   -0.55,    5.35, 49.7, 4.08, 4.08, 4.08, -60.07,  -2.59,  -1.26, -30.54,   2.26,   1.13,  -0.51,  -0.02,  -0.22,   3.39, 4.08, 0.00, 0.00, 0.00, 0.00, 1, 1, 15,  31.0470828,-103.5271395,   888.0, 2026,  6, 17, 23, 54,  7,        0,        0,   0,   0,   0.9,   0.5,   0.7, 39, 32, 40,  0,  0,  0,  0,  0,  0, 10,  0, 42,  0,  0,  0,  0,  0,  0,  0,  0,  0,  0, 43,  0,  0, 43,  0, 34,  0,  0, 40, 39
6, 16162, 6,KC9SZP,     0.01, 3,   boost,   52.47,  90192.00,  970.92,   -0.55,    5.35, 49.7, 4.08, 4.08, 4.08, -60.07,  -2.59,  -1.26, -30.54,   2.26,   1.13,  -0.51,  -0.02,  -0.22,   3.39, 4.08, 0.00, 0.00, 0.00, 0.00, 1, 1, 15,  31.0470828,-103.5271395,   888.0, 2026,  6, 17, 23, 54,  7,        0,        0,   0,   0,   0.9,   0.5,   0.7, 39, 32, 40,  0,  0,  0,  0,  0,  0, 10,  0, 42,  0,  0,  0,  0,  0,  0,  0,  0,  0,  0, 43,  0,  0, 43,  0, 34,  0,  0, 40, 39
6, 16162, 6,KC9SZP,     0.02, 3,   boost,   54.92,  90191.00,  971.01,   -0.46,    5.88, 49.7, 4.08, 4.08, 4.07, -63.01,  -0.78,  -0.45, -30.90,   2.32,   0.03,  -0.50,  -0.01,  -0.22,   3.37, 4.06, 0.01, 0.00, 0.00, 0.00, 1, 1, 15,  31.0470828,-103.5271395,   888.0, 2026,  6, 17, 23, 54,  7,        0,        0,   0,   0,   0.9,   0.5,   0.7, 39, 32, 40,  0,  0,  0,  0,  0,  0, 10,  0, 42,  0,  0,  0,  0,  0,  0,  0,  0,  0,  0, 43,  0,  0, 43,  0, 34,  0,  0, 40, 39
6, 16162, 6,KC9SZP,     0.02, 3,   boost,   54.92,  90191.00,  971.01,   -0.46,    5.88, 49.7, 4.08, 4.08, 4.07, -63.01,  -0.78,  -0.45, -30.90,   2.32,   0.03,  -0.50,  -0.01,  -0.22,   3.37, 4.06, 0.01, 0.00, 0.00, 0.00, 1, 1, 15,  31.0470828,-103.5271395,   888.0, 2026,  6, 17, 23, 54,  7,        0,        0,   0,   0,   0.9,   0.5,   0.7, 39, 32, 40,  0,  0,  0,  0,  0,  0, 10,  0, 42,  0,  0,  0,  0,  0,  0,  0,  0,  0,  0, 43,  0,  0, 43,  0, 34,  0,  0, 40, 39
6, 16162, 6,KC9SZP,     0.03, 3,   boost,   56.39,  90191.00,  971.01,   -0.46,    6.42, 49.7, 4.08, 4.08, 4.07, -64.94,  -1.88,  -1.14, -35.17,   1.47,  -0.21,  -0.50,  -0.01,  -0.21,   3.36, 4.06, 0.01, 0.00, 0.00, 0.00, 1, 1, 15,  31.0470828,-103.5271395,   888.0, 2026,  6, 17, 23, 54,  7,        0,        0,   0,   0,   0.9,   0.5,   0.7, 39, 32, 40,  0,  0,  0,  0,  0,  0, 10,  0, 42,  0,  0,  0,  0,  0,  0,  0,  0,  0,  0, 43,  0,  0, 43,  0, 34,  0,  0, 40, 39
6, 16162, 6,KC9SZP,     0.04, 3,   boost,   54.43,  90185.00,  971.56,    0.09,    6.96, 49.7, 4.08, 4.08, 4.07, -65.59,  -1.84,  -2.93, -31.88,   0.98,  -0.39,  -0.50,  -0.01,  -0.21,   3.35, 4.06, 0.01, 0.00, 0.00, 0.00, 1, 1, 15,  31.0470828,-103.5271395,   888.0, 2026,  6, 17, 23, 54,  7,        0,        0,   0,   0,   0.9,   0.5,   0.7, 39, 32, 40,  0,  0,  0,  0,  0,  0, 10,  0, 42,  0,  0,  0,  0,  0,  0,  0,  0,  0,  0, 43,  0,  0, 43,  0, 34,  0,  0, 40, 39
6, 16162, 6,KC9SZP,     0.05, 3,   boost,   53.45,  90185.00,  971.56,    0.09,    7.51, 49.7, 4.08, 4.08, 4.07, -65.59,  -0.63,   0.34, -27.97,   3.18,  -1.49,  -0.50,  -0.01,  -0.21,   3.31, 4.06, 0.01, 0.00, 0.00, 0.00, 1, 1, 15,  31.0470828,-103.5271395,   888.0, 2026,  6, 17, 23, 54,  7,        0,        0,   0,   0,   0.9,   0.5,   0.7, 39, 32, 40,  0,  0,  0,  0,  0,  0, 10,  0, 42,  0,  0,  0,  0,  0,  0,  0,  0,  0,  0, 43,  0,  0, 43,  0, 34,  0,  0, 40, 39
6, 16162, 6,KC9SZP,     0.06, 3,   boost,   56.39,  90199.00,  970.28,   -1.19,    8.06, 49.7, 4.08, 4.08, 4.07, -65.29,  -1.90,  -0.96, -30.54,   0.62,  -0.88,  -0.51,  -0.01,  -0.21,   3.30, 4.06, 0.01, 0.00, 0.00, 0.00, 1, 1, 15,  31.0470828,-103.5271395,   888.0, 2026,  6, 17, 23, 54,  7,        0,        0,   0,   0,   0.9,   0.5,   0.7, 39, 32, 40,  0,  0,  0,  0,  0,  0, 10,  0, 42,  0,  0,  0,  0,  0,  0,  0,  0,  0,  0, 43,  0,  0, 43,  0, 34,  0,  0, 40, 39
6, 16162, 6,KC9SZP,     0.07, 3,   boost,   55.90,  90199.00,  970.28,   -1.19,    8.61, 49.7, 4.08, 4.08, 4.07, -65.53,  -1.15,  -0.46, -35.11,   1.78,  -0.03,  -0.51,  -0.01,  -0.21,   3.29, 4.06, 0.01, 0.00, 0.00, 0.00, 1, 1, 15,  31.0470828,-103.5271395,   888.0, 2026,  6, 17, 23, 54,  7,        0,        0,   0,   0,   0.9,   0.5,   0.7, 39, 32, 40,  0,  0,  0,  0,  0,  0, 10,  0, 42,  0,  0,  0,  0,  0,  0,  0,  0,  0,  0, 43,  0,  0, 43,  0, 34,  0,  0, 40, 39
6, 16162, 6,KC9SZP,     0.08, 3,   boost,   54.92,  90176.00,  972.39,    0.91,    9.16, 49.7, 4.08, 4.08, 4.07, -65.23,  -0.69,   0.17, -35.72,   1.10,   0.40,  -0.51,  -0.01,  -0.21,   3.28, 4.06, 0.01, 0.00, 0.00, 0.00, 1, 1, 15,  31.0470828,-103.5271395,   888.0, 2026,  6, 17, 23, 54,  7,        0,        0,   0,   0,   0.9,   0.5,   0.7, 39, 32, 40,  0,  0,  0,  0,  0,  0, 10,  0, 42,  0,  0,  0,  0,  0,  0,  0,  0,  0,  0, 43,  0,  0, 43,  0, 34,  0,  0, 40, 39
6, 16162, 6,KC9SZP,     0.09, 3,   boost,   53.45,  90176.00,  972.39,    0.91,    9.71, 49.7, 4.08, 4.08, 4.07, -64.74,  -1.34,   0.14, -34.93,   1.10,   0.58,  -0.51,  -0.00,  -0.21,   3.27, 4.06, 0.01, 0.00, 0.00, 0.00, 1, 1, 15,  31.0470828,-103.5271395,   888.0, 2026,  6, 17, 23, 54,  7,        0,        0,   0,   0,   0.9,   0.5,   0.7, 39, 32, 40,  0,  0,  0,  0,  0,  0, 10,  0, 42,  0,  0,  0,  0,  0,  0,  0,  0,  0,  0, 43,  0,  0, 43,  0, 34,  0,  0, 40, 39
6, 16162, 6,KC9SZP,     0.10, 3,   boost,   55.90,  90182.00,  971.84,    0.37,   10.25, 49.7, 4.08, 4.08, 4.07, -64.98,  -0.79,   0.45, -27.54,   0.98,   1.07,  -0.51,  -0.00,  -0.21,   3.26, 4.06, 0.01, 0.00, 0.00, 0.00, 1, 1, 15,  31.0470828,-103.5271395,   888.0, 2026,  6, 17, 23, 54,  7,        0,        0,   0,   0,   0.9,   0.5,   0.7, 39, 32, 40,  0,  0,  0,  0,  0,  0, 10,  0, 42,  0,  0,  0,  0,  0,  0,  0,  0,  0,  0, 43,  0,  0, 43,  0, 34,  0,  0, 40, 39
6, 16162, 6,KC9SZP,     0.11, 3,   boost,   51.98,  90182.00,  971.84,    0.37,   10.80, 49.7, 4.08, 4.08, 4.07, -64.57,  -1.98,   0.04, -23.27,   0.74,   1.62,  -0.51,  -0.00,  -0.21,   3.26, 4.06, 0.01, 0.00, 0.00, 0.00, 1, 1, 15,  31.0470828,-103.5271395,   888.0, 2026,  6, 17, 23, 54,  7,        0,        0,   0,   0,   0.9,   0.5,   0.7, 39, 32, 40,  0,  0,  0,  0,  0,  0, 10,  0, 42,  0,  0,  0,  0,  0,  0,  0,  0,  0,  0, 43,  0,  0, 43,  0, 34,  0,  0, 40, 39
6, 16162, 6,KC9SZP,     0.12, 3,   boost,   57.37,  90190.00,  971.11,   -0.37,   11.35, 49.7, 4.08, 4.08, 4.07, -64.74,  -1.05,   0.49, -16.86,  -0.12,   1.99,  -0.51,  -0.00,  -0.21,   3.27, 4.06, 0.01, 0.00, 0.00, 0.00, 1, 1, 15,  31.0470828,-103.5271395,   888.0, 2026,  6, 17, 23, 54,  7,        0,        0,   0,   0,   0.9,   0.5,   0.7, 39, 32, 40,  0,  0,  0,  0,  0,  0, 10,  0, 42,  0,  0,  0,  0,  0,  0,  0,  0,  0,  0, 43,  0,  0, 43,  0, 34,  0,  0, 40, 39
6, 16162, 6,KC9SZP,     0.13, 3,   boost,   53.94,  90190.00,  971.11,   -0.37,   11.90, 49.7, 4.08, 4.08, 4.07, -65.44,  -1.62,  -0.15, -11.00,  -0.18,   2.48,  -0.51,   0.00,  -0.21,   3.28, 4.06, 0.01, 0.00, 0.00, 0.00, 1, 1, 15,  31.0470828,-103.5271395,   888.0, 2026,  6, 17, 23, 54,  7,        0,        0,   0,   0,   0.9,   0.5,   0.7, 39, 32, 40,  0,  0,  0,  0,  0,  0, 10,  0, 42,  0,  0,  0,  0,  0,  0,  0,  0,  0,  0, 43,  0,  0, 43,  0, 34,  0,  0, 40, 39
6, 16162, 6,KC9SZP,     0.14, 3,   boost,   57.37,  90165.00,  973.39,    1.92,   12.46, 49.6, 4.08, 4.08, 4.07, -65.02,  -1.26,  -0.59,  -5.27,   0.19,   2.60,  -0.51,   0.00,  -0.21,   3.29, 4.06, 0.01, 0.00, 0.00, 0.00, 1, 1, 15,  31.0470828,-103.5271395,   888.0, 2026,  6, 17, 23, 54,  7,        0,        0,   0,   0,   0.9,   0.5,   0.7, 39, 32, 40,  0,  0,  0,  0,  0,  0, 10,  0, 42,  0,  0,  0,  0,  0,  0,  0,  0,  0,  0, 43,  0,  0, 43,  0, 34,  0,  0, 40, 39
6, 16162, 6,KC9SZP,     0.15, 3,   boost,   57.37,  90165.00,  973.39,    1.92,   13.03, 49.6, 4.08, 4.08, 4.07, -65.38,  -2.24,  -1.01,  -0.99,  -0.06,   2.84,  -0.50,   0.00,  -0.21,   3.30, 4.06, 0.01, 0.00, 0.00, 0.00, 1, 1, 15,  31.0470828,-103.5271395,   888.0, 2026,  6, 17, 23, 54,  7,        0,        0,   0,   0,   0.9,   0.5,   0.7, 39, 32, 40,  0,  0,  0,  0,  0,  0, 10,  0, 42,  0,  0,  0,  0,  0,  0,  0,  0,  0,  0, 43,  0,  0, 43,  0, 34,  0,  0, 40, 39
6, 16162, 6,KC9SZP,     0.16, 3,   boost,   58.84,  90166.00,  973.30,    1.83,   13.60, 49.7, 4.08, 4.08, 4.07, -66.23,  -0.65,  -2.41,   1.20,  -0.73,   2.66,  -0.50,   0.00,  -0.21,   3.32, 4.06, 0.01, 0.00, 0.00, 0.00, 1, 1, 15,  31.0470828,-103.5271395,   888.0, 2026,  6, 17, 23, 54,  7,        0,        0,   0,   0,   0.9,   0.5,   0.7, 39, 32, 40,  0,  0,  0,  0,  0,  0, 10,  0, 42,  0,  0,  0,  0,  0,  0,  0,  0,  0,  0, 43,  0,  0, 43,  0, 34,  0,  0, 40, 39
6, 16162, 6,KC9SZP,     0.17, 3,   boost,   57.86,  90166.00,  973.30,    1.83,   14.17, 49.7, 4.08, 4.08, 4.07, -66.39,  -3.20,  -2.44,   1.20,   1.16,   2.42,  -0.51,  -0.00,  -0.21,   3.32, 4.06, 0.01, 0.00, 0.00, 0.00, 1, 1, 15,  31.0470828,-103.5271395,   888.0, 2026,  6, 17, 23, 54,  7,        0,        0,   0,   0,   0.9,   0.5,   0.7, 39, 32, 40,  0,  0,  0,  0,  0,  0, 10,  0, 42,  0,  0,  0,  0,  0,  0,  0,  0,  0,  0, 43,  0,  0, 43,  0, 34,  0,  0, 40, 39
6, 16162, 6,KC9SZP,     0.18, 3,   boost,   52.47,  90161.00,  973.76,    2.29,   14.73, 49.6, 4.08, 4.08, 4.07, -65.87,  -0.90,  -0.58,   0.23,   1.65,   1.50,  -0.51,  -0.00,  -0.21,   3.31, 4.06, 0.01, 0.00, 0.00, 0.00, 1, 1, 15,  31.0470828,-103.5271395,   888.0, 2026,  6, 17, 23, 54,  7,        0,        0,   0,   0,   0.9,   0.5,   0.7, 39, 32, 40,  0,  0,  0,  0,  0,  0, 10,  0, 42,  0,  0,  0,  0,  0,  0,  0,  0,  0,  0, 43,  0,  0, 43,  0, 34,  0,  0, 40, 39
6, 16162, 6,KC9SZP,     0.19, 3,   boost,   58.84,  90161.00,  973.76,    2.29,   15.30, 49.6, 4.08, 4.08, 4.07, -66.24,  -2.03,  -1.44,  -1.18,   0.86,   1.38,  -0.51,  -0.00,  -0.21,   3.31, 4.06, 0.01, 0.00, 0.00, 0.00, 1, 1, 15,  31.0470828,-103.5271395,   888.0, 2026,  6, 17, 23, 54,  7,        0,        0,   0,   0,   0.9,   0.5,   0.7, 39, 32, 40,  0,  0,  0,  0,  0,  0, 10,  0, 42,  0,  0,  0,  0,  0,  0,  0,  0,  0,  0, 43,  0,  0, 43,  0, 34,  0,  0, 40, 39
6, 16162, 6,KC9SZP,     0.20, 3,   boost,   55.90,  90166.00,  973.30,    1.83,   15.86, 49.7, 4.08, 4.08, 4.07, -67.27,  -0.80,   1.32,   1.75,   1.41,   0.34,  -0.51,  -0.00,  -0.21,   3.30, 4.06, 0.01, 0.00, 0.00, 0.00, 1, 1, 15,  31.0470828,-103.5271395,   888.0, 2026,  6, 17, 23, 54,  7,        0,        0,   0,   0,   0.9,   0.5,   0.7, 39, 32, 40,  0,  0,  0,  0,  0,  0, 10,  0, 42,  0,  0,  0,  0,  0,  0,  0,  0,  0,  0, 43,  0,  0, 43,  0, 34,  0,  0, 40, 39
6, 16162, 6,KC9SZP,     0.21, 3,   boost,   57.86,  90166.00,  973.30,    1.83,   16.43, 49.7, 4.08, 4.08, 4.07, -66.35,  -2.25,  -0.73,   3.95,   0.19,   0.46,  -0.51,  -0.00,  -0.21,   3.30, 4.06, 0.01, 0.00, 0.00, 0.00, 1, 1, 15,  31.0470828,-103.5271395,   888.0, 2026,  6, 17, 23, 54,  7,        0,        0,   0,   0,   0.9,   0.5,   0.7, 39, 32, 40,  0,  0,  0,  0,  0,  0, 10,  0, 42,  0,  0,  0,  0,  0,  0,  0,  0,  0,  0, 43,  0,  0, 43,  0, 34,  0,  0, 40, 39
6, 16162, 6,KC9SZP,     0.22, 3,   boost,   54.43,  90161.00,  973.76,    2.29,   17.01, 49.6, 4.08, 4.08, 4.07, -67.44,   1.71,  10.42,  24.64,   7.27,   1.07,  -0.51,  -0.00,  -0.21,   3.24, 4.06, 0.01, 0.00, 0.00, 0.00, 1, 1, 15,  31.0470828,-103.5271395,   888.0, 2026,  6, 17, 23, 54,  7,        0,        0,   0,   0,   0.9,   0.5,   0.7, 39, 32, 40,  0,  0,  0,  0,  0,  0, 10,  0, 42,  0,  0,  0,  0,  0,  0,  0,  0,  0,  0, 43,  0,  0, 43,  0, 34,  0,  0, 40, 39
6, 16162, 6,KC9SZP,     0.23, 3,   boost,   60.80,  90161.00,  973.76,    2.29,   17.59, 49.6, 4.08, 4.08, 4.07, -66.18,  -4.05, -12.25,  40.63, -15.93,   2.29,  -0.51,  -0.00,  -0.21,   3.39, 4.06, 0.01, 0.00, 0.00, 0.00, 1, 1, 15,  31.0470828,-103.5271395,   888.0, 2026,  6, 17, 23, 54,  7,        0,        0,   0,   0,   0.9,   0.5,   0.7, 39, 32, 40,  0,  0,  0,  0,  0,  0, 10,  0, 42,  0,  0,  0,  0,  0,  0,  0,  0,  0,  0, 43,  0,  0, 43,  0, 34,  0,  0, 40, 39
6, 16162, 6,KC9SZP,     0.24, 3,   boost,   59.33,  90145.00,  975.22,    3.75,   18.17, 49.6, 4.08, 4.08, 4.07, -69.44,  -0.98,  11.42,  46.80,  13.13,   4.19,  -0.50,  -0.01,  -0.21,   3.29, 4.06, 0.01, 0.00, 0.00, 0.00, 1, 1, 15,  31.0470828,-103.5271395,   888.0, 2026,  6, 17, 23, 54,  7,        0,        0,   0,   0,   0.9,   0.5,   0.7, 39, 32, 40,  0,  0,  0,  0,  0,  0, 10,  0, 42,  0,  0,  0,  0,  0,  0,  0,  0,  0,  0, 43,  0,  0, 43,  0, 34,  0,  0, 40, 39
6, 16162, 6,KC9SZP,     0.25, 3,   boost,   61.78,  90145.00,  975.22,    3.75,   18.77, 49.6, 4.08, 4.08, 4.07, -67.55,   0.62,  -3.97,  68.10, -12.51,   3.76,  -0.50,  -0.01,  -0.21,   3.42, 4.06, 0.01, 0.00, 0.00, 0.00, 1, 1, 15,  31.0470828,-103.5271395,   888.0, 2026,  6, 17, 23, 54,  7,        0,        0,   0,   0,   0.9,   0.5,   0.7, 39, 32, 40,  0,  0,  0,  0,  0,  0, 10,  0, 42,  0,  0,  0,  0,  0,  0,  0,  0,  0,  0, 43,  0,  0, 43,  0, 34,  0,  0, 40, 39
6, 16162, 6,KC9SZP,     0.26, 3,   boost,   58.35,  90152.00,  974.58,    3.11,   19.36, 49.7, 4.08, 4.08, 4.07, -69.31,   0.06,   3.60,  66.33,   6.47,   1.99,  -0.50,  -0.01,  -0.21,   3.37, 4.06, 0.01, 0.00, 0.00, 0.00, 1, 1, 15,  31.0470828,-103.5271395,   888.0, 2026,  6, 17, 23, 54,  7,        0,        0,   0,   0,   0.9,   0.5,   0.7, 39, 32, 40,  0,  0,  0,  0,  0,  0, 10,  0, 42,  0,  0,  0,  0,  0,  0,  0,  0,  0,  0, 43,  0,  0, 43,  0, 34,  0,  0, 40, 39
6, 16162, 6,KC9SZP,     0.27, 3,   boost,   59.33,  90152.00,  974.58,    3.11,   19.95, 49.7, 4.08, 4.08, 4.07, -68.17,  -2.08,  -5.69,  69.14,  -6.10,   2.54,  -0.51,  -0.01,  -0.22,   3.43, 4.06, 0.01, 0.00, 0.00, 0.00, 1, 1, 15,  31.0470828,-103.5271395,   888.0, 2026,  6, 17, 23, 54,  7,        0,        0,   0,   0,   0.9,   0.5,   0.7, 39, 32, 40,  0,  0,  0,  0,  0,  0, 10,  0, 42,  0,  0,  0,  0,  0,  0,  0,  0,  0,  0, 43,  0,  0, 43,  0, 34,  0,  0, 40, 39
6, 16162, 6,KC9SZP,     0.28, 3,   boost,   57.86,  90160.00,  973.85,    2.38,   20.54, 49.6, 4.08, 4.08, 4.07, -68.39,  -0.93,   0.91,  60.96,   2.63,   3.82,  -0.51,  -0.01,  -0.22,   3.42, 4.06, 0.01, 0.00, 0.00, 0.00, 1, 1, 15,  31.0470828,-103.5271395,   888.0, 2026,  6, 17, 23, 54,  7,        0,        0,   0,   0,   0.9,   0.5,   0.7, 39, 32, 40,  0,  0,  0,  0,  0,  0, 10,  0, 42,  0,  0,  0,  0,  0,  0,  0,  0,  0,  0, 43,  0,  0, 43,  0, 34,  0,  0, 40, 39
6, 16162, 6,KC9SZP,     0.29, 3,   boost,   58.84,  90160.00,  973.85,    2.38,   21.12, 49.6, 4.08, 4.08, 4.07, -68.93,  -0.89,   2.95,  59.19,   2.20,   4.37,  -0.50,  -0.01,  -0.22,   3.42, 4.06, 0.01, 0.00, 0.00, 0.00, 1, 1, 15,  31.0470828,-103.5271395,   888.0, 2026,  6, 17, 23, 54,  7,        0,        0,   0,   0,   0.9,   0.5,   0.7, 39, 32, 40,  0,  0,  0,  0,  0,  0, 10,  0, 42,  0,  0,  0,  0,  0,  0,  0,  0,  0,  0, 43,  0,  0, 43,  0, 34,  0,  0, 40, 39
6, 16162, 6,KC9SZP,     0.30, 3,   boost,   57.86,  90149.00,  974.86,    3.39,   21.70, 49.7, 4.08, 4.08, 4.07, -68.52,   0.85,  -1.82,  61.08,   2.75,   3.21,  -0.50,  -0.02,  -0.22,   3.41, 4.06, 0.01, 0.00, 0.00, 0.00, 1, 1, 15,  31.0470828,-103.5271395,   888.0, 2026,  6, 17, 23, 54,  7,        0,        0,   0,   0,   0.9,   0.5,   0.7, 39, 32, 40,  0,  0,  0,  0,  0,  0, 10,  0, 42,  0,  0,  0,  0,  0,  0,  0,  0,  0,  0, 43,  0,  0, 43,  0, 34,  0,  0, 40, 39
6, 16162, 6,KC9SZP,     0.31, 3,   boost,   58.35,  90149.00,  974.86,    3.39,   22.28, 49.7, 4.08, 4.08, 4.07, -68.25,  -2.93,  -1.83,  66.45,   1.47,   2.42,  -0.51,  -0.02,  -0.22,   3.41, 4.06, 0.01, 0.00, 0.00, 0.00, 1, 1, 15,  31.0470828,-103.5271395,   888.0, 2026,  6, 17, 23, 54,  7,        0,        0,   0,   0,   0.9,   0.5,   0.7, 39, 32, 40,  0,  0,  0,  0,  0,  0, 10,  0, 42,  0,  0,  0,  0,  0,  0,  0,  0,  0,  0, 43,  0,  0, 43,  0, 34,  0,  0, 40, 39
6, 16162, 6,KC9SZP,     0.32, 3,   boost,   57.86,  90156.00,  974.22,    2.74,   22.86, 49.7, 4.08, 4.08, 4.07, -68.60,   1.44,   1.82,  63.34,   3.85,   2.17,  -0.51,  -0.02,  -0.22,   3.38, 4.06, 0.01, 0.00, 0.00, 0.00, 1, 1, 15,  31.0470828,-103.5271395,   888.0, 2026,  6, 17, 23, 54,  7,        0,        0,   0,   0,   0.9,   0.5,   0.7, 39, 32, 40,  0,  0,  0,  0,  0,  0, 10,  0, 42,  0,  0,  0,  0,  0,  0,  0,  0,  0,  0, 43,  0,  0, 43,  0, 34,  0,  0, 40, 39
6, 16162, 6,KC9SZP,     0.33, 3,   boost,   55.90,  90156.00,  974.22,    2.74,   23.44, 49.7, 4.08, 4.08, 4.07, -68.41,  -1.63,  -0.93,  70.91,   0.13,   1.44,  -0.51,  -0.02,  -0.22,   3.39, 4.06, 0.01, 0.00, 0.00, 0.00, 1, 1, 15,  31.0470828,-103.5271395,   888.0, 2026,  6, 17, 23, 54,  7,        0,        0,   0,   0,   0.9,   0.5,   0.7, 39, 32, 40,  0,  0,  0,  0,  0,  0, 10,  0, 42,  0,  0,  0,  0,  0,  0,  0,  0,  0,  0, 43,  0,  0, 43,  0, 34,  0,  0, 40, 39
6, 16162, 6,KC9SZP,     0.34, 3,   boost,   57.86,  90153.00,  974.49,    3.02,   24.03, 49.6, 4.08, 4.08, 4.07, -67.87,   0.50,  -0.21,  64.68,   1.90,   0.95,  -0.51,  -0.03,  -0.22,   3.37, 4.09, 0.01, 0.00, 0.00, 0.53, 1, 1, 15,  31.0470828,-103.5271395,   888.0, 2026,  6, 17, 23, 54,  7,        0,        0,   0,   0,   0.9,   0.5,   0.7, 39, 32, 40,  0,  0,  0,  0,  0,  0, 10,  0, 42,  0,  0,  0,  0,  0,  0,  0,  0,  0,  0, 43,  0,  0, 43,  0, 34,  0,  0, 40, 39
6, 16162, 6,KC9SZP,     0.34, 3,   boost,   57.86,  90153.00,  974.49,    3.02,   24.03, 49.6, 4.08, 4.08, 4.07, -67.87,   0.50,  -0.21,  64.68,   1.90,   0.95,  -0.51,  -0.03,  -0.22,   3.37, 4.09, 0.01, 0.00, 0.00, 0.53, 1, 1, 15,  31.0470828,-103.5271395,   888.0, 2026,  6, 17, 23, 54,  7,        0,        0,   0,   0,   0.9,   0.5,   0.7, 39, 32, 40,  0,  0,  0,  0,  0,  0, 10,  0, 42,  0,  0,  0,  0,  0,  0,  0,  0,  0,  0, 43,  0,  0, 43,  0, 34,  0,  0, 40, 39
6, 16162, 6,KC9SZP,     0.35, 3,   boost,   60.31,  90153.00,  974.49,    3.02,   24.63, 49.6, 4.08, 4.08, 4.07, -68.56,  -1.19,  -3.30,  64.62,  -2.38,   0.95,  -0.50,  -0.03,  -0.22,   3.40, 4.09, 0.01, 0.00, 0.00, 0.53, 1, 1, 15,  31.0470828,-103.5271395,   888.0, 2026,  6, 17, 23, 54,  7,        0,        0,   0,   0,   0.9,   0.5,   0.7, 39, 32, 40,  0,  0,  0,  0,  0,  0, 10,  0, 42,  0,  0,  0,  0,  0,  0,  0,  0,  0,  0, 43,  0,  0, 43,  0, 34,  0,  0, 40, 39
6, 16162, 6,KC9SZP,     0.36, 3,   boost,   66.69,  90144.00,  975.31,    3.84,   25.23, 49.6, 4.08, 4.08, 4.07, -70.74,   1.03,   2.08,  60.96,   4.95,   0.46,  -0.50,  -0.03,  -0.22,   3.35, 4.09, 0.01, 0.00, 0.00, 0.53, 1, 1, 15,  31.0470828,-103.5271395,   888.0, 2026,  6, 17, 23, 54,  7,        0,        0,   0,   0,   0.9,   0.5,   0.7, 39, 32, 40,  0,  0,  0,  0,  0,  0, 10,  0, 42,  0,  0,  0,  0,  0,  0,  0,  0,  0,  0, 43,  0,  0, 43,  0, 34,  0,  0, 40, 39
6, 16162, 6,KC9SZP,     0.37, 3,   boost,   60.31,  90144.00,  975.31,    3.84,   25.85, 49.6, 4.08, 4.08, 4.07, -70.20,  -0.89,  -1.70,  62.18,   0.86,   0.40,  -0.50,  -0.03,  -0.23,   3.35, 4.09, 0.01, 0.00, 0.00, 0.53, 1, 1, 15,  31.0470828,-103.5271395,   888.0, 2026,  6, 17, 23, 54,  7,        0,        0,   0,   0,   0.9,   0.5,   0.7, 39, 32, 40,  0,  0,  0,  0,  0,  0, 10,  0, 42,  0,  0,  0,  0,  0,  0,  0,  0,  0,  0, 43,  0,  0, 43,  0, 34,  0,  0, 40, 39
6, 16162, 6,KC9SZP,     0.38, 3,   boost,   62.76,  90145.00,  975.22,    3.75,   26.47, 49.7, 4.08, 4.08, 4.07, -70.54,  -0.27,  -1.66,  63.46,   2.87,   1.01,  -0.51,  -0.04,  -0.23,   3.32, 4.09, 0.01, 0.00, 0.00, 0.53, 1, 1, 15,  31.0470828,-103.5271395,   888.0, 2026,  6, 17, 23, 54,  7,        0,        0,   0,   0,   0.9,   0.5,   0.7, 39, 32, 40,  0,  0,  0,  0,  0,  0, 10,  0, 42,  0,  0,  0,  0,  0,  0,  0,  0,  0,  0, 43,  0,  0, 43,  0, 34,  0,  0, 40, 39
6, 16162, 6,KC9SZP,     0.39, 3,   boost,   61.78,  90145.00,  975.22,    3.75,   27.09, 49.7, 4.08, 4.08, 4.07, -70.90,  -0.22,  -1.30,  65.17,   2.51,   1.44,  -0.51,  -0.04,  -0.23,   3.31, 4.09, 0.01, 0.00, 0.00, 0.53, 1, 1, 15,  31.0470828,-103.5271395,   888.0, 2026,  6, 17, 23, 54,  7,        0,        0,   0,   0,   0.9,   0.5,   0.7, 39, 32, 40,  0,  0,  0,  0,  0,  0, 10,  0, 42,  0,  0,  0,  0,  0,  0,  0,  0,  0,  0, 43,  0,  0, 43,  0, 34,  0,  0, 40, 39
6, 16162, 6,KC9SZP,     0.40, 3,   boost,   60.80,  90136.00,  976.05,    4.57,   27.71, 49.6, 4.08, 4.08, 4.07, -71.22,   0.22,   0.05,  66.08,   4.09,   1.50,  -0.50,  -0.04,  -0.23,   3.27, 4.09, 0.01, 0.00, 0.00, 0.53, 1, 1, 15,  31.0470828,-103.5271395,   888.0, 2026,  6, 17, 23, 54,  7,        0,        0,   0,   0,   0.9,   0.5,   0.7, 39, 32, 40,  0,  0,  0,  0,  0,  0, 10,  0, 42,  0,  0,  0,  0,  0,  0,  0,  0,  0,  0, 43,  0,  0, 43,  0, 34,  0,  0, 40, 39
6, 16162, 6,KC9SZP,     0.41, 3,   boost,   62.76,  90136.00,  976.05,    4.57,   28.32, 49.6, 4.08, 4.08, 4.07, -71.09,  -0.19,  -1.80,  65.84,   3.12,   1.07,  -0.50,  -0.04,  -0.23,   3.25, 4.09, 0.01, 0.00, 0.00, 0.53, 1, 1, 15,  31.0470828,-103.5271395,   888.0, 2026,  6, 17, 23, 54,  7,        0,        0,   0,   0,   0.9,   0.5,   0.7, 39, 32, 40,  0,  0,  0,  0,  0,  0, 10,  0, 42,  0,  0,  0,  0,  0,  0,  0,  0,  0,  0, 43,  0,  0, 43,  0, 34,  0,  0, 40, 39
6, 16162, 6,KC9SZP,     0.42, 3,   boost,   62.27,  90127.00,  976.87,    5.40,   28.94, 49.7, 4.08, 4.08, 4.07, -71.57,  -0.32,  -1.70,  64.56,   4.16,   1.50,  -0.51,  -0.05,  -0.23,   3.21, 4.09, 0.01, 0.00, 0.00, 0.53, 1, 1, 15,  31.0470828,-103.5271395,   888.0, 2026,  6, 17, 23, 54,  7,        0,        0,   0,   0,   0.9,   0.5,   0.7, 39, 32, 40,  0,  0,  0,  0,  0,  0, 10,  0, 42,  0,  0,  0,  0,  0,  0,  0,  0,  0,  0, 43,  0,  0, 43,  0, 34,  0,  0, 40, 39
6, 16162, 6,KC9SZP,     0.43, 3,   boost,   60.31,  90127.00,  976.87,    5.40,   29.56, 49.7, 4.08, 4.08, 4.07, -71.51,   0.24,  -1.24,  65.23,   3.79,   1.19,  -0.51,  -0.05,  -0.23,   3.18, 4.09, 0.01, 0.00, 0.00, 0.53, 1, 1, 15,  31.0470828,-103.5271395,   888.0, 2026,  6, 17, 23, 54,  7,        0,        0,   0,   0,   0.9,   0.5,   0.7, 39, 32, 40,  0,  0,  0,  0,  0,  0, 10,  0, 42,  0,  0,  0,  0,  0,  0,  0,  0,  0,  0, 43,  0,  0, 43,  0, 34,  0,  0, 40, 39
6, 16162, 6,KC9SZP,     0.44, 3,   boost,   62.27,  90118.00,  977.69,    6.22,   30.18, 49.7, 4.08, 4.08, 4.07, -72.17,  -0.13,   0.08,  64.50,   5.25,   1.32,  -0.51,  -0.05,  -0.23,   3.14, 4.09, 0.01, 0.00, 0.00, 0.53, 1, 1, 15,  31.0470828,-103.5271395,   888.0, 2026,  6, 17, 23, 54,  7,        0,        0,   0,   0,   0.9,   0.5,   0.7, 39, 32, 40,  0,  0,  0,  0,  0,  0, 10,  0, 42,  0,  0,  0,  0,  0,  0,  0,  0,  0,  0, 43,  0,  0, 43,  0, 34,  0,  0, 40, 39
6, 16162, 6,KC9SZP,     0.44, 3,   boost,   62.27,  90118.00,  977.69,    6.22,   30.18, 49.7, 4.08, 4.08, 4.07, -72.17,  -0.13,   0.08,  64.50,   5.25,   1.32,  -0.51,  -0.05,  -0.23,   3.14, 4.09, 0.01, 0.00, 0.00, 0.53, 1, 1, 15,  31.0470828,-103.5271395,   888.0, 2026,  6, 17, 23, 54,  7,        0,        0,   0,   0,   0.9,   0.5,   0.7, 39, 32, 40,  0,  0,  0,  0,  0,  0, 10,  0, 42,  0,  0,  0,  0,  0,  0,  0,  0,  0,  0, 43,  0,  0, 43,  0, 34,  0,  0, 40, 39
6, 16162, 6,KC9SZP,     0.44, 3,   boost,   62.27,  90118.00,  977.69,    6.22,   30.18, 49.7, 4.08, 4.08, 4.07, -72.17,  -0.13,   0.08,  64.50,   5.25,   1.32,  -0.51,  -0.05,  -0.23,   3.14, 4.09, 0.01, 0.00, 0.00, 0.53, 1, 1, 15,  31.0470828,-103.5271395,   888.0, 2026,  6, 17, 23, 54,  7,        0,        0,   0,   0,   0.9,   0.5,   0.7, 39, 32, 40,  0,  0,  0,  0,  0,  0, 10,  0, 42,  0,  0,  0,  0,  0,  0,  0,  0,  0,  0, 43,  0,  0, 43,  0, 34,  0,  0, 40, 39
6, 16162, 6,KC9SZP,     0.45, 3,   boost,   63.74,  90118.00,  977.69,    6.22,   30.81, 49.7, 4.08, 4.08, 4.07, -72.12,   0.35,  -3.16,  63.70,   4.40,   1.13,  -0.51,  -0.06,  -0.23,   3.10, 4.09, 0.01, 0.00, 0.00, 0.53, 1, 1, 15,  31.0470893,-103.5271424,   900.0, 2026,  6, 17, 23, 54,  8,        1,       12, 339,  86,   1.0,   0.5,   0.8, 36, 33, 36,  0,  0,  0,  0,  0,  0, 16,  0, 36,  0,  0,  0,  0,  0,  0,  0,  0,  0,  0, 39,  0, 16, 39,  0, 25,  0,  0, 36, 32
6, 16162, 6,KC9SZP,     0.46, 3,   boost,   64.23,  90117.00,  977.79,    6.31,   31.44, 49.6, 4.08, 4.08, 4.07, -72.27,  -0.27,   0.11,  63.03,   5.44,   0.65,  -0.51,  -0.06,  -0.23,   3.05, 4.09, 0.01, 0.00, 0.00, 0.53, 1, 1, 15,  31.0470893,-103.5271424,   900.0, 2026,  6, 17, 23, 54,  8,        1,       12, 339,  86,   1.0,   0.5,   0.8, 36, 33, 36,  0,  0,  0,  0,  0,  0, 16,  0, 36,  0,  0,  0,  0,  0,  0,  0,  0,  0,  0, 39,  0, 16, 39,  0, 25,  0,  0, 36, 32
6, 16162, 6,KC9SZP,     0.47, 3,   boost,   63.25,  90117.00,  977.79,    6.31,   32.08, 49.6, 4.08, 4.08, 4.07, -72.30,   0.29,  -1.12,  62.79,   6.29,   0.28,  -0.51,  -0.06,  -0.23,   3.00, 4.09, 0.01, 0.00, 0.00, 0.53, 1, 1, 15,  31.0470893,-103.5271424,   900.0, 2026,  6, 17, 23, 54,  8,        1,       12, 339,  86,   1.0,   0.5,   0.8, 36, 33, 36,  0,  0,  0,  0,  0,  0, 16,  0, 36,  0,  0,  0,  0,  0,  0,  0,  0,  0,  0, 39,  0, 16, 39,  0, 25,  0,  0, 36, 32
6, 16162, 6,KC9SZP,     0.48, 3,   boost,   62.76,  90112.00,  978.24,    6.77,   32.72, 49.6, 4.08, 4.08, 4.07, -72.39,  -0.01,  -1.22,  61.99,   6.54,  -0.09,  -0.50,  -0.06,  -0.23,   2.93, 4.09, 0.01, 0.00, 0.00, 0.53, 1, 1, 15,  31.0470893,-103.5271424,   900.0, 2026,  6, 17, 23, 54,  8,        1,       12, 339,  86,   1.0,   0.5,   0.8, 36, 33, 36,  0,  0,  0,  0,  0,  0, 16,  0, 36,  0,  0,  0,  0,  0,  0,  0,  0,  0,  0, 39,  0, 16, 39,  0, 25,  0,  0, 36, 32
6, 16162, 6,KC9SZP,     0.49, 3,   boost,   68.65,  90112.00,  978.24,    6.77,   33.36, 49.6, 4.08, 4.08, 4.07, -72.66,   0.14,  -1.66,  61.87,   6.78,  -0.39,  -0.51,  -0.07,  -0.23,   2.87, 4.09, 0.01, 0.00, 0.00, 0.53, 1, 1, 15,  31.0470893,-103.5271424,   900.0, 2026,  6, 17, 23, 54,  8,        1,       12, 339,  86,   1.0,   0.5,   0.8, 36, 33, 36,  0,  0,  0,  0,  0,  0, 16,  0, 36,  0,  0,  0,  0,  0,  0,  0,  0,  0,  0, 39,  0, 16, 39,  0, 25,  0,  0, 36, 32
6, 16162, 6,KC9SZP,     0.50, 3,   boost,   64.23,  90104.00,  978.98,    7.50,   34.01, 49.7, 4.08, 4.08, 4.07, -72.76,   0.15,  -1.18,  61.87,   5.62,  -0.76,  -0.51,  -0.07,  -0.23,   2.81, 4.09, 0.01, 0.00, 0.00, 0.53, 1, 1, 15,  31.0470893,-103.5271424,   900.0, 2026,  6, 17, 23, 54,  8,        1,       12, 339,  86,   1.0,   0.5,   0.8, 36, 33, 36,  0,  0,  0,  0,  0,  0, 16,  0, 36,  0,  0,  0,  0,  0,  0,  0,  0,  0,  0, 39,  0, 16, 39,  0, 25,  0,  0, 36, 32
6, 16162, 6,KC9SZP,     0.51, 3,   boost,   64.23,  90104.00,  978.98,    7.50,   34.65, 49.7, 4.08, 4.08, 4.07, -73.40,  -0.05,  -0.50,  62.91,   7.33,  -0.94,  -0.51,  -0.07,  -0.23,   2.74, 4.09, 0.01, 0.00, 0.00, 0.53, 1, 1, 15,  31.0470893,-103.5271424,   900.0, 2026,  6, 17, 23, 54,  8,        1,       12, 339,  86,   1.0,   0.5,   0.8, 36, 33, 36,  0,  0,  0,  0,  0,  0, 16,  0, 36,  0,  0,  0,  0,  0,  0,  0,  0,  0,  0, 39,  0, 16, 39,  0, 25,  0,  0, 36, 32
6, 16162, 6,KC9SZP,     0.52, 3,   boost,   61.78,  90088.00,  980.44,    8.97,   35.29, 49.7, 4.08, 4.08, 4.07, -73.05,   0.18,  -2.93,  65.53,   7.33,  -1.86,  -0.51,  -0.07,  -0.23,   2.67, 4.09, 0.01, 0.00, 0.00, 0.53, 1, 1, 15,  31.0470893,-103.5271424,   900.0, 2026,  6, 17, 23, 54,  8,        1,       12, 339,  86,   1.0,   0.5,   0.8, 36, 33, 36,  0,  0,  0,  0,  0,  0, 16,  0, 36,  0,  0,  0,  0,  0,  0,  0,  0,  0,  0, 39,  0, 16, 39,  0, 25,  0,  0, 36, 32
6, 16162, 6,KC9SZP,     0.53, 3,   boost,   63.25,  90088.00,  980.44,    8.97,   35.92, 49.7, 4.08, 4.08, 4.07, -73.01,  -0.22,  -0.68,  68.95,   7.76,  -2.35,  -0.51,  -0.08,  -0.23,   2.58, 4.09, 0.01, 0.00, 0.00, 0.53, 1, 1, 15,  31.0470893,-103.5271424,   900.0, 2026,  6, 17, 23, 54,  8,        1,       12, 339,  86,   1.0,   0.5,   0.8, 36, 33, 36,  0,  0,  0,  0,  0,  0, 16,  0, 36,  0,  0,  0,  0,  0,  0,  0,  0,  0,  0, 39,  0, 16, 39,  0, 25,  0,  0, 36, 32
