#version,serial,flight,call,time,state,state_name,acceleration,pressure,altitude,height,speed,temperature,drogue_voltage,main_voltage,battery_voltage,accel_x,accel_y,accel_z,gyro_roll,gyro_pitch,gyro_yaw,mag_x,mag_y,mag_z,tilt,pyro,igniter_a,igniter_b,igniter_c,igniter_d,connected,locked,nsat,latitude,longitude,altitude,year,month,day,hour,minute,second,pad_dist,pad_range,pad_az,pad_el,pdop,hdop,vdop,sat01,sat02,sat03,sat04,sat05,sat06,sat07,sat08,sat09,sat10,sat11,sat12,sat13,sat14,sat15,sat16,sat17,sat18,sat19,sat20,sat21,sat22,sat23,sat24,sat25,sat26,sat27,sat28,sat29,sat30,sat31,sat32
6, 11115, 8,KC9SZP,    -0.30, 3,   boost,    1.47,  99274.00,  172.15,   -0.08,    0.01, 40.8, 0.00, 3.94, 3.96,   9.84,  -0.07,  -0.43,  -0.13,   0.12,   0.07,   0.12,  -0.54,  -0.12,   2.45, 3.97, 3.95, 0.00, 0.00, 0.00, 1, 1,  9,  41.4881751, -89.4985691,   237.0, 2026,  5, 24, 19, 20, 19,        0,        1,  34, -75,   1.7,   1.0,   1.4,  0,  0,  0,  0, 22,  0,  0,  0,  0,  0, 22,  0,  0,  0, 28, 32,  0, 30,  0, 18, 24,  0, 27,  0, 23, 22,  0,  0, 21,  0,  0,  0
6, 11115, 8,KC9SZP,    -0.29, 3,   boost,    1.47,  99274.00,  172.15,   -0.08,    0.01, 40.8, 0.00, 3.94, 3.96,   9.82,  -0.05,  -0.45,  -0.01,   0.06,  -0.06,   0.11,  -0.54,  -0.12,   2.45, 3.97, 3.95, 0.00, 0.00, 0.00, 1, 1,  9,  41.4881751, -89.4985691,   237.0, 2026,  5, 24, 19, 20, 19,        0,        1,  34, -75,   1.7,   1.0,   1.4,  0,  0,  0,  0, 22,  0,  0,  0,  0,  0, 22,  0,  0,  0, 28, 32,  0, 30,  0, 18, 24,  0, 27,  0, 23, 22,  0,  0, 21,  0,  0,  0
6, 11115, 8,KC9SZP,    -0.28, 3,   boost,   -0.49,  99281.00,  171.55,   -0.68,    0.02, 40.8, 0.00, 3.94, 3.96,   9.83,  -0.04,  -0.42,  -0.01,   0.06,   0.13,   0.11,  -0.54,  -0.12,   2.45, 3.97, 3.95, 0.00, 0.00, 0.00, 1, 1,  9,  41.4881751, -89.4985691,   237.0, 2026,  5, 24, 19, 20, 19,        0,        1,  34, -75,   1.7,   1.0,   1.4,  0,  0,  0,  0, 22,  0,  0,  0,  0,  0, 22,  0,  0,  0, 28, 32,  0, 30,  0, 18, 24,  0, 27,  0, 23, 22,  0,  0, 21,  0,  0,  0
6, 11115, 8,KC9SZP,    -0.27, 3,   boost,   -0.00,  99281.00,  171.55,   -0.68,    0.02, 40.8, 0.00, 3.94, 3.96,   9.83,  -0.06,  -0.49,  -0.07,  -0.12,  -0.06,   0.12,  -0.54,  -0.12,   2.45, 3.97, 3.95, 0.00, 0.00, 0.00, 1, 1,  9,  41.4881751, -89.4985691,   237.0, 2026,  5, 24, 19, 20, 19,        0,        1,  34, -75,   1.7,   1.0,   1.4,  0,  0,  0,  0, 22,  0,  0,  0,  0,  0, 22,  0,  0,  0, 28, 32,  0, 30,  0, 18, 24,  0, 27,  0, 23, 22,  0,  0, 21,  0,  0,  0
6, 11115, 8,KC9SZP,    -0.26, 3,   boost,    1.47,  99268.00,  172.65,    0.42,    0.03, 40.8, 0.00, 3.94, 3.96,   9.79,  -0.01,  -0.44,  -0.01,   0.00,  -0.06,   0.12,  -0.54,  -0.12,   2.45, 3.97, 3.95, 0.00, 0.00, 0.00, 1, 1,  9,  41.4881751, -89.4985691,   237.0, 2026,  5, 24, 19, 20, 19,        0,        1,  34, -75,   1.7,   1.0,   1.4,  0,  0,  0,  0, 22,  0,  0,  0,  0,  0, 22,  0,  0,  0, 28, 32,  0, 30,  0, 18, 24,  0, 27,  0, 23, 22,  0,  0, 21,  0,  0,  0
6, 11115, 8,KC9SZP,    -0.25, 3,   boost,   -0.00,  99268.00,  172.65,    0.42,    0.03, 40.8, 0.00, 3.94, 3.96,   9.85,  -0.04,  -0.43,   0.11,   0.12,   0.25,   0.11,  -0.54,  -0.12,   2.45, 3.97, 3.95, 0.00, 0.00, 0.00, 1, 1,  9,  41.4881751, -89.4985691,   237.0, 2026,  5, 24, 19, 20, 19,        0,        1,  34, -75,   1.7,   1.0,   1.4,  0,  0,  0,  0, 22,  0,  0,  0,  0,  0, 22,  0,  0,  0, 28, 32,  0, 30,  0, 18, 24,  0, 27,  0, 23, 22,  0,  0, 21,  0,  0,  0
6, 11115, 8,KC9SZP,    -0.24, 3,   boost,    0.98,  99261.00,  173.25,    1.02,    0.03, 40.8, 0.00, 3.94, 3.96,   9.82,  -0.04,  -0.47,  -0.01,   0.06,   0.25,   0.11,  -0.54,  -0.12,   2.45, 3.97, 3.95, 0.00, 0.00, 0.00, 1, 1,  9,  41.4881751, -89.4985691,   237.0, 2026,  5, 24, 19, 20, 19,        0,        1,  34, -75,   1.7,   1.0,   1.4,  0,  0,  0,  0, 22,  0,  0,  0,  0,  0, 22,  0,  0,  0, 28, 32,  0, 30,  0, 18, 24,  0, 27,  0, 23, 22,  0,  0, 21,  0,  0,  0
6, 11115, 8,KC9SZP,    -0.23, 3,   boost,   -0.00,  99261.00,  173.25,    1.02,    0.04, 40.8, 0.00, 3.94, 3.96,   9.89,  -0.06,  -0.42,  -0.01,   0.18,   0.19,   0.11,  -0.54,  -0.12,   2.45, 3.97, 3.95, 0.00, 0.00, 0.00, 1, 1,  9,  41.4881751, -89.4985691,   237.0, 2026,  5, 24, 19, 20, 19,        0,        1,  34, -75,   1.7,   1.0,   1.4,  0,  0,  0,  0, 22,  0,  0,  0,  0,  0, 22,  0,  0,  0, 28, 32,  0, 30,  0, 18, 24,  0, 27,  0, 23, 22,  0,  0, 21,  0,  0,  0
6, 11115, 8,KC9SZP,    -0.22, 3,   boost,   -0.49,  99275.00,  172.06,   -0.17,    0.04, 40.8, 0.00, 3.94, 3.96,   9.81,  -0.07,  -0.40,   0.23,   0.06,  -0.12,   0.11,  -0.54,  -0.12,   2.45, 3.97, 3.95, 0.00, 0.00, 0.00, 1, 1,  9,  41.4881751, -89.4985691,   237.0, 2026,  5, 24, 19, 20, 19,        0,        1,  34, -75,   1.7,   1.0,   1.4,  0,  0,  0,  0, 22,  0,  0,  0,  0,  0, 22,  0,  0,  0, 28, 32,  0, 30,  0, 18, 24,  0, 27,  0, 23, 22,  0,  0, 21,  0,  0,  0
6, 11115, 8,KC9SZP,    -0.21, 3,   boost,   -0.00,  99275.00,  172.06,   -0.17,    0.04, 40.8, 0.00, 3.94, 3.96,   9.84,   0.00,  -0.46,   0.05,   0.00,   0.25,   0.11,  -0.54,  -0.12,   2.45, 3.97, 3.95, 0.00, 0.00, 0.00, 1, 1,  9,  41.4881751, -89.4985691,   237.0, 2026,  5, 24, 19, 20, 19,        0,        1,  34, -75,   1.7,   1.0,   1.4,  0,  0,  0,  0, 22,  0,  0,  0,  0,  0, 22,  0,  0,  0, 28, 32,  0, 30,  0, 18, 24,  0, 27,  0, 23, 22,  0,  0, 21,  0,  0,  0
6, 11115, 8,KC9SZP,    -0.20, 3,   boost,   -0.00,  99279.00,  171.72,   -0.51,    0.03, 40.8, 0.00, 3.94, 3.96,   9.92,  -0.11,  -0.42,   0.17,  -0.43,   0.19,   0.11,  -0.54,  -0.12,   2.45, 3.97, 3.95, 0.00, 0.00, 0.00, 1, 1,  9,  41.4881751, -89.4985691,   237.0, 2026,  5, 24, 19, 20, 19,        0,        1,  34, -75,   1.7,   1.0,   1.4,  0,  0,  0,  0, 22,  0,  0,  0,  0,  0, 22,  0,  0,  0, 28, 32,  0, 30,  0, 18, 24,  0, 27,  0, 23, 22,  0,  0, 21,  0,  0,  0
6, 11115, 8,KC9SZP,    -0.19, 3,   boost,   -0.49,  99279.00,  171.72,   -0.51,    0.03, 40.8, 0.00, 3.94, 3.96,   9.89,  -0.10,  -0.40,  -0.01,   0.00,  -0.06,   0.12,  -0.54,  -0.12,   2.45, 3.97, 3.95, 0.00, 0.00, 0.00, 1, 1,  9,  41.4881751, -89.4985691,   237.0, 2026,  5, 24, 19, 20, 19,        0,        1,  34, -75,   1.7,   1.0,   1.4,  0,  0,  0,  0, 22,  0,  0,  0,  0,  0, 22,  0,  0,  0, 28, 32,  0, 30,  0, 18, 24,  0, 27,  0, 23, 22,  0,  0, 21,  0,  0,  0
6, 11115, 8,KC9SZP,    -0.18, 3,   boost,   -1.47,  99272.00,  172.32,    0.08,    0.03, 40.8, 0.00, 3.94, 3.96,   9.77,   0.08,  -0.45,   0.17,   0.00,   0.19,   0.11,  -0.54,  -0.12,   2.45, 3.97, 3.95, 0.00, 0.00, 0.00, 1, 1,  9,  41.4881751, -89.4985691,   237.0, 2026,  5, 24, 19, 20, 19,        0,        1,  34, -75,   1.7,   1.0,   1.4,  0,  0,  0,  0, 22,  0,  0,  0,  0,  0, 22,  0,  0,  0, 28, 32,  0, 30,  0, 18, 24,  0, 27,  0, 23, 22,  0,  0, 21,  0,  0,  0
6, 11115, 8,KC9SZP,    -0.17, 3,   boost,    0.49,  99272.00,  172.32,    0.08,    0.02, 40.8, 0.00, 3.94, 3.96,   9.78,  -0.08,  -0.38,  -0.01,   0.12,  -0.18,   0.12,  -0.54,  -0.12,   2.45, 3.97, 3.95, 0.00, 0.00, 0.00, 1, 1,  9,  41.4881751, -89.4985691,   237.0, 2026,  5, 24, 19, 20, 19,        0,        1,  34, -75,   1.7,   1.0,   1.4,  0,  0,  0,  0, 22,  0,  0,  0,  0,  0, 22,  0,  0,  0, 28, 32,  0, 30,  0, 18, 24,  0, 27,  0, 23, 22,  0,  0, 21,  0,  0,  0
6, 11115, 8,KC9SZP,    -0.16, 3,   boost,    0.49,  99271.00,  172.40,    0.17,    0.03, 40.8, 0.00, 3.94, 3.96,   9.80,  -0.13,  -0.43,   0.11,   0.00,  -0.06,   0.11,  -0.54,  -0.12,   2.45, 3.97, 3.95, 0.00, 0.00, 0.00, 1, 1,  9,  41.4881751, -89.4985691,   237.0, 2026,  5, 24, 19, 20, 19,        0,        1,  34, -75,   1.7,   1.0,   1.4,  0,  0,  0,  0, 22,  0,  0,  0,  0,  0, 22,  0,  0,  0, 28, 32,  0, 30,  0, 18, 24,  0, 27,  0, 23, 22,  0,  0, 21,  0,  0,  0
6, 11115, 8,KC9SZP,    -0.15, 3,   boost,   -0.00,  99271.00,  172.40,    0.17,    0.04, 40.8, 0.00, 3.94, 3.96,   9.81,  -0.03,  -0.42,   0.11,  -0.24,   0.07,   0.12,  -0.54,  -0.12,   2.45, 3.97, 3.95, 0.00, 0.00, 0.00, 1, 1,  9,  41.4881751, -89.4985691,   237.0, 2026,  5, 24, 19, 20, 19,        0,        1,  34, -75,   1.7,   1.0,   1.4,  0,  0,  0,  0, 22,  0,  0,  0,  0,  0, 22,  0,  0,  0, 28, 32,  0, 30,  0, 18, 24,  0, 27,  0, 23, 22,  0,  0, 21,  0,  0,  0
6, 11115, 8,KC9SZP,    -0.14, 3,   boost,   -2.45,  99284.00,  171.30,   -0.93,    0.07, 40.8, 0.00, 3.94, 3.96,   9.80,  -0.10,  -0.35,  -0.19,  -0.18,  -0.12,   0.12,  -0.54,  -0.12,   2.45, 3.97, 3.95, 0.00, 0.00, 0.00, 1, 1,  9,  41.4881751, -89.4985691,   237.0, 2026,  5, 24, 19, 20, 19,        0,        1,  34, -75,   1.7,   1.0,   1.4,  0,  0,  0,  0, 22,  0,  0,  0,  0,  0, 22,  0,  0,  0, 28, 32,  0, 30,  0, 18, 24,  0, 27,  0, 23, 22,  0,  0, 21,  0,  0,  0
6, 11115, 8,KC9SZP,    -0.13, 3,   boost,    7.35,  99284.00,  171.30,   -0.93,    0.12, 40.8, 0.00, 3.94, 3.96,  10.03,  -0.11,  -0.47,  -0.07,   0.18,  -0.18,   0.12,  -0.54,  -0.12,   2.45, 3.97, 3.95, 0.00, 0.00, 0.00, 1, 1,  9,  41.4881731, -89.4985709,   238.0, 2026,  5, 24, 19, 20, 20,        0,        0,   0,   0,   1.7,   1.0,   1.4,  0,  0,  0,  0, 22,  0,  0,  0,  0,  0, 22,  0,  0,  0, 28, 32,  0, 30,  0, 18, 24,  0, 27,  0, 23, 22,  0,  0, 21,  0,  0,  0
6, 11115, 8,KC9SZP,    -0.12, 3,   boost,   31.38,  99286.00,  171.13,   -1.10,    0.19, 40.8, 0.00, 3.94, 3.96,  15.86,  -0.82,  -1.43,   0.05,   0.12,  -0.12,   0.11,  -0.55,  -0.13,   2.45, 3.97, 3.95, 0.00, 0.00, 0.00, 1, 1,  9,  41.4881731, -89.4985709,   238.0, 2026,  5, 24, 19, 20, 20,        0,        0,   0,   0,   1.7,   1.0,   1.4,  0,  0,  0,  0, 22,  0,  0,  0,  0,  0, 22,  0,  0,  0, 28, 32,  0, 30,  0, 18, 24,  0, 27,  0, 23, 22,  0,  0, 21,  0,  0,  0
6, 11115, 8,KC9SZP,    -0.11, 3,   boost,  -30.89,  99286.00,  171.13,   -1.10,    0.32, 40.8, 0.00, 3.94, 3.96,  23.06,  -1.10,  -4.22,   1.76,  -0.79,   0.49,   0.12,  -0.54,  -0.12,   2.45, 3.97, 3.95, 0.00, 0.00, 0.00, 1, 1,  9,  41.4881731, -89.4985709,   238.0, 2026,  5, 24, 19, 20, 20,        0,        0,   0,   0,   1.7,   1.0,   1.4,  0,  0,  0,  0, 22,  0,  0,  0,  0,  0, 22,  0,  0,  0, 28, 32,  0, 30,  0, 18, 24,  0, 27,  0, 23, 22,  0,  0, 21,  0,  0,  0
6, 11115, 8,KC9SZP,    -0.10, 3,   boost,   30.89,  99375.00,  163.60,   -8.63,    0.53, 40.8, 0.00, 3.94, 3.96,  13.88,  -0.70,  -1.41,   4.02,   0.61,   3.06,   0.11,  -0.55,  -0.12,   2.45, 3.97, 3.95, 0.00, 0.00, 0.00, 1, 1,  9,  41.4881731, -89.4985709,   238.0, 2026,  5, 24, 19, 20, 20,        0,        0,   0,   0,   1.7,   1.0,   1.4,  0,  0,  0,  0, 22,  0,  0,  0,  0,  0, 22,  0,  0,  0, 28, 32,  0, 30,  0, 18, 24,  0, 27,  0, 23, 22,  0,  0, 21,  0,  0,  0
6, 11115, 8,KC9SZP,    -0.09, 3,   boost,   46.09,  99375.00,  163.60,   -8.63,    0.84, 40.8, 0.00, 3.94, 3.96,  53.14,   0.85,   0.11, -10.02,  -1.65,  -6.28,   0.11,  -0.54,  -0.12,   2.45, 3.97, 3.95, 0.00, 0.00, 0.00, 1, 1,  9,  41.4881731, -89.4985709,   238.0, 2026,  5, 24, 19, 20, 20,        0,        0,   0,   0,   1.7,   1.0,   1.4,  0,  0,  0,  0, 22,  0,  0,  0,  0,  0, 22,  0,  0,  0, 28, 32,  0, 30,  0, 18, 24,  0, 27,  0, 23, 22,  0,  0, 21,  0,  0,  0
6, 11115, 8,KC9SZP,    -0.08, 3,   boost,   52.47,  99279.00,  171.72,   -0.51,    1.24, 40.8, 0.00, 3.94, 3.96,  60.79,  -3.76,  -1.80, -20.03,   0.43,  -4.63,   0.11,  -0.54,  -0.12,   2.45, 3.97, 3.95, 0.00, 0.00, 0.00, 1, 1,  9,  41.4881731, -89.4985709,   238.0, 2026,  5, 24, 19, 20, 20,        0,        0,   0,   0,   1.7,   1.0,   1.4,  0,  0,  0,  0, 22,  0,  0,  0,  0,  0, 22,  0,  0,  0, 28, 32,  0, 30,  0, 18, 24,  0, 27,  0, 23, 22,  0,  0, 21,  0,  0,  0
6, 11115, 8,KC9SZP,    -0.07, 3,   boost,   57.37,  99279.00,  171.72,   -0.51,    1.73, 40.8, 0.00, 3.94, 3.96,  62.68,   3.02,  -3.20,  -2.15,  -1.28,   9.53,   0.10,  -0.54,  -0.12,   2.45, 3.97, 3.95, 0.00, 0.00, 0.00, 1, 1,  9,  41.4881731, -89.4985709,   238.0, 2026,  5, 24, 19, 20, 20,        0,        0,   0,   0,   1.7,   1.0,   1.4,  0,  0,  0,  0, 22,  0,  0,  0,  0,  0, 22,  0,  0,  0, 28, 32,  0, 30,  0, 18, 24,  0, 27,  0, 23, 22,  0,  0, 21,  0,  0,  0
6, 11115, 8,KC9SZP,    -0.06, 3,   boost,   60.80,  99234.00,  175.53,    3.30,    2.28, 40.8, 0.00, 3.94, 3.96,  67.17,   8.39,   0.79,   0.66,  -2.87,   3.73,   0.10,  -0.53,  -0.12,   2.45, 3.97, 3.95, 0.00, 0.00, 0.00, 1, 1,  9,  41.4881731, -89.4985709,   238.0, 2026,  5, 24, 19, 20, 20,        0,        0,   0,   0,   1.7,   1.0,   1.4,  0,  0,  0,  0, 22,  0,  0,  0,  0,  0, 22,  0,  0,  0, 28, 32,  0, 30,  0, 18, 24,  0, 27,  0, 23, 22,  0,  0, 21,  0,  0,  0
6, 11115, 8,KC9SZP,    -0.05, 3,   boost,   63.25,  99234.00,  175.53,    3.30,    2.87, 40.8, 0.00, 3.94, 3.96,  69.32,   3.28,  -1.11,   7.86,  -1.89,  -0.73,   0.09,  -0.53,  -0.12,   2.45, 3.97, 3.95, 0.00, 0.00, 0.00, 1, 1,  9,  41.4881731, -89.4985709,   238.0, 2026,  5, 24, 19, 20, 20,        0,        0,   0,   0,   1.7,   1.0,   1.4,  0,  0,  0,  0, 22,  0,  0,  0,  0,  0, 22,  0,  0,  0, 28, 32,  0, 30,  0, 18, 24,  0, 27,  0, 23, 22,  0,  0, 21,  0,  0,  0
6, 11115, 8,KC9SZP,    -0.04, 3,   boost,   57.37,  99258.00,  173.50,    1.27,    3.46, 40.8, 0.00, 3.94, 3.96,  67.86,  -1.98,   0.00, -13.62,  -1.71,   1.10,   0.09,  -0.53,  -0.12,   2.45, 3.97, 3.95, 0.00, 0.00, 0.00, 1, 1,  9,  41.4881731, -89.4985709,   238.0, 2026,  5, 24, 19, 20, 20,        0,        0,   0,   0,   1.7,   1.0,   1.4,  0,  0,  0,  0, 22,  0,  0,  0,  0,  0, 22,  0,  0,  0, 28, 32,  0, 30,  0, 18, 24,  0, 27,  0, 23, 22,  0,  0, 21,  0,  0,  0
6, 11115, 8,KC9SZP,    -0.03, 3,   boost,   58.84,  99258.00,  173.50,    1.27,    4.05, 40.8, 0.00, 3.94, 3.96,  68.96,  -3.04,  -4.63, -22.35,  -2.07,   6.29,   0.08,  -0.53,  -0.11,   2.45, 3.97, 3.95, 0.00, 0.00, 0.00, 1, 1,  9,  41.4881731, -89.4985709,   238.0, 2026,  5, 24, 19, 20, 20,        0,        0,   0,   0,   1.7,   1.0,   1.4,  0,  0,  0,  0, 22,  0,  0,  0,  0,  0, 22,  0,  0,  0, 28, 32,  0, 30,  0, 18, 24,  0, 27,  0, 23, 22,  0,  0, 21,  0,  0,  0
6, 11115, 8,KC9SZP,    -0.02, 3,   boost,   60.80,  99246.00,  174.52,    2.29,    4.65, 40.8, 0.00, 3.94, 3.96,  68.53,  -1.88,  -2.00, -24.36,  -4.82,   4.52,   0.08,  -0.53,  -0.11,   2.45, 3.97, 3.95, 0.00, 0.00, 0.00, 1, 1,  9,  41.4881731, -89.4985709,   238.0, 2026,  5, 24, 19, 20, 20,        0,        0,   0,   0,   1.7,   1.0,   1.4,  0,  0,  0,  0, 22,  0,  0,  0,  0,  0, 22,  0,  0,  0, 28, 32,  0, 30,  0, 18, 24,  0, 27,  0, 23, 22,  0,  0, 21,  0,  0,  0
6, 11115, 8,KC9SZP,    -0.01, 3,   boost,   57.37,  99246.00,  174.52,    2.29,    5.24, 40.8, 0.00, 3.94, 3.96,  70.09,  -0.04,   0.63, -26.56,  -4.15,   1.96,   0.08,  -0.53,  -0.11,   2.45, 3.97, 3.95, 0.00, 0.00, 0.00, 1, 1,  9,  41.4881731, -89.4985709,   238.0, 2026,  5, 24, 19, 20, 20,        0,        0,   0,   0,   1.7,   1.0,   1.4,  0,  0,  0,  0, 22,  0,  0,  0,  0,  0, 22,  0,  0,  0, 28, 32,  0, 30,  0, 18, 24,  0, 27,  0, 23, 22,  0,  0, 21,  0,  0,  0
6, 11115, 8,KC9SZP,     0.00, 3,   boost,   60.80,  99243.00,  174.77,    2.54,    5.83, 40.8, 0.00, 3.94, 3.96,  69.47,  -0.77,  -0.88, -16.67,  -3.97,   4.40,   0.07,  -0.53,  -0.11,   2.45, 3.97, 3.95, 0.00, 0.00, 0.00, 1, 1,  9,  41.4881731, -89.4985709,   238.0, 2026,  5, 24, 19, 20, 20,        0,        0,   0,   0,   1.7,   1.0,   1.4,  0,  0,  0,  0, 22,  0,  0,  0,  0,  0, 22,  0,  0,  0, 28, 32,  0, 30,  0, 18, 24,  0, 27,  0, 23, 22,  0,  0, 21,  0,  0,  0
6, 11115, 8,KC9SZP,     0.00, 3,   boost,   60.80,  99243.00,  174.77,    2.54,    5.83, 40.8, 0.00, 3.94, 3.96,  69.47,  -0.77,  -0.88, -16.67,  -3.97,   4.40,   0.07,  -0.53,  -0.11,   2.45, 3.97, 3.95, 0.00, 0.00, 0.00, 1, 1,  9,  41.4881731, -89.4985709,   238.0, 2026,  5, 24, 19, 20, 20,        0,        0,   0,   0,   1.7,   1.0,   1.4,  0,  0,  0,  0, 22,  0,  0,  0,  0,  0, 22,  0,  0,  0, 28, 32,  0, 30,  0, 18, 24,  0, 27,  0, 23, 22,  0,  0, 21,  0,  0,  0
6, 11115, 8,KC9SZP,     0.00, 3,   boost,   60.80,  99243.00,  174.77,    2.54,    5.83, 40.8, 0.00, 3.94, 3.96,  69.47,  -0.77,  -0.88, -16.67,  -3.97,   4.40,   0.07,  -0.53,  -0.11,   2.45, 3.97, 3.95, 0.00, 0.00, 0.00, 1, 1,  9,  41.4881731, -89.4985709,   238.0, 2026,  5, 24, 19, 20, 20,        0,        0,   0,   0,   1.7,   1.0,   1.4,  0,  0,  0,  0, 22,  0,  0,  0,  0,  0, 22,  0,  0,  0, 28, 32,  0, 30,  0, 18, 24,  0, 27,  0, 23, 22,  0,  0, 21,  0,  0,  0
6, 11115, 8,KC9SZP,     0.00, 3,   boost,   60.80,  99243.00,  174.77,    2.54,    5.83, 40.8, 0.00, 3.94, 3.96,  69.47,  -0.77,  -0.88, -16.67,  -3.97,   4.40,   0.07,  -0.53,  -0.11,   2.45, 3.97, 3.95, 0.00, 0.00, 0.00, 1, 1,  9,  41.4881731, -89.4985709,   238.0, 2026,  5, 24, 19, 20, 20,        0,        0,   0,   0,   1.7,   1.0,   1.4,  0,  0,  0,  0, 22,  0,  0,  0,  0,  0, 22,  0,  0,  0, 28, 32,  0, 30,  0, 18, 24,  0, 27,  0, 23, 22,  0,  0, 21,  0,  0,  0
6, 11115, 8,KC9SZP,     0.00, 3,   boost,   60.80,  99243.00,  174.77,    2.54,    5.83, 40.8, 0.00, 3.94, 3.96,  69.47,  -0.77,  -0.88, -16.67,  -3.97,   4.40,   0.07,  -0.53,  -0.11,   2.45, 3.97, 3.95, 0.00, 0.00, 0.00, 1, 1,  9,  41.4881731, -89.4985709,   238.0, 2026,  5, 24, 19, 20, 20,        0,        0,   0,   0,   1.7,   1.0,   1.4,  0,  0,  0,  0, 22,  0,  0,  0,  0,  0, 22,  0,  0,  0, 28, 32,  0, 30,  0, 18, 24,  0, 27,  0, 23, 22,  0,  0, 21,  0,  0,  0
6, 11115, 8,KC9SZP,     0.00, 3,   boost,   60.80,  99243.00,  174.77,    2.54,    5.83, 40.8, 0.00, 3.94, 3.96,  69.47,  -0.77,  -0.88, -16.67,  -3.97,   4.40,   0.07,  -0.53,  -0.11,   2.45, 3.97, 3.95, 0.00, 0.00, 0.00, 1, 1,  9,  41.4881731, -89.4985709,   238.0, 2026,  5, 24, 19, 20, 20,        0,        0,   0,   0,   1.7,   1.0,   1.4,  0,  0,  0,  0, 22,  0,  0,  0,  0,  0, 22,  0,  0,  0, 28, 32,  0, 30,  0, 18, 24,  0, 27,  0, 23, 22,  0,  0, 21,  0,  0,  0
6, 11115, 8,KC9SZP,     0.00, 3,   boost,   60.80,  99243.00,  174.77,    2.54,    5.83, 40.8, 0.00, 3.94, 3.96,  69.47,  -0.77,  -0.88, -16.67,  -3.97,   4.40,   0.07,  -0.53,  -0.11,   2.45, 3.97, 3.95, 0.00, 0.00, 0.00, 1, 1,  9,  41.4881731, -89.4985709,   238.0, 2026,  5, 24, 19, 20, 20,        0,        0,   0,   0,   1.7,   1.0,   1.4,  0,  0,  0,  0, 22,  0,  0,  0,  0,  0, 22,  0,  0,  0, 28, 32,  0, 30,  0, 18, 24,  0, 27,  0, 23, 22,  0,  0, 21,  0,  0,  0
6, 11115, 8,KC9SZP,     0.00, 3,   boost,   60.80,  99243.00,  174.77,    2.54,    5.83, 40.8, 0.00, 3.94, 3.96,  69.47,  -0.77,  -0.88, -16.67,  -3.97,   4.40,   0.07,  -0.53,  -0.11,   2.45, 3.97, 3.95, 0.00, 0.00, 0.00, 1, 1,  9,  41.4881731, -89.4985709,   238.0, 2026,  5, 24, 19, 20, 20,        0,        0,   0,   0,   1.7,   1.0,   1.4,  0,  0,  0,  0, 22,  0,  0,  0,  0,  0, 22,  0,  0,  0, 28, 32,  0, 30,  0, 18, 24,  0, 27,  0, 23, 22,  0,  0, 21,  0,  0,  0
6, 11115, 8,KC9SZP,     0.00, 3,   boost,   60.80,  99243.00,  174.77,    2.54,    5.83, 40.8, 0.00, 3.94, 3.96,  69.47,  -0.77,  -0.88, -16.67,  -3.97,   4.40,   0.07,  -0.53,  -0.11,   2.45, 3.97, 3.95, 0.00, 0.00, 0.00, 1, 1,  9,  41.4881731, -89.4985709,   238.0, 2026,  5, 24, 19, 20, 20,        0,        0,   0,   0,   1.7,   1.0,   1.4,  0,  0,  0,  0, 22,  0,  0,  0,  0,  0, 22,  0,  0,  0, 28, 32,  0, 30,  0, 18, 24,  0, 27,  0, 23, 22,  0,  0, 21,  0,  0,  0
6, 11115, 8,KC9SZP,     0.00, 3,   boost,   60.80,  99243.00,  174.77,    2.54,    5.83, 40.8, 0.00, 3.94, 3.96,  69.47,  -0.77,  -0.88, -16.67,  -3.97,   4.40,   0.07,  -0.53,  -0.11,   2.45, 3.97, 3.95, 0.00, 0.00, 0.00, 1, 1,  9,  41.4881731, -89.4985709,   238.0, 2026,  5, 24, 19, 20, 20,        0,        0,   0,   0,   1.7,   1.0,   1.4,  0,  0,  0,  0, 22,  0,  0,  0,  0,  0, 22,  0,  0,  0, 28, 32,  0, 30,  0, 18, 24,  0, 27,  0, 23, 22,  0,  0, 21,  0,  0,  0
6, 11115, 8,KC9SZP,     0.00, 3,   boost,   60.80,  99243.00,  174.77,    2.54,    5.83, 40.8, 0.00, 3.94, 3.96,  69.47,  -0.77,  -0.88, -16.67,  -3.97,   4.40,   0.07,  -0.53,  -0.11,   2.45, 3.97, 3.95, 0.00, 0.00, 0.00, 1, 1,  9,  41.4881731, -89.4985709,   238.0, 2026,  5, 24, 19, 20, 20,        0,        0,   0,   0,   1.7,   1.0,   1.4,  0,  0,  0,  0, 22,  0,  0,  0,  0,  0, 22,  0,  0,  0, 28, 32,  0, 30,  0, 18, 24,  0, 27,  0, 23, 22,  0,  0, 21,  0,  0,  0
6, 11115, 8,KC9SZP,     0.00, 3,   boost,   60.80,  99243.00,  174.77,    2.54,    5.83, 40.8, 0.00, 3.94, 3.96,  69.47,  -0.77,  -0.88, -16.67,  -3.97,   4.40,   0.07,  -0.53,  -0.11,   2.46, 3.97, 3.95, 0.00, 0.00, 0.00, 1, 1,  9,  41.4881731, -89.4985709,   238.0, 2026,  5, 24, 19, 20, 20,        0,        0,   0,   0,   1.7,   1.0,   1.4,  0,  0,  0,  0, 22,  0,  0,  0,  0,  0, 22,  0,  0,  0, 28, 32,  0, 30,  0, 18, 24,  0, 27,  0, 23, 22,  0,  0, 21,  0,  0,  0
6, 11115, 8,KC9SZP,     0.00, 3,   boost,   60.80,  99243.00,  174.77,    2.54,    5.83, 40.8, 0.00, 3.94, 3.96,  69.47,  -0.77,  -0.88, -16.67,  -3.97,   4.40,   0.07,  -0.53,  -0.11,   2.46, 3.97, 3.95, 0.00, 0.00, 0.00, 1, 1,  9,  41.4881731, -89.4985709,   238.0, 2026,  5, 24, 19, 20, 20,        0,        0,   0,   0,   1.7,   1.0,   1.4,  0,  0,  0,  0, 22,  0,  0,  0,  0,  0, 22,  0,  0,  0, 28, 32,  0, 30,  0, 18, 24,  0, 27,  0, 23, 22,  0,  0, 21,  0,  0,  0
6, 11115, 8,KC9SZP,     0.00, 3,   boost,   60.80,  99243.00,  174.77,    2.54,    5.83, 40.8, 0.00, 3.94, 3.96,  69.47,  -0.77,  -0.88, -16.67,  -3.97,   4.40,   0.07,  -0.53,  -0.11,   2.46, 3.97, 3.95, 0.00, 0.00, 0.00, 1, 1,  9,  41.4881731, -89.4985709,   238.0, 2026,  5, 24, 19, 20, 20,        0,        0,   0,   0,   1.7,   1.0,   1.4,  0,  0,  0,  0, 22,  0,  0,  0,  0,  0, 22,  0,  0,  0, 28, 32,  0, 30,  0, 18, 24,  0, 27,  0, 23, 22,  0,  0, 21,  0,  0,  0
6, 11115, 8,KC9SZP,     0.00, 3,   boost,   60.80,  99243.00,  174.77,    2.54,    5.83, 40.8, 0.00, 3.94, 3.96,  69.47,  -0.77,  -0.88, -16.67,  -3.97,   4.40,   0.07,  -0.53,  -0.11,   2.45, 3.97, 3.95, 0.00, 0.00, 0.00, 1, 1,  9,  41.4881731, -89.4985709,   238.0, 2026,  5, 24, 19, 20, 20,        0,        0,   0,   0,   1.7,   1.0,   1.4,  0,  0,  0,  0, 22,  0,  0,  0,  0,  0, 22,  0,  0,  0, 28, 32,  0, 30,  0, 18, 24,  0, 27,  0, 23, 22,  0,  0, 21,  0,  0,  0
6, 11115, 8,KC9SZP,     0.00, 3,   boost,   60.80,  99243.00,  174.77,    2.54,    5.83, 40.8, 0.00, 3.94, 3.96,  69.47,  -0.77,  -0.88, -16.67,  -3.97,   4.40,   0.07,  -0.53,  -0.11,   2.45, 3.97, 3.95, 0.00, 0.00, 0.00, 1, 1,  9,  41.4881731, -89.4985709,   238.0, 2026,  5, 24, 19, 20, 20,        0,        0,   0,   0,   1.7,   1.0,   1.4,  0,  0,  0,  0, 22,  0,  0,  0,  0,  0, 22,  0,  0,  0, 28, 32,  0, 30,  0, 18, 24,  0, 27,  0, 23, 22,  0,  0, 21,  0,  0,  0
6, 11115, 8,KC9SZP,     0.00, 3,   boost,   60.80,  99243.00,  174.77,    2.54,    5.83, 40.8, 0.00, 3.94, 3.96,  69.47,  -0.77,  -0.88, -16.67,  -3.97,   4.40,   0.07,  -0.53,  -0.11,   2.45, 3.97, 3.95, 0.00, 0.00, 0.00, 1, 1,  9,  41.4881731, -89.4985709,   238.0, 2026,  5, 24, 19, 20, 20,        0,        0,   0,   0,   1.7,   1.0,   1.4,  0,  0,  0,  0, 22,  0,  0,  0,  0,  0, 22,  0,  0,  0, 28, 32,  0, 30,  0, 18, 24,  0, 27,  0, 23, 22,  0,  0, 21,  0,  0,  0
6, 11115, 8,KC9SZP,     0.00, 3,   boost,   60.80,  99243.00,  174.77,    2.54,    5.83, 40.8, 0.00, 3.94, 3.96,  69.47,  -0.77,  -0.88, -16.67,  -3.97,   4.40,   0.07,  -0.53,  -0.11,   2.45, 3.97, 3.95, 0.00, 0.00, 0.00, 1, 1,  9,  41.4881731, -89.4985709,   238.0, 2026,  5, 24, 19, 20, 20,        0,        0,   0,   0,   1.7,   1.0,   1.4,  0,  0,  0,  0, 22,  0,  0,  0,  0,  0, 22,  0,  0,  0, 28, 32,  0, 30,  0, 18, 24,  0, 27,  0, 23, 22,  0,  0, 21,  0,  0,  0
6, 11115, 8,KC9SZP,     0.00, 3,   boost,   60.80,  99243.00,  174.77,    2.54,    5.83, 40.8, 0.00, 3.94, 3.96,  69.47,  -0.77,  -0.88, -16.67,  -3.97,   4.40,   0.07,  -0.53,  -0.11,   2.45, 3.97, 3.95, 0.00, 0.00, 0.00, 1, 1,  9,  41.4881731, -89.4985709,   238.0, 2026,  5, 24, 19, 20, 20,        0,        0,   0,   0,   1.7,   1.0,   1.4,  0,  0,  0,  0, 22,  0,  0,  0,  0,  0, 22,  0,  0,  0, 28, 32,  0, 30,  0, 18, 24,  0, 27,  0, 23, 22,  0,  0, 21,  0,  0,  0
6, 11115, 8,KC9SZP,     0.00, 3,   boost,   60.80,  99243.00,  174.77,    2.54,    5.83, 40.8, 0.00, 3.94, 3.96,  69.47,  -0.77,  -0.88, -16.67,  -3.97,   4.40,   0.07,  -0.53,  -0.11,   2.45, 3.97, 3.95, 0.00, 0.00, 0.00, 1, 1,  9,  41.4881731, -89.4985709,   238.0, 2026,  5, 24, 19, 20, 20,        0,        0,   0,   0,   1.7,   1.0,   1.4,  0,  0,  0,  0, 22,  0,  0,  0,  0,  0, 22,  0,  0,  0, 28, 32,  0, 30,  0, 18, 24,  0, 27,  0, 23, 22,  0,  0, 21,  0,  0,  0
6, 11115, 8,KC9SZP,     0.00, 3,   boost,   60.80,  99243.00,  174.77,    2.54,    5.83, 40.8, 0.00, 3.94, 3.96,  69.47,  -0.77,  -0.88, -16.67,  -3.97,   4.40,   0.07,  -0.53,  -0.11,   2.45, 3.97, 3.95, 0.00, 0.00, 0.00, 1, 1,  9,  41.4881731, -89.4985709,   238.0, 2026,  5, 24, 19, 20, 20,        0,        0,   0,   0,   1.7,   1.0,   1.4,  0,  0,  0,  0, 22,  0,  0,  0,  0,  0, 22,  0,  0,  0, 28, 32,  0, 30,  0, 18, 24,  0, 27,  0, 23, 22,  0,  0, 21,  0,  0,  0
6, 11115, 8,KC9SZP,     0.00, 3,   boost,   60.80,  99243.00,  174.77,    2.54,    5.83, 40.8, 0.00, 3.94, 3.96,  69.47,  -0.77,  -0.88, -16.67,  -3.97,   4.40,   0.07,  -0.53,  -0.11,   2.45, 3.97, 3.95, 0.00, 0.00, 0.00, 1, 1,  9,  41.4881731, -89.4985709,   238.0, 2026,  5, 24, 19, 20, 20,        0,        0,   0,   0,   1.7,   1.0,   1.4,  0,  0,  0,  0, 22,  0,  0,  0,  0,  0, 22,  0,  0,  0, 28, 32,  0, 30,  0, 18, 24,  0, 27,  0, 23, 22,  0,  0, 21,  0,  0,  0
6, 11115, 8,KC9SZP,     0.00, 3,   boost,   60.80,  99243.00,  174.77,    2.54,    5.83, 40.8, 0.00, 3.94, 3.96,  69.47,  -0.77,  -0.88, -16.67,  -3.97,   4.40,   0.07,  -0.53,  -0.11,   2.45, 3.97, 3.95, 0.00, 0.00, 0.00, 1, 1,  9,  41.4881731, -89.4985709,   238.0, 2026,  5, 24, 19, 20, 20,        0,        0,   0,   0,   1.7,   1.0,   1.4,  0,  0,  0,  0, 22,  0,  0,  0,  0,  0, 22,  0,  0,  0, 28, 32,  0, 30,  0, 18, 24,  0, 27,  0, 23, 22,  0,  0, 21,  0,  0,  0
6, 11115, 8,KC9SZP,     0.00, 3,   boost,   60.80,  99243.00,  174.77,    2.54,    5.83, 40.8, 0.00, 3.94, 3.96,  69.47,  -0.77,  -0.88, -16.67,  -3.97,   4.40,   0.07,  -0.53,  -0.11,   2.45, 3.97, 3.95, 0.00, 0.00, 0.00, 1, 1,  9,  41.4881731, -89.4985709,   238.0, 2026,  5, 24, 19, 20, 20,        0,        0,   0,   0,   1.7,   1.0,   1.4,  0,  0,  0,  0, 22,  0,  0,  0,  0,  0, 22,  0,  0,  0, 28, 32,  0, 30,  0, 18, 24,  0, 27,  0, 23, 22,  0,  0, 21,  0,  0,  0
6, 11115, 8,KC9SZP,     0.00, 3,   boost,   60.80,  99243.00,  174.77,    2.54,    5.83, 40.8, 0.00, 3.94, 3.96,  69.47,  -0.77,  -0.88, -16.67,  -3.97,   4.40,   0.07,  -0.53,  -0.11,   2.45, 3.97, 3.95, 0.00, 0.00, 0.00, 1, 1,  9,  41.4881731, -89.4985709,   238.0, 2026,  5, 24, 19, 20, 20,        0,        0,   0,   0,   1.7,   1.0,   1.4,  0,  0,  0,  0, 22,  0,  0,  0,  0,  0, 22,  0,  0,  0, 28, 32,  0, 30,  0, 18, 24,  0, 27,  0, 23, 22,  0,  0, 21,  0,  0,  0
6, 11115, 8,KC9SZP,     0.00, 3,   boost,   60.80,  99243.00,  174.77,    2.54,    5.83, 40.8, 0.00, 3.94, 3.96,  69.47,  -0.77,  -0.88, -16.67,  -3.97,   4.40,   0.07,  -0.53,  -0.11,   2.44, 3.97, 3.95, 0.00, 0.00, 0.00, 1, 1,  9,  41.4881731, -89.4985709,   238.0, 2026,  5, 24, 19, 20, 20,        0,        0,   0,   0,   1.7,   1.0,   1.4,  0,  0,  0,  0, 22,  0,  0,  0,  0,  0, 22,  0,  0,  0, 28, 32,  0, 30,  0, 18, 24,  0, 27,  0, 23, 22,  0,  0, 21,  0,  0,  0
6, 11115, 8,KC9SZP,     0.00, 3,   boost,   60.80,  99243.00,  174.77,    2.54,    5.83, 40.8, 0.00, 3.94, 3.96,  69.47,  -0.77,  -0.88, -16.67,  -3.97,   4.40,   0.07,  -0.53,  -0.11,   2.45, 3.97, 3.95, 0.00, 0.00, 0.00, 1, 1,  9,  41.4881731, -89.4985709,   238.0, 2026,  5, 24, 19, 20, 20,        0,        0,   0,   0,   1.7,   1.0,   1.4,  0,  0,  0,  0, 22,  0,  0,  0,  0,  0, 22,  0,  0,  0, 28, 32,  0, 30,  0, 18, 24,  0, 27,  0, 23, 22,  0,  0, 21,  0,  0,  0
6, 11115, 8,KC9SZP,     0.00, 3,   boost,   60.80,  99243.00,  174.77,    2.54,    5.83, 40.8, 0.00, 3.94, 3.96,  69.47,  -0.77,  -0.88, -16.67,  -3.97,   4.40,   0.07,  -0.53,  -0.11,   2.44, 3.97, 3.95, 0.00, 0.00, 0.00, 1, 1,  9,  41.4881731, -89.4985709,   238.0, 2026,  5, 24, 19, 20, 20,        0,        0,   0,   0,   1.7,   1.0,   1.4,  0,  0,  0,  0, 22,  0,  0,  0,  0,  0, 22,  0,  0,  0, 28, 32,  0, 30,  0, 18, 24,  0, 27,  0, 23, 22,  0,  0, 21,  0,  0,  0
6, 11115, 8,KC9SZP,     0.00, 3,   boost,   60.80,  99243.00,  174.77,    2.54,    5.83, 40.8, 0.00, 3.94, 3.96,  69.47,  -0.77,  -0.88, -16.67,  -3.97,   4.40,   0.07,  -0.53,  -0.11,   2.45, 3.97, 3.95, 0.00, 0.00, 0.00, 1, 1,  9,  41.4881731, -89.4985709,   238.0, 2026,  5, 24, 19, 20, 20,        0,        0,   0,   0,   1.7,   1.0,   1.4,  0,  0,  0,  0, 22,  0,  0,  0,  0,  0, 22,  0,  0,  0, 28, 32,  0, 30,  0, 18, 24,  0, 27,  0, 23, 22,  0,  0, 21,  0,  0,  0
6, 11115, 8,KC9SZP,     0.00, 3,   boost,   60.80,  99243.00,  174.77,    2.54,    5.83, 40.8, 0.00, 3.94, 3.96,  69.47,  -0.77,  -0.88, -16.67,  -3.97,   4.40,   0.07,  -0.53,  -0.11,   2.42, 3.97, 3.95, 0.00, 0.00, 0.00, 1, 1,  9,  41.4881731, -89.4985709,   238.0, 2026,  5, 24, 19, 20, 20,        0,        0,   0,   0,   1.7,   1.0,   1.4,  0,  0,  0,  0, 22,  0,  0,  0,  0,  0, 22,  0,  0,  0, 28, 32,  0, 30,  0, 18, 24,  0, 27,  0, 23, 22,  0,  0, 21,  0,  0,  0
6, 11115, 8,KC9SZP,     0.00, 3,   boost,   60.80,  99243.00,  174.77,    2.54,    5.83, 40.8, 0.00, 3.94, 3.96,  69.47,  -0.77,  -0.88, -16.67,  -3.97,   4.40,   0.07,  -0.53,  -0.11,   2.39, 3.97, 3.95, 0.00, 0.00, 0.00, 1, 1,  9,  41.4881731, -89.4985709,   238.0, 2026,  5, 24, 19, 20, 20,        0,        0,   0,   0,   1.7,   1.0,   1.4,  0,  0,  0,  0, 22,  0,  0,  0,  0,  0, 22,  0,  0,  0, 28, 32,  0, 30,  0, 18, 24,  0, 27,  0, 23, 22,  0,  0, 21,  0,  0,  0
6, 11115, 8,KC9SZP,     0.00, 3,   boost,   60.80,  99243.00,  174.77,    2.54,    5.83, 40.8, 0.00, 3.94, 3.96,  69.47,  -0.77,  -0.88, -16.67,  -3.97,   4.40,   0.07,  -0.53,  -0.11,   2.37, 3.97, 3.95, 0.00, 0.00, 0.00, 1, 1,  9,  41.4881731, -89.4985709,   238.0, 2026,  5, 24, 19, 20, 20,        0,        0,   0,   0,   1.7,   1.0,   1.4,  0,  0,  0,  0, 22,  0,  0,  0,  0,  0, 22,  0,  0,  0, 28, 32,  0, 30,  0, 18, 24,  0, 27,  0, 23, 22,  0,  0, 21,  0,  0,  0
6, 11115, 8,KC9SZP,     0.00, 3,   boost,   60.80,  99243.00,  174.77,    2.54,    5.83, 40.8, 0.00, 3.94, 3.96,  69.47,  -0.77,  -0.88, -16.67,  -3.97,   4.40,   0.07,  -0.53,  -0.11,   2.35, 3.97, 3.95, 0.00, 0.00, 0.00, 1, 1,  9,  41.4881731, -89.4985709,   238.0, 2026,  5, 24, 19, 20, 20,        0,        0,   0,   0,   1.7,   1.0,   1.4,  0,  0,  0,  0, 22,  0,  0,  0,  0,  0, 22,  0,  0,  0, 28, 32,  0, 30,  0, 18, 24,  0, 27,  0, 23, 22,  0,  0, 21,  0,  0,  0
6, 11115, 8,KC9SZP,     0.00, 3,   boost,   60.80,  99243.00,  174.77,    2.54,    5.83, 40.8, 0.00, 3.94, 3.96,  69.47,  -0.77,  -0.88, -16.67,  -3.97,   4.40,   0.07,  -0.53,  -0.11,   2.33, 3.97, 3.95, 0.00, 0.00, 0.00, 1, 1,  9,  41.4881731, -89.4985709,   238.0, 2026,  5, 24, 19, 20, 20,        0,        0,   0,   0,   1.7,   1.0,   1.4,  0,  0,  0,  0, 22,  0,  0,  0,  0,  0, 22,  0,  0,  0, 28, 32,  0, 30,  0, 18, 24,  0, 27,  0, 23, 22,  0,  0, 21,  0,  0,  0
6, 11115, 8,KC9SZP,     0.00, 3,   boost,   60.80,  99243.00,  174.77,    2.54,    5.83, 40.8, 0.00, 3.94, 3.96,  69.47,  -0.77,  -0.88, -16.67,  -3.97,   4.40,   0.07,  -0.53,  -0.11,   2.27, 3.97, 3.95, 0.00, 0.00, 0.00, 1, 1,  9,  41.4881731, -89.4985709,   238.0, 2026,  5, 24, 19, 20, 20,        0,        0,   0,   0,   1.7,   1.0,   1.4,  0,  0,  0,  0, 22,  0,  0,  0,  0,  0, 22,  0,  0,  0, 28, 32,  0, 30,  0, 18, 24,  0, 27,  0, 23, 22,  0,  0, 21,  0,  0,  0
6, 11115, 8,KC9SZP,     0.00, 3,   boost,   60.80,  99243.00,  174.77,    2.54,    5.83, 40.8, 0.00, 3.94, 3.96,  69.47,  -0.77,  -0.88, -16.67,  -3.97,   4.40,   0.07,  -0.53,  -0.11,   2.23, 3.97, 3.95, 0.00, 0.00, 0.00, 1, 1,  9,  41.4881731, -89.4985709,   238.0, 2026,  5, 24, 19, 20, 20,        0,        0,   0,   0,   1.7,   1.0,   1.4,  0,  0,  0,  0, 22,  0,  0,  0,  0,  0, 22,  0,  0,  0, 28, 32,  0, 30,  0, 18, 24,  0, 27,  0, 23, 22,  0,  0, 21,  0,  0,  0
6, 11115, 8,KC9SZP,     0.00, 3,   boost,   60.80,  99243.00,  174.77,    2.54,    5.83, 40.8, 0.00, 3.94, 3.96,  69.47,  -0.77,  -0.88, -16.67,  -3.97,   4.40,   0.07,  -0.53,  -0.11,   2.19, 3.97, 3.95, 0.00, 0.00, 0.00, 1, 1,  9,  41.4881731, -89.4985709,   238.0, 2026,  5, 24, 19, 20, 20,        0,        0,   0,   0,   1.7,   1.0,   1.4,  0,  0,  0,  0, 22,  0,  0,  0,  0,  0, 22,  0,  0,  0, 28, 32,  0, 30,  0, 18, 24,  0, 27,  0, 23, 22,  0,  0, 21,  0,  0,  0
6, 11115, 8,KC9SZP,     0.01, 3,   boost,   58.84,  99243.00,  174.77,    2.54,    6.42, 40.8, 0.00, 3.94, 3.96,  69.11,   3.51,  -2.85, -30.89,  -3.60,   6.05,   0.07,  -0.53,  -0.11,   2.15, 3.97, 3.95, 0.00, 0.00, 0.00, 1, 1,  9,  41.4881731, -89.4985709,   238.0, 2026,  5, 24, 19, 20, 20,        0,        0,   0,   0,   1.7,   1.0,   1.4,  0,  0,  0,  0, 22,  0,  0,  0,  0,  0, 22,  0,  0,  0, 28, 32,  0, 30,  0, 18, 24,  0, 27,  0, 23, 22,  0,  0, 21,  0,  0,  0
6, 11115, 8,KC9SZP,     0.01, 3,   boost,   58.84,  99243.00,  174.77,    2.54,    6.42, 40.8, 0.00, 3.94, 3.96,  69.11,   3.51,  -2.85, -30.89,  -3.60,   6.05,   0.07,  -0.53,  -0.11,   2.15, 3.97, 3.95, 0.00, 0.00, 0.00, 1, 1,  9,  41.4881731, -89.4985709,   238.0, 2026,  5, 24, 19, 20, 20,        0,        0,   0,   0,   1.7,   1.0,   1.4,  0,  0,  0,  0, 22,  0,  0,  0,  0,  0, 22,  0,  0,  0, 28, 32,  0, 30,  0, 18, 24,  0, 27,  0, 23, 22,  0,  0, 21,  0,  0,  0
6, 11115, 8,KC9SZP,     0.02, 3,   boost,   58.35,  99248.00,  174.35,    2.12,    7.00, 40.8, 0.00, 3.93, 3.94,  68.01,   1.11,  -3.07, -28.03,  -4.70,   6.48,   0.08,  -0.52,  -0.11,   2.10, 3.94, 3.92, 0.00, 0.00, 0.00, 1, 1,  9,  41.4881731, -89.4985709,   238.0, 2026,  5, 24, 19, 20, 20,        0,        0,   0,   0,   1.7,   1.0,   1.4,  0,  0,  0,  0, 22,  0,  0,  0,  0,  0, 22,  0,  0,  0, 28, 32,  0, 30,  0, 18, 24,  0, 27,  0, 23, 22,  0,  0, 21,  0,  0,  0
6, 11115, 8,KC9SZP,     0.02, 3,   boost,   58.35,  99248.00,  174.35,    2.12,    7.00, 40.8, 0.00, 3.93, 3.94,  68.01,   1.11,  -3.07, -28.03,  -4.70,   6.48,   0.08,  -0.52,  -0.11,   2.10, 3.94, 3.92, 0.00, 0.00, 0.00, 1, 1,  9,  41.4881731, -89.4985709,   238.0, 2026,  5, 24, 19, 20, 20,        0,        0,   0,   0,   1.7,   1.0,   1.4,  0,  0,  0,  0, 22,  0,  0,  0,  0,  0, 22,  0,  0,  0, 28, 32,  0, 30,  0, 18, 24,  0, 27,  0, 23, 22,  0,  0, 21,  0,  0,  0
6, 11115, 8,KC9SZP,     0.03, 3,   boost,   56.39,  99248.00,  174.35,    2.12,    7.58, 40.8, 0.00, 3.93, 3.94,  68.23,   0.11,  -1.63, -27.05,  -3.11,   6.90,   0.07,  -0.52,  -0.11,   2.07, 3.94, 3.92, 0.00, 0.00, 0.00, 1, 1,  9,  41.4881731, -89.4985709,   238.0, 2026,  5, 24, 19, 20, 20,        0,        0,   0,   0,   1.7,   1.0,   1.4,  0,  0,  0,  0, 22,  0,  0,  0,  0,  0, 22,  0,  0,  0, 28, 32,  0, 30,  0, 18, 24,  0, 27,  0, 23, 22,  0,  0, 21,  0,  0,  0
6, 11115, 8,KC9SZP,     0.04, 3,   boost,   58.84,  99249.00,  174.26,    2.03,    8.16, 40.8, 0.00, 3.93, 3.94,  67.08,  -2.73,  -2.35,  -9.65,  -1.34,   5.74,   0.07,  -0.52,  -0.11,   2.06, 3.94, 3.92, 0.00, 0.00, 0.00, 1, 1,  9,  41.4881731, -89.4985709,   238.0, 2026,  5, 24, 19, 20, 20,        0,        0,   0,   0,   1.7,   1.0,   1.4,  0,  0,  0,  0, 22,  0,  0,  0,  0,  0, 22,  0,  0,  0, 28, 32,  0, 30,  0, 18, 24,  0, 27,  0, 23, 22,  0,  0, 21,  0,  0,  0
6, 11115, 8,KC9SZP,     0.05, 3,   boost,   57.86,  99249.00,  174.26,    2.03,    8.74, 40.8, 0.00, 3.93, 3.94,  67.05,  -1.59,  -3.13,   2.43,  -1.04,   5.07,   0.07,  -0.50,  -0.11,   2.05, 3.94, 3.92, 0.00, 0.00, 0.00, 1, 1,  9,  41.4881731, -89.4985709,   238.0, 2026,  5, 24, 19, 20, 20,        0,        0,   0,   0,   1.7,   1.0,   1.4,  0,  0,  0,  0, 22,  0,  0,  0,  0,  0, 22,  0,  0,  0, 28, 32,  0, 30,  0, 18, 24,  0, 27,  0, 23, 22,  0,  0, 21,  0,  0,  0
6, 11115, 8,KC9SZP,     0.06, 3,   boost,   57.86,  99244.00,  174.69,    2.45,    9.32, 40.8, 0.00, 3.93, 3.94,  66.33,   0.04,  -2.84,  19.95,  -0.67,   4.22,   0.06,  -0.50,  -0.11,   2.04, 3.94, 3.92, 0.00, 0.00, 0.00, 1, 1,  9,  41.4881731, -89.4985709,   238.0, 2026,  5, 24, 19, 20, 20,        0,        0,   0,   0,   1.7,   1.0,   1.4,  0,  0,  0,  0, 22,  0,  0,  0,  0,  0, 22,  0,  0,  0, 28, 32,  0, 30,  0, 18, 24,  0, 27,  0, 23, 22,  0,  0, 21,  0,  0,  0
6, 11115, 8,KC9SZP,     0.07, 3,   boost,   57.37,  99244.00,  174.69,    2.45,    9.91, 40.8, 0.00, 3.93, 3.94,  67.25,   0.93,  -2.64,   0.78,  -6.16,   4.16,   0.05,  -0.49,  -0.11,   1.99, 3.94, 3.92, 0.00, 0.00, 0.00, 1, 1,  9,  41.4881731, -89.4985709,   238.0, 2026,  5, 24, 19, 20, 20,        0,        0,   0,   0,   1.7,   1.0,   1.4,  0,  0,  0,  0, 22,  0,  0,  0,  0,  0, 22,  0,  0,  0, 28, 32,  0, 30,  0, 18, 24,  0, 27,  0, 23, 22,  0,  0, 21,  0,  0,  0
6, 11115, 8,KC9SZP,     0.08, 3,   boost,   59.82,  99242.00,  174.85,    2.62,   10.49, 40.8, 0.00, 3.93, 3.94,  66.68,  -0.70,  -2.65,  42.84,   4.95,   1.59,   0.05,  -0.49,  -0.10,   2.04, 3.94, 3.92, 0.00, 0.00, 0.00, 1, 1,  9,  41.4881731, -89.4985709,   238.0, 2026,  5, 24, 19, 20, 20,        0,        0,   0,   0,   1.7,   1.0,   1.4,  0,  0,  0,  0, 22,  0,  0,  0,  0,  0, 22,  0,  0,  0, 28, 32,  0, 30,  0, 18, 24,  0, 27,  0, 23, 22,  0,  0, 21,  0,  0,  0
6, 11115, 8,KC9SZP,     0.09, 3,   boost,   57.37,  99242.00,  174.85,    2.62,   11.08, 40.8, 0.00, 3.93, 3.94,  66.52,   0.18,  -2.49,  63.77,   7.08,   0.43,   0.04,  -0.48,  -0.10,   2.11, 3.94, 3.92, 0.00, 0.00, 0.00, 1, 1,  9,  41.4881731, -89.4985709,   238.0, 2026,  5, 24, 19, 20, 20,        0,        0,   0,   0,   1.7,   1.0,   1.4,  0,  0,  0,  0, 22,  0,  0,  0,  0,  0, 22,  0,  0,  0, 28, 32,  0, 30,  0, 18, 24,  0, 27,  0, 23, 22,  0,  0, 21,  0,  0,  0
6, 11115, 8,KC9SZP,     0.10, 3,   boost,   59.82,  99245.00,  174.60,    2.37,   11.67, 40.8, 0.00, 3.93, 3.94,  67.22,  -0.08,  -2.31,  53.82,   3.30,   1.17,   0.04,  -0.49,  -0.10,   2.14, 3.94, 3.92, 0.00, 0.00, 0.00, 1, 1,  9,  41.4881731, -89.4985709,   238.0, 2026,  5, 24, 19, 20, 20,        0,        0,   0,   0,   1.7,   1.0,   1.4,  0,  0,  0,  0, 22,  0,  0,  0,  0,  0, 22,  0,  0,  0, 28, 32,  0, 30,  0, 18, 24,  0, 27,  0, 23, 22,  0,  0, 21,  0,  0,  0
6, 11115, 8,KC9SZP,     0.11, 3,   boost,   61.78,  99245.00,  174.60,    2.37,   12.26, 40.8, 0.00, 3.93, 3.94,  68.37,  -0.43,  -1.34,  63.10,   3.05,  -0.30,   0.04,  -0.49,  -0.10,   2.17, 3.94, 3.92, 0.00, 0.00, 0.00, 1, 1,  9,  41.4881731, -89.4985709,   238.0, 2026,  5, 24, 19, 20, 20,        0,        0,   0,   0,   1.7,   1.0,   1.4,  0,  0,  0,  0, 22,  0,  0,  0,  0,  0, 22,  0,  0,  0, 28, 32,  0, 30,  0, 18, 24,  0, 27,  0, 23, 22,  0,  0, 21,  0,  0,  0
6, 11115, 8,KC9SZP,     0.12, 3,   boost,   58.35,  99247.00,  174.43,    2.20,   12.85, 40.8, 0.00, 3.93, 3.94,  68.62,  -0.01,  -1.10,  67.86,   2.02,   0.49,   0.03,  -0.49,  -0.09,   2.19, 3.94, 3.92, 0.00, 0.00, 0.00, 1, 1,  9,  41.4881731, -89.4985709,   238.0, 2026,  5, 24, 19, 20, 20,        0,        0,   0,   0,   1.7,   1.0,   1.4,  0,  0,  0,  0, 22,  0,  0,  0,  0,  0, 22,  0,  0,  0, 28, 32,  0, 30,  0, 18, 24,  0, 27,  0, 23, 22,  0,  0, 21,  0,  0,  0
6, 11115, 8,KC9SZP,     0.13, 3,   boost,   58.35,  99247.00,  174.43,    2.20,   13.44, 40.8, 0.00, 3.93, 3.94,  68.44,   1.92,  -1.08,  66.33,   1.65,   0.80,   0.03,  -0.49,  -0.09,   2.21, 3.94, 3.92, 0.00, 0.00, 0.00, 1, 1,  9,  41.4881731, -89.4985709,   238.0, 2026,  5, 24, 19, 20, 20,        0,        0,   0,   0,   1.7,   1.0,   1.4,  0,  0,  0,  0, 22,  0,  0,  0,  0,  0, 22,  0,  0,  0, 28, 32,  0, 30,  0, 18, 24,  0, 27,  0, 23, 22,  0,  0, 21,  0,  0,  0
6, 11115, 8,KC9SZP,     0.14, 3,   boost,   59.33,  99234.00,  175.53,    3.30,   14.03, 40.8, 0.00, 3.93, 3.94,  68.26,   0.76,  -1.53,  60.29,   1.65,   0.86,   0.03,  -0.49,  -0.09,   2.23, 3.94, 3.92, 0.00, 0.00, 0.00, 1, 1,  9,  41.4881731, -89.4985709,   238.0, 2026,  5, 24, 19, 20, 20,        0,        0,   0,   0,   1.7,   1.0,   1.4,  0,  0,  0,  0, 22,  0,  0,  0,  0,  0, 22,  0,  0,  0, 28, 32,  0, 30,  0, 18, 24,  0, 27,  0, 23, 22,  0,  0, 21,  0,  0,  0
6, 11115, 8,KC9SZP,     0.15, 3,   boost,   58.84,  99234.00,  175.53,    3.30,   14.62, 40.8, 0.00, 3.93, 3.94,  68.36,   0.52,  -1.57,  62.37,   1.10,   0.37,   0.04,  -0.49,  -0.09,   2.24, 3.94, 3.92, 0.00, 0.00, 0.00, 1, 1,  9,  41.4881731, -89.4985709,   238.0, 2026,  5, 24, 19, 20, 20,        0,        0,   0,   0,   1.7,   1.0,   1.4,  0,  0,  0,  0, 22,  0,  0,  0,  0,  0, 22,  0,  0,  0, 28, 32,  0, 30,  0, 18, 24,  0, 27,  0, 23, 22,  0,  0, 21,  0,  0,  0
6, 11115, 8,KC9SZP,     0.16, 3,   boost,   56.39,  99239.00,  175.11,    2.88,   15.20, 40.8, 0.00, 3.93, 3.94,  68.30,   1.93,  -1.06,  60.29,   0.43,   2.32,   0.04,  -0.49,  -0.10,   2.25, 3.94, 3.92, 0.00, 0.00, 0.00, 1, 1,  9,  41.4881731, -89.4985709,   238.0, 2026,  5, 24, 19, 20, 20,        0,        0,   0,   0,   1.7,   1.0,   1.4,  0,  0,  0,  0, 22,  0,  0,  0,  0,  0, 22,  0,  0,  0, 28, 32,  0, 30,  0, 18, 24,  0, 27,  0, 23, 22,  0,  0, 21,  0,  0,  0
6, 11115, 8,KC9SZP,     0.17, 3,   boost,   58.35,  99239.00,  175.11,    2.88,   15.78, 40.8, 0.00, 3.93, 3.94,  68.17,   1.28,  -2.00,  53.27,   0.61,   0.62,   0.03,  -0.50,  -0.10,   2.26, 3.94, 3.92, 0.00, 0.00, 0.00, 1, 1,  9,  41.4881731, -89.4985709,   238.0, 2026,  5, 24, 19, 20, 20,        0,        0,   0,   0,   1.7,   1.0,   1.4,  0,  0,  0,  0, 22,  0,  0,  0,  0,  0, 22,  0,  0,  0, 28, 32,  0, 30,  0, 18, 24,  0, 27,  0, 23, 22,  0,  0, 21,  0,  0,  0
6, 11115, 8,KC9SZP,     0.18, 3,   boost,   58.84,  99236.00,  175.36,    3.13,   16.36, 40.8, 0.00, 3.93, 3.94,  68.91,  -0.26,  -1.30,  68.04,  -1.83,   1.71,   0.03,  -0.50,  -0.10,   2.24, 3.94, 3.92, 0.00, 0.00, 0.00, 1, 1,  9,  41.4881731, -89.4985709,   238.0, 2026,  5, 24, 19, 20, 20,        0,        0,   0,   0,   1.7,   1.0,   1.4,  0,  0,  0,  0, 22,  0,  0,  0,  0,  0, 22,  0,  0,  0, 28, 32,  0, 30,  0, 18, 24,  0, 27,  0, 23, 22,  0,  0, 21,  0,  0,  0
6, 11115, 8,KC9SZP,     0.19, 3,   boost,   60.31,  99236.00,  175.36,    3.13,   16.95, 40.8, 0.00, 3.93, 3.94,  67.99,   1.07,  -0.52,  68.10,  -0.73,   1.65,   0.03,  -0.51,  -0.10,   2.24, 3.94, 3.92, 0.00, 0.00, 0.00, 1, 1,  9,  41.4881731, -89.4985709,   238.0, 2026,  5, 24, 19, 20, 20,        0,        0,   0,   0,   1.7,   1.0,   1.4,  0,  0,  0,  0, 22,  0,  0,  0,  0,  0, 22,  0,  0,  0, 28, 32,  0, 30,  0, 18, 24,  0, 27,  0, 23, 22,  0,  0, 21,  0,  0,  0
6, 11115, 8,KC9SZP,     0.20, 3,   boost,   56.39,  99218.00,  176.89,    4.66,   17.53, 40.8, 0.00, 3.93, 3.94,  67.97,   1.31,  -2.58,  67.98,  -1.77,   1.96,   0.04,  -0.51,  -0.10,   2.23, 3.94, 3.92, 0.00, 0.00, 0.00, 1, 1,  9,  41.4881731, -89.4985709,   238.0, 2026,  5, 24, 19, 20, 20,        0,        0,   0,   0,   1.7,   1.0,   1.4,  0,  0,  0,  0, 22,  0,  0,  0,  0,  0, 22,  0,  0,  0, 28, 32,  0, 30,  0, 18, 24,  0, 27,  0, 23, 22,  0,  0, 21,  0,  0,  0
6, 11115, 8,KC9SZP,     0.21, 3,   boost,   57.86,  99218.00,  176.89,    4.66,   18.11, 40.8, 0.00, 3.93, 3.94,  68.64,   1.13,  -1.93,  67.98,  -2.68,   2.14,   0.04,  -0.51,  -0.11,   2.21, 3.94, 3.92, 0.00, 0.00, 0.00, 1, 1,  9,  41.4881731, -89.4985709,   238.0, 2026,  5, 24, 19, 20, 20,        0,        0,   0,   0,   1.7,   1.0,   1.4,  0,  0,  0,  0, 22,  0,  0,  0,  0,  0, 22,  0,  0,  0, 28, 32,  0, 30,  0, 18, 24,  0, 27,  0, 23, 22,  0,  0, 21,  0,  0,  0
6, 11115, 8,KC9SZP,     0.22, 3,   boost,   57.86,  99227.00,  176.12,    3.89,   18.69, 40.8, 0.00, 3.93, 3.94,  67.97,   0.01,  -0.84,  68.29,  -3.66,   2.57,   0.04,  -0.51,  -0.11,   2.18, 3.94, 3.92, 0.00, 0.00, 0.00, 1, 1,  9,  41.4881731, -89.4985709,   238.0, 2026,  5, 24, 19, 20, 20,        0,        0,   0,   0,   1.7,   1.0,   1.4,  0,  0,  0,  0, 22,  0,  0,  0,  0,  0, 22,  0,  0,  0, 28, 32,  0, 30,  0, 18, 24,  0, 27,  0, 23, 22,  0,  0, 21,  0,  0,  0
6, 11115, 8,KC9SZP,     0.23, 3,   boost,   57.37,  99227.00,  176.12,    3.89,   19.27, 40.8, 0.00, 3.93, 3.94,  68.10,   1.16,  -1.14,  68.96,  -3.36,   3.12,   0.04,  -0.51,  -0.11,   2.16, 3.94, 3.92, 0.00, 0.00, 0.00, 1, 1,  9,  41.4881731, -89.4985709,   238.0, 2026,  5, 24, 19, 20, 20,        0,        0,   0,   0,   1.7,   1.0,   1.4,  0,  0,  0,  0, 22,  0,  0,  0,  0,  0, 22,  0,  0,  0, 28, 32,  0, 30,  0, 18, 24,  0, 27,  0, 23, 22,  0,  0, 21,  0,  0,  0
6, 11115, 8,KC9SZP,     0.24, 3,   boost,   58.84,  99215.00,  177.14,    4.91,   19.85, 40.8, 0.00, 3.93, 3.94,  68.20,   1.33,  -2.49,  69.33,  -3.90,   2.75,   0.04,  -0.51,  -0.11,   2.14, 3.94, 3.92, 0.00, 0.00, 0.00, 1, 1,  9,  41.4881731, -89.4985709,   238.0, 2026,  5, 24, 19, 20, 20,        0,        0,   0,   0,   1.7,   1.0,   1.4,  0,  0,  0,  0, 22,  0,  0,  0,  0,  0, 22,  0,  0,  0, 28, 32,  0, 30,  0, 18, 24,  0, 27,  0, 23, 22,  0,  0, 21,  0,  0,  0
6, 11115, 8,KC9SZP,     0.25, 3,   boost,   57.37,  99215.00,  177.14,    4.91,   20.43, 40.8, 0.00, 3.93, 3.94,  68.25,   0.73,  -1.88,  70.30,  -4.58,   3.00,   0.04,  -0.51,  -0.11,   2.11, 3.94, 3.92, 0.00, 0.00, 0.00, 1, 1,  9,  41.4881731, -89.4985709,   238.0, 2026,  5, 24, 19, 20, 20,        0,        0,   0,   0,   1.7,   1.0,   1.4,  0,  0,  0,  0, 22,  0,  0,  0,  0,  0, 22,  0,  0,  0, 28, 32,  0, 30,  0, 18, 24,  0, 27,  0, 23, 22,  0,  0, 21,  0,  0,  0
6, 11115, 8,KC9SZP,     0.26, 3,   boost,   59.82,  99207.00,  177.82,    5.59,   21.01, 40.8, 0.00, 3.93, 3.94,  68.25,   0.15,  -1.16,  71.95,  -4.58,   3.00,   0.04,  -0.52,  -0.11,   2.08, 3.94, 3.92, 0.00, 0.00, 0.00, 1, 1,  9,  41.4881731, -89.4985709,   238.0, 2026,  5, 24, 19, 20, 20,        0,        0,   0,   0,   1.7,   1.0,   1.4,  0,  0,  0,  0, 22,  0,  0,  0,  0,  0, 22,  0,  0,  0, 28, 32,  0, 30,  0, 18, 24,  0, 27,  0, 23, 22,  0,  0, 21,  0,  0,  0
6, 11115, 8,KC9SZP,     0.27, 3,   boost,   59.33,  99207.00,  177.82,    5.59,   21.60, 40.8, 0.00, 3.93, 3.94,  68.78,   1.13,  -2.15,  73.78,  -4.94,   3.30,   0.04,  -0.52,  -0.11,   2.05, 3.94, 3.92, 0.00, 0.00, 0.00, 1, 1,  9,  41.4881731, -89.4985709,   238.0, 2026,  5, 24, 19, 20, 20,        0,        0,   0,   0,   1.7,   1.0,   1.4,  0,  0,  0,  0, 22,  0,  0,  0,  0,  0, 22,  0,  0,  0, 28, 32,  0, 30,  0, 18, 24,  0, 27,  0, 23, 22,  0,  0, 21,  0,  0,  0
6, 11115, 8,KC9SZP,     0.28, 3,   boost,   58.35,  99198.00,  178.58,    6.35,   22.18, 40.8, 0.00, 3.93, 3.94,  68.81,   0.99,  -2.50,  74.39,  -5.49,   2.63,   0.04,  -0.52,  -0.11,   2.02, 3.94, 3.92, 0.00, 0.00, 0.00, 1, 1,  9,  41.4881731, -89.4985709,   238.0, 2026,  5, 24, 19, 20, 20,        0,        0,   0,   0,   1.7,   1.0,   1.4,  0,  0,  0,  0, 22,  0,  0,  0,  0,  0, 22,  0,  0,  0, 28, 32,  0, 30,  0, 18, 24,  0, 27,  0, 23, 22,  0,  0, 21,  0,  0,  0
6, 11115, 8,KC9SZP,     0.29, 3,   boost,   57.86,  99198.00,  178.58,    6.35,   22.76, 40.8, 0.00, 3.93, 3.94,  69.37,  -0.29,  -1.87,  75.19,  -5.80,   2.45,   0.04,  -0.53,  -0.11,   1.98, 3.94, 3.92, 0.00, 0.00, 0.00, 1, 1,  9,  41.4881731, -89.4985709,   238.0, 2026,  5, 24, 19, 20, 20,        0,        0,   0,   0,   1.7,   1.0,   1.4,  0,  0,  0,  0, 22,  0,  0,  0,  0,  0, 22,  0,  0,  0, 28, 32,  0, 30,  0, 18, 24,  0, 27,  0, 23, 22,  0,  0, 21,  0,  0,  0
6, 11115, 8,KC9SZP,     0.30, 3,   boost,   56.39,  99199.00,  178.50,    6.26,   23.35, 40.8, 0.00, 3.93, 3.94,  68.78,  -0.03,  -1.39,  76.83,  -5.86,   2.39,   0.04,  -0.53,  -0.11,   1.95, 3.94, 3.92, 0.00, 0.00, 0.00, 1, 1,  9,  41.4881731, -89.4985709,   238.0, 2026,  5, 24, 19, 20, 20,        0,        0,   0,   0,   1.7,   1.0,   1.4,  0,  0,  0,  0, 22,  0,  0,  0,  0,  0, 22,  0,  0,  0, 28, 32,  0, 30,  0, 18, 24,  0, 27,  0, 23, 22,  0,  0, 21,  0,  0,  0
6, 11115, 8,KC9SZP,     0.31, 3,   boost,   58.84,  99199.00,  178.50,    6.26,   23.93, 40.8, 0.00, 3.93, 3.94,  67.94,   0.93,  -2.30,  77.93,  -5.86,   2.20,   0.04,  -0.54,  -0.11,   1.91, 3.94, 3.92, 0.00, 0.00, 0.00, 1, 1,  9,  41.4881731, -89.4985709,   238.0, 2026,  5, 24, 19, 20, 20,        0,        0,   0,   0,   1.7,   1.0,   1.4,  0,  0,  0,  0, 22,  0,  0,  0,  0,  0, 22,  0,  0,  0, 28, 32,  0, 30,  0, 18, 24,  0, 27,  0, 23, 22,  0,  0, 21,  0,  0,  0
6, 11115, 8,KC9SZP,     0.32, 3,   boost,   59.33,  99184.00,  179.77,    7.54,   24.51, 40.8, 0.00, 3.93, 3.94,  68.04,   0.60,  -2.15,  77.69,  -6.71,   1.23,   0.04,  -0.54,  -0.10,   1.87, 3.94, 3.92, 0.00, 0.00, 0.00, 1, 1,  9,  41.4881731, -89.4985709,   238.0, 2026,  5, 24, 19, 20, 20,        0,        0,   0,   0,   1.7,   1.0,   1.4,  0,  0,  0,  0, 22,  0,  0,  0,  0,  0, 22,  0,  0,  0, 28, 32,  0, 30,  0, 18, 24,  0, 27,  0, 23, 22,  0,  0, 21,  0,  0,  0
6, 11115, 8,KC9SZP,     0.33, 3,   boost,   57.37,  99184.00,  179.77,    7.54,   25.09, 40.8, 0.00, 3.93, 3.94,  68.24,  -0.34,  -1.70,  77.69,  -6.41,   1.41,   0.04,  -0.54,  -0.10,   1.83, 3.94, 3.92, 0.00, 0.00, 0.00, 1, 1,  9,  41.4881731, -89.4985709,   238.0, 2026,  5, 24, 19, 20, 20,        0,        0,   0,   0,   1.7,   1.0,   1.4,  0,  0,  0,  0, 22,  0,  0,  0,  0,  0, 22,  0,  0,  0, 28, 32,  0, 30,  0, 18, 24,  0, 27,  0, 23, 22,  0,  0, 21,  0,  0,  0
6, 11115, 8,KC9SZP,     0.34, 3,   boost,   56.88,  99174.00,  180.61,    8.38,   25.67, 40.8, 0.01, 3.94, 3.93,  68.14,   0.11,  -1.80,  77.63,  -6.83,   0.37,   0.04,  -0.54,  -0.10,   1.79, 3.96, 3.95, 0.00, 0.00, 0.28, 1, 1,  9,  41.4881731, -89.4985709,   238.0, 2026,  5, 24, 19, 20, 20,        0,        0,   0,   0,   1.7,   1.0,   1.4,  0,  0,  0,  0, 22,  0,  0,  0,  0,  0, 22,  0,  0,  0, 28, 32,  0, 30,  0, 18, 24,  0, 27,  0, 23, 22,  0,  0, 21,  0,  0,  0
6, 11115, 8,KC9SZP,     0.34, 3,   boost,   56.88,  99174.00,  180.61,    8.38,   25.67, 40.8, 0.01, 3.94, 3.93,  68.14,   0.11,  -1.80,  77.63,  -6.83,   0.37,   0.04,  -0.54,  -0.10,   1.79, 3.96, 3.95, 0.00, 0.00, 0.28, 1, 1,  9,  41.4881731, -89.4985709,   238.0, 2026,  5, 24, 19, 20, 20,        0,        0,   0,   0,   1.7,   1.0,   1.4,  0,  0,  0,  0, 22,  0,  0,  0,  0,  0, 22,  0,  0,  0, 28, 32,  0, 30,  0, 18, 24,  0, 27,  0, 23, 22,  0,  0, 21,  0,  0,  0
6, 11115, 8,KC9SZP,     0.35, 3,   boost,   57.86,  99174.00,  180.61,    8.38,   26.25, 40.8, 0.01, 3.94, 3.93,  68.33,   0.54,  -2.53,  78.54,  -6.71,   0.13,   0.04,  -0.55,  -0.10,   1.74, 3.96, 3.95, 0.00, 0.00, 0.28, 1, 1,  9,  41.4881731, -89.4985709,   238.0, 2026,  5, 24, 19, 20, 20,        0,        0,   0,   0,   1.7,   1.0,   1.4,  0,  0,  0,  0, 22,  0,  0,  0,  0,  0, 22,  0,  0,  0, 28, 32,  0, 30,  0, 18, 24,  0, 27,  0, 23, 22,  0,  0, 21,  0,  0,  0
6, 11115, 8,KC9SZP,     0.36, 3,   boost,   60.80,  99171.00,  180.87,    8.64,   26.84, 40.8, 0.01, 3.94, 3.93,  68.45,   0.11,  -2.20,  79.09,  -7.63,  -0.48,   0.04,  -0.55,  -0.10,   1.69, 3.96, 3.95, 0.00, 0.00, 0.28, 1, 1,  9,  41.4881731, -89.4985709,   238.0, 2026,  5, 24, 19, 20, 20,        0,        0,   0,   0,   1.7,   1.0,   1.4,  0,  0,  0,  0, 22,  0,  0,  0,  0,  0, 22,  0,  0,  0, 28, 32,  0, 30,  0, 18, 24,  0, 27,  0, 23, 22,  0,  0, 21,  0,  0,  0
6, 11115, 8,KC9SZP,     0.37, 3,   boost,   59.82,  99171.00,  180.87,    8.64,   27.43, 40.8, 0.01, 3.94, 3.93,  68.82,   0.16,  -1.88,  80.07,  -7.44,  -0.73,   0.04,  -0.55,  -0.10,   1.64, 3.96, 3.95, 0.00, 0.00, 0.28, 1, 1,  9,  41.4881731, -89.4985709,   238.0, 2026,  5, 24, 19, 20, 20,        0,        0,   0,   0,   1.7,   1.0,   1.4,  0,  0,  0,  0, 22,  0,  0,  0,  0,  0, 22,  0,  0,  0, 28, 32,  0, 30,  0, 18, 24,  0, 27,  0, 23, 22,  0,  0, 21,  0,  0,  0
6, 11115, 8,KC9SZP,     0.38, 3,   boost,   58.35,  99161.00,  181.71,    9.48,   28.02, 40.8, 0.01, 3.94, 3.93,  69.54,   0.41,  -2.41,  80.74,  -7.69,  -1.52,   0.04,  -0.56,  -0.10,   1.58, 3.96, 3.95, 0.00, 0.00, 0.28, 1, 1,  9,  41.4881731, -89.4985709,   238.0, 2026,  5, 24, 19, 20, 20,        0,        0,   0,   0,   1.7,   1.0,   1.4,  0,  0,  0,  0, 22,  0,  0,  0,  0,  0, 22,  0,  0,  0, 28, 32,  0, 30,  0, 18, 24,  0, 27,  0, 23, 22,  0,  0, 21,  0,  0,  0
6, 11115, 8,KC9SZP,     0.39, 3,   boost,   57.86,  99161.00,  181.71,    9.48,   28.61, 40.8, 0.01, 3.94, 3.93,  68.88,   0.24,  -2.12,  80.50,  -7.81,  -2.01,   0.04,  -0.56,  -0.10,   1.52, 3.96, 3.95, 0.00, 0.00, 0.28, 1, 1,  9,  41.4881731, -89.4985709,   238.0, 2026,  5, 24, 19, 20, 20,        0,        0,   0,   0,   1.7,   1.0,   1.4,  0,  0,  0,  0, 22,  0,  0,  0,  0,  0, 22,  0,  0,  0, 28, 32,  0, 30,  0, 18, 24,  0, 27,  0, 23, 22,  0,  0, 21,  0,  0,  0
6, 11115, 8,KC9SZP,     0.40, 3,   boost,   60.80,  99136.00,  183.83,   11.60,   29.20, 40.8, 0.01, 3.94, 3.93,  69.53,  -0.04,  -2.16,  80.37,  -7.99,  -2.50,   0.04,  -0.56,  -0.10,   1.46, 3.96, 3.95, 0.00, 0.00, 0.28, 1, 1,  9,  41.4881731, -89.4985709,   238.0, 2026,  5, 24, 19, 20, 20,        0,        0,   0,   0,   1.7,   1.0,   1.4,  0,  0,  0,  0, 22,  0,  0,  0,  0,  0, 22,  0,  0,  0, 28, 32,  0, 30,  0, 18, 24,  0, 27,  0, 23, 22,  0,  0, 21,  0,  0,  0
6, 11115, 8,KC9SZP,     0.41, 3,   boost,   59.33,  99136.00,  183.83,   11.60,   29.80, 40.8, 0.01, 3.94, 3.93,  69.42,   0.48,  -2.36,  79.82,  -7.99,  -2.74,   0.04,  -0.56,  -0.10,   1.40, 3.96, 3.95, 0.00, 0.00, 0.28, 1, 1,  9,  41.4881731, -89.4985709,   238.0, 2026,  5, 24, 19, 20, 20,        0,        0,   0,   0,   1.7,   1.0,   1.4,  0,  0,  0,  0, 22,  0,  0,  0,  0,  0, 22,  0,  0,  0, 28, 32,  0, 30,  0, 18, 24,  0, 27,  0, 23, 22,  0,  0, 21,  0,  0,  0
6, 11115, 8,KC9SZP,     0.42, 3,   boost,   60.31,  99150.00,  182.65,   10.42,   30.40, 40.8, 0.01, 3.94, 3.93,  69.20,   0.61,  -2.56,  78.91,  -7.99,  -3.35,   0.04,  -0.57,  -0.10,   1.34, 3.96, 3.95, 0.00, 0.00, 0.28, 1, 1,  9,  41.4881731, -89.4985709,   238.0, 2026,  5, 24, 19, 20, 20,        0,        0,   0,   0,   1.7,   1.0,   1.4,  0,  0,  0,  0, 22,  0,  0,  0,  0,  0, 22,  0,  0,  0, 28, 32,  0, 30,  0, 18, 24,  0, 27,  0, 23, 22,  0,  0, 21,  0,  0,  0
6, 11115, 8,KC9SZP,     0.43, 3,   boost,   60.31,  99150.00,  182.65,   10.42,   31.01, 40.8, 0.01, 3.94, 3.93,  69.31,   0.11,  -2.14,  76.96,  -7.81,  -3.72,   0.04,  -0.57,  -0.10,   1.27, 3.96, 3.95, 0.00, 0.00, 0.28, 1, 1,  9,  41.4881731, -89.4985709,   238.0, 2026,  5, 24, 19, 20, 20,        0,        0,   0,   0,   1.7,   1.0,   1.4,  0,  0,  0,  0, 22,  0,  0,  0,  0,  0, 22,  0,  0,  0, 28, 32,  0, 30,  0, 18, 24,  0, 27,  0, 23, 22,  0,  0, 21,  0,  0,  0
6, 11115, 8,KC9SZP,     0.44, 3,   boost,   61.78,  99132.00,  184.17,   11.94,   31.61, 40.8, 0.01, 3.94, 3.93,  69.26,   0.57,  -2.35,  74.51,  -7.93,  -3.90,   0.04,  -0.57,  -0.10,   1.22, 3.96, 3.95, 0.00, 0.00, 0.28, 1, 1,  9,  41.4881731, -89.4985709,   238.0, 2026,  5, 24, 19, 20, 20,        0,        0,   0,   0,   1.7,   1.0,   1.4,  0,  0,  0,  0, 22,  0,  0,  0,  0,  0, 22,  0,  0,  0, 28, 32,  0, 30,  0, 18, 24,  0, 27,  0, 23, 22,  0,  0, 21,  0,  0,  0
6, 11115, 8,KC9SZP,     0.45, 3,   boost,   63.74,  99132.00,  184.17,   11.94,   32.22, 40.8, 0.01, 3.94, 3.93,  70.08,   0.84,  -2.32,  71.95,  -7.99,  -4.21,   0.04,  -0.57,  -0.10,   1.16, 3.96, 3.95, 0.00, 0.00, 0.28, 1, 1,  9,  41.4881731, -89.4985709,   238.0, 2026,  5, 24, 19, 20, 20,        0,        0,   0,   0,   1.7,   1.0,   1.4,  0,  0,  0,  0, 22,  0,  0,  0,  0,  0, 22,  0,  0,  0, 28, 32,  0, 30,  0, 18, 24,  0, 27,  0, 23, 22,  0,  0, 21,  0,  0,  0
6, 11115, 8,KC9SZP,     0.46, 3,   boost,   58.35,  99133.00,  184.09,   11.86,   32.82, 40.8, 0.01, 3.94, 3.93,  71.36,   1.19,  -2.18,  69.14,  -7.99,  -4.39,   0.05,  -0.57,  -0.10,   1.10, 3.96, 3.95, 0.00, 0.00, 0.28, 1, 1,  9,  41.4881731, -89.4985709,   238.0, 2026,  5, 24, 19, 20, 20,        0,        0,   0,   0,   1.7,   1.0,   1.4,  0,  0,  0,  0, 22,  0,  0,  0,  0,  0, 22,  0,  0,  0, 28, 32,  0, 30,  0, 18, 24,  0, 27,  0, 23, 22,  0,  0, 21,  0,  0,  0
6, 11115, 8,KC9SZP,     0.47, 3,   boost,   52.96,  99133.00,  184.09,   11.86,   33.42, 40.8, 0.01, 3.94, 3.93,  69.35,   0.96,  -2.51,  66.64,  -7.51,  -4.08,   0.05,  -0.57,  -0.10,   1.06, 3.96, 3.95, 0.00, 0.00, 0.28, 1, 1,  9,  41.4881731, -89.4985709,   238.0, 2026,  5, 24, 19, 20, 20,        0,        0,   0,   0,   1.7,   1.0,   1.4,  0,  0,  0,  0, 22,  0,  0,  0,  0,  0, 22,  0,  0,  0, 28, 32,  0, 30,  0, 18, 24,  0, 27,  0, 23, 22,  0,  0, 21,  0,  0,  0
6, 11115, 8,KC9SZP,     0.48, 3,   boost,   62.76,  99116.00,  185.53,   13.30,   34.02, 40.8, 0.01, 3.94, 3.93,  66.20,   0.93,  -2.75,  63.41,  -7.81,  -4.08,   0.05,  -0.57,  -0.09,   1.02, 3.96, 3.95, 0.00, 0.00, 0.28, 1, 1,  9,  41.4881731, -89.4985709,   238.0, 2026,  5, 24, 19, 20, 20,        0,        0,   0,   0,   1.7,   1.0,   1.4,  0,  0,  0,  0, 22,  0,  0,  0,  0,  0, 22,  0,  0,  0, 28, 32,  0, 30,  0, 18, 24,  0, 27,  0, 23, 22,  0,  0, 21,  0,  0,  0
6, 11115, 8,KC9SZP,     0.49, 3,   boost,   63.25,  99116.00,  185.53,   13.30,   34.63, 40.8, 0.01, 3.94, 3.93,  73.38,   0.87,  -2.61,  59.99,  -7.38,  -3.66,   0.05,  -0.57,  -0.09,   0.99, 3.96, 3.95, 0.00, 0.00, 0.28, 1, 1,  9,  41.4881731, -89.4985709,   238.0, 2026,  5, 24, 19, 20, 20,        0,        0,   0,   0,   1.7,   1.0,   1.4,  0,  0,  0,  0, 22,  0,  0,  0,  0,  0, 22,  0,  0,  0, 28, 32,  0, 30,  0, 18, 24,  0, 27,  0, 23, 22,  0,  0, 21,  0,  0,  0
6, 11115, 8,KC9SZP,     0.50, 3,   boost,   62.76,  99118.00,  185.36,   13.13,   35.24, 40.8, 0.01, 3.94, 3.93,  71.46,   1.07,  -2.36,  56.81,  -6.96,  -3.60,   0.05,  -0.57,  -0.09,   0.97, 3.96, 3.95, 0.00, 0.00, 0.28, 1, 1,  9,  41.4881731, -89.4985709,   238.0, 2026,  5, 24, 19, 20, 20,        0,        0,   0,   0,   1.7,   1.0,   1.4,  0,  0,  0,  0, 22,  0,  0,  0,  0,  0, 22,  0,  0,  0, 28, 32,  0, 30,  0, 18, 24,  0, 27,  0, 23, 22,  0,  0, 21,  0,  0,  0
6, 11115, 8,KC9SZP,     0.51, 3,   boost,   63.74,  99118.00,  185.36,   13.13,   35.86, 40.8, 0.01, 3.94, 3.93,  71.38,   0.85,  -2.88,  53.40,  -6.71,  -3.53,   0.05,  -0.58,  -0.09,   0.95, 3.96, 3.95, 0.00, 0.00, 0.28, 1, 1,  9,  41.4881731, -89.4985709,   238.0, 2026,  5, 24, 19, 20, 20,        0,        0,   0,   0,   1.7,   1.0,   1.4,  0,  0,  0,  0, 22,  0,  0,  0,  0,  0, 22,  0,  0,  0, 28, 32,  0, 30,  0, 18, 24,  0, 27,  0, 23, 22,  0,  0, 21,  0,  0,  0
6, 11115, 8,KC9SZP,     0.52, 3,   boost,   59.82,  99101.00,  186.80,   14.57,   36.48, 40.8, 0.01, 3.94, 3.93,  71.26,   1.14,  -2.86,  50.65,  -6.96,  -3.05,   0.04,  -0.58,  -0.09,   0.95, 3.96, 3.95, 0.00, 0.00, 0.28, 1, 1,  9,  41.4881731, -89.4985709,   238.0, 2026,  5, 24, 19, 20, 20,        0,        0,   0,   0,   1.7,   1.0,   1.4,  0,  0,  0,  0, 22,  0,  0,  0,  0,  0, 22,  0,  0,  0, 28, 32,  0, 30,  0, 18, 24,  0, 27,  0, 23, 22,  0,  0, 21,  0,  0,  0
6, 11115, 8,KC9SZP,     0.53, 3,   boost,   62.76,  99101.00,  186.80,   14.57,   37.10, 40.8, 0.01, 3.94, 3.93,  70.79,   1.08,  -2.42,  47.54,  -6.90,  -2.37,   0.04,  -0.58,  -0.09,   0.96, 3.96, 3.95, 0.00, 0.00, 0.28, 1, 1,  9,  41.4881731, -89.4985709,   238.0, 2026,  5, 24, 19, 20, 20,        0,        0,   0,   0,   1.7,   1.0,   1.4,  0,  0,  0,  0, 22,  0,  0,  0,  0,  0, 22,  0,  0,  0, 28, 32,  0, 30,  0, 18, 24,  0, 27,  0, 23, 22,  0,  0, 21,  0,  0,  0
6, 11115, 8,KC9SZP,     0.54, 3,   boost,   60.31,  99097.00,  187.14,   14.91,   37.71, 40.8, 0.01, 3.94, 3.93,  71.15,   1.16,  -2.70,  43.75,  -6.47,  -2.92,   0.04,  -0.58,  -0.09,   0.96, 3.96, 3.95, 0.00, 0.00, 0.28, 1, 1,  9,  41.4881731, -89.4985709,   238.0, 2026,  5, 24, 19, 20, 20,        0,        0,   0,   0,   1.7,   1.0,   1.4,  0,  0,  0,  0, 22,  0,  0,  0,  0,  0, 22,  0,  0,  0, 28, 32,  0, 30,  0, 18, 24,  0, 27,  0, 23, 22,  0,  0, 21,  0,  0,  0
6, 11115, 8,KC9SZP,     0.55, 3,   boost,   60.31,  99097.00,  187.14,   14.91,   38.32, 40.8, 0.01, 3.94, 3.93,  70.67,   0.93,  -2.88,  40.15,  -6.22,  -2.31,   0.04,  -0.58,  -0.09,   0.98, 3.96, 3.95, 0.00, 0.00, 0.28, 1, 1,  9,  41.4881731, -89.4985709,   238.0, 2026,  5, 24, 19, 20, 20,        0,        0,   0,   0,   1.7,   1.0,   1.4,  0,  0,  0,  0, 22,  0,  0,  0,  0,  0, 22,  0,  0,  0, 28, 32,  0, 30,  0, 18, 24,  0, 27,  0, 23, 22,  0,  0, 21,  0,  0,  0
