#version,serial,flight,call,time,state,state_name,acceleration,pressure,altitude,height,speed,temperature,drogue_voltage,main_voltage,battery_voltage,accel_x,accel_y,accel_z,gyro_roll,gyro_pitch,gyro_yaw,mag_x,mag_y,mag_z,tilt,pyro,igniter_a,igniter_b,igniter_c,igniter_d,connected,locked,nsat,latitude,longitude,altitude,year,month,day,hour,minute,second,pad_dist,pad_range,pad_az,pad_el,pdop,hdop,vdop,sat01,sat02,sat03,sat04,sat05,sat06,sat07,sat08,sat09,sat10,sat11,sat12,sat13,sat14,sat15,sat16,sat17,sat18,sat19,sat20,sat21,sat22,sat23,sat24,sat25,sat26,sat27,sat28,sat29,sat30,sat31,sat32
6, 16162, 5,KC9SZP,    -0.30, 3,   boost,   -0.00,  99178.00,  180.27,    0.25,    0.00, 35.4, 4.02, 4.05, 4.03,  -9.95,  -0.03,   0.16,   0.11,   0.21,   0.02,  -0.59,  -0.33,   0.12,   0.88, 4.03, 0.01, 0.00, 0.00, 0.00, 1, 1, 15,  41.4882115, -89.4985093,   217.0, 2026,  5, 24, 19, 20, 19,        0,        0, 143,   0,   0.7,   0.4,   0.6,  0,  0,  0,  0, 38,  0,  0,  0,  0,  0, 35,  0,  0,  0, 36, 44,  0, 39,  0, 40, 41,  0, 40,  0, 32, 39,  0,  0, 35, 39,  0,  0
6, 16162, 5,KC9SZP,    -0.29, 3,   boost,    0.49,  99178.00,  180.27,    0.25,    0.00, 35.4, 4.02, 4.05, 4.03,  -9.96,  -0.04,   0.07,  -0.01,  -0.28,   0.20,  -0.58,  -0.33,   0.12,   0.88, 4.03, 0.01, 0.00, 0.00, 0.00, 1, 1, 15,  41.4882115, -89.4985093,   217.0, 2026,  5, 24, 19, 20, 19,        0,        0, 143,   0,   0.7,   0.4,   0.6,  0,  0,  0,  0, 38,  0,  0,  0,  0,  0, 35,  0,  0,  0, 36, 44,  0, 39,  0, 40, 41,  0, 40,  0, 32, 39,  0,  0, 35, 39,  0,  0
6, 16162, 5,KC9SZP,    -0.28, 3,   boost,   -0.49,  99186.00,  179.60,   -0.42,    0.01, 35.4, 4.02, 4.05, 4.03,  -9.91,  -0.06,   0.04,   0.23,   0.03,  -0.04,  -0.59,  -0.33,   0.12,   0.88, 4.03, 0.01, 0.00, 0.00, 0.00, 1, 1, 15,  41.4882115, -89.4985093,   217.0, 2026,  5, 24, 19, 20, 19,        0,        0, 143,   0,   0.7,   0.4,   0.6,  0,  0,  0,  0, 38,  0,  0,  0,  0,  0, 35,  0,  0,  0, 36, 44,  0, 39,  0, 40, 41,  0, 40,  0, 32, 39,  0,  0, 35, 39,  0,  0
6, 16162, 5,KC9SZP,    -0.27, 3,   boost,    1.47,  99186.00,  179.60,   -0.42,    0.01, 35.4, 4.02, 4.05, 4.03,  -9.95,  -0.06,   0.01,  -0.19,  -0.10,   0.02,  -0.59,  -0.33,   0.13,   0.88, 4.03, 0.01, 0.00, 0.00, 0.00, 1, 1, 15,  41.4882115, -89.4985093,   217.0, 2026,  5, 24, 19, 20, 19,        0,        0, 143,   0,   0.7,   0.4,   0.6,  0,  0,  0,  0, 38,  0,  0,  0,  0,  0, 35,  0,  0,  0, 36, 44,  0, 39,  0, 40, 41,  0, 40,  0, 32, 39,  0,  0, 35, 39,  0,  0
6, 16162, 5,KC9SZP,    -0.26, 3,   boost,   -0.00,  99181.00,  180.02,    0.00,    0.01, 35.4, 4.02, 4.05, 4.03,  -9.91,  -0.06,   0.07,  -0.01,   0.27,   0.14,  -0.59,  -0.33,   0.12,   0.88, 4.03, 0.01, 0.00, 0.00, 0.00, 1, 1, 15,  41.4882115, -89.4985093,   217.0, 2026,  5, 24, 19, 20, 19,        0,        0, 143,   0,   0.7,   0.4,   0.6,  0,  0,  0,  0, 38,  0,  0,  0,  0,  0, 35,  0,  0,  0, 36, 44,  0, 39,  0, 40, 41,  0, 40,  0, 32, 39,  0,  0, 35, 39,  0,  0
6, 16162, 5,KC9SZP,    -0.25, 3,   boost,    0.49,  99181.00,  180.02,    0.00,    0.01, 35.4, 4.02, 4.05, 4.03,  -9.88,  -0.02,   0.03,  -0.32,  -0.10,   0.08,  -0.59,  -0.33,   0.12,   0.88, 4.03, 0.01, 0.00, 0.00, 0.00, 1, 1, 15,  41.4882115, -89.4985093,   217.0, 2026,  5, 24, 19, 20, 19,        0,        0, 143,   0,   0.7,   0.4,   0.6,  0,  0,  0,  0, 38,  0,  0,  0,  0,  0, 35,  0,  0,  0, 36, 44,  0, 39,  0, 40, 41,  0, 40,  0, 32, 39,  0,  0, 35, 39,  0,  0
6, 16162, 5,KC9SZP,    -0.24, 3,   boost,   -0.49,  99176.00,  180.44,    0.42,    0.01, 35.4, 4.02, 4.05, 4.03,  -9.99,  -0.12,  -0.12,  -0.13,  -0.22,   0.08,  -0.58,  -0.33,   0.12,   0.88, 4.03, 0.01, 0.00, 0.00, 0.00, 1, 1, 15,  41.4882115, -89.4985093,   217.0, 2026,  5, 24, 19, 20, 19,        0,        0, 143,   0,   0.7,   0.4,   0.6,  0,  0,  0,  0, 38,  0,  0,  0,  0,  0, 35,  0,  0,  0, 36, 44,  0, 39,  0, 40, 41,  0, 40,  0, 32, 39,  0,  0, 35, 39,  0,  0
6, 16162, 5,KC9SZP,    -0.23, 3,   boost,    0.49,  99176.00,  180.44,    0.42,    0.01, 35.4, 4.02, 4.05, 4.03,  -9.96,  -0.08,   0.04,   0.05,  -0.28,   0.14,  -0.58,  -0.33,   0.12,   0.88, 4.03, 0.01, 0.00, 0.00, 0.00, 1, 1, 15,  41.4882115, -89.4985093,   217.0, 2026,  5, 24, 19, 20, 19,        0,        0, 143,   0,   0.7,   0.4,   0.6,  0,  0,  0,  0, 38,  0,  0,  0,  0,  0, 35,  0,  0,  0, 36, 44,  0, 39,  0, 40, 41,  0, 40,  0, 32, 39,  0,  0, 35, 39,  0,  0
6, 16162, 5,KC9SZP,    -0.22, 3,   boost,   -0.98,  99186.00,  179.60,   -0.42,    0.01, 35.4, 4.02, 4.05, 4.03,  -9.94,  -0.14,   0.12,  -0.07,  -0.10,   0.02,  -0.58,  -0.33,   0.12,   0.88, 4.03, 0.01, 0.00, 0.00, 0.00, 1, 1, 15,  41.4882115, -89.4985093,   217.0, 2026,  5, 24, 19, 20, 19,        0,        0, 143,   0,   0.7,   0.4,   0.6,  0,  0,  0,  0, 38,  0,  0,  0,  0,  0, 35,  0,  0,  0, 36, 44,  0, 39,  0, 40, 41,  0, 40,  0, 32, 39,  0,  0, 35, 39,  0,  0
6, 16162, 5,KC9SZP,    -0.21, 3,   boost,   -0.98,  99186.00,  179.60,   -0.42,    0.01, 35.4, 4.02, 4.05, 4.03,  -9.83,  -0.16,  -0.08,  -0.25,   0.03,   0.08,  -0.59,  -0.33,   0.12,   0.88, 4.03, 0.01, 0.00, 0.00, 0.00, 1, 1, 15,  41.4882115, -89.4985093,   217.0, 2026,  5, 24, 19, 20, 19,        0,        0, 143,   0,   0.7,   0.4,   0.6,  0,  0,  0,  0, 38,  0,  0,  0,  0,  0, 35,  0,  0,  0, 36, 44,  0, 39,  0, 40, 41,  0, 40,  0, 32, 39,  0,  0, 35, 39,  0,  0
6, 16162, 5,KC9SZP,    -0.20, 3,   boost,   -1.96,  99185.00,  179.68,   -0.34,    0.00, 35.4, 4.02, 4.05, 4.03,  -9.90,  -0.16,   0.11,   0.05,   0.15,   0.14,  -0.59,  -0.33,   0.12,   0.88, 4.03, 0.01, 0.00, 0.00, 0.00, 1, 1, 15,  41.4882115, -89.4985093,   217.0, 2026,  5, 24, 19, 20, 19,        0,        0, 143,   0,   0.7,   0.4,   0.6,  0,  0,  0,  0, 38,  0,  0,  0,  0,  0, 35,  0,  0,  0, 36, 44,  0, 39,  0, 40, 41,  0, 40,  0, 32, 39,  0,  0, 35, 39,  0,  0
6, 16162, 5,KC9SZP,    -0.19, 3,   boost,    0.98,  99185.00,  179.68,   -0.34,    0.00, 35.4, 4.02, 4.05, 4.03,  -9.94,  -0.09,   0.18,   0.05,  -0.03,  -0.35,  -0.59,  -0.33,   0.12,   0.88, 4.03, 0.01, 0.00, 0.00, 0.00, 1, 1, 15,  41.4882115, -89.4985093,   217.0, 2026,  5, 24, 19, 20, 19,        0,        0, 143,   0,   0.7,   0.4,   0.6,  0,  0,  0,  0, 38,  0,  0,  0,  0,  0, 35,  0,  0,  0, 36, 44,  0, 39,  0, 40, 41,  0, 40,  0, 32, 39,  0,  0, 35, 39,  0,  0
6, 16162, 5,KC9SZP,    -0.18, 3,   boost,   -0.00,  99182.00,  179.94,   -0.08,    0.00, 35.4, 4.02, 4.05, 4.03, -10.00,  -0.16,   0.16,   0.11,   0.03,  -0.04,  -0.58,  -0.33,   0.12,   0.88, 4.03, 0.01, 0.00, 0.00, 0.00, 1, 1, 15,  41.4882115, -89.4985093,   217.0, 2026,  5, 24, 19, 20, 19,        0,        0, 143,   0,   0.7,   0.4,   0.6,  0,  0,  0,  0, 38,  0,  0,  0,  0,  0, 35,  0,  0,  0, 36, 44,  0, 39,  0, 40, 41,  0, 40,  0, 32, 39,  0,  0, 35, 39,  0,  0
6, 16162, 5,KC9SZP,    -0.17, 3,   boost,    0.49,  99182.00,  179.94,   -0.08,    0.01, 35.4, 4.02, 4.05, 4.03,  -9.91,  -0.17,   0.23,   0.05,  -0.03,   0.02,  -0.58,  -0.33,   0.12,   0.88, 4.03, 0.01, 0.00, 0.00, 0.00, 1, 1, 15,  41.4882115, -89.4985093,   217.0, 2026,  5, 24, 19, 20, 19,        0,        0, 143,   0,   0.7,   0.4,   0.6,  0,  0,  0,  0, 38,  0,  0,  0,  0,  0, 35,  0,  0,  0, 36, 44,  0, 39,  0, 40, 41,  0, 40,  0, 32, 39,  0,  0, 35, 39,  0,  0
6, 16162, 5,KC9SZP,    -0.16, 3,   boost,    7.85,  99193.00,  179.00,   -1.02,    0.01, 35.4, 4.02, 4.05, 4.03, -10.53,  -0.09,   0.30,  -0.13,  -0.10,  -0.10,  -0.58,  -0.33,   0.13,   0.88, 4.03, 0.01, 0.00, 0.00, 0.00, 1, 1, 15,  41.4882115, -89.4985093,   217.0, 2026,  5, 24, 19, 20, 19,        0,        0, 143,   0,   0.7,   0.4,   0.6,  0,  0,  0,  0, 38,  0,  0,  0,  0,  0, 35,  0,  0,  0, 36, 44,  0, 39,  0, 40, 41,  0, 40,  0, 32, 39,  0,  0, 35, 39,  0,  0
6, 16162, 5,KC9SZP,    -0.15, 3,   boost,  -51.48,  99193.00,  179.00,   -1.02,    0.04, 35.4, 4.02, 4.05, 4.03, -17.29,   0.17,   1.37,  -0.25,   0.51,  -0.04,  -0.59,  -0.33,   0.12,   0.88, 4.03, 0.01, 0.00, 0.00, 0.00, 1, 1, 15,  41.4882115, -89.4985093,   217.0, 2026,  5, 24, 19, 20, 19,        0,        0, 143,   0,   0.7,   0.4,   0.6,  0,  0,  0,  0, 38,  0,  0,  0,  0,  0, 35,  0,  0,  0, 36, 44,  0, 39,  0, 40, 41,  0, 40,  0, 32, 39,  0,  0, 35, 39,  0,  0
6, 16162, 5,KC9SZP,    -0.14, 3,   boost,   10.79,  99225.00,  176.29,   -3.73,    0.13, 35.4, 4.02, 4.05, 4.03, -36.28,  -2.33,  -1.67,  24.77,   0.76,  -1.75,  -0.59,  -0.33,   0.12,   0.88, 4.03, 0.01, 0.00, 0.00, 0.00, 1, 1, 15,  41.4882115, -89.4985093,   217.0, 2026,  5, 24, 19, 20, 19,        0,        0, 143,   0,   0.7,   0.4,   0.6,  0,  0,  0,  0, 38,  0,  0,  0,  0,  0, 35,  0,  0,  0, 36, 44,  0, 39,  0, 40, 41,  0, 40,  0, 32, 39,  0,  0, 35, 39,  0,  0
6, 16162, 5,KC9SZP,    -0.13, 3,   boost,   36.28,  99225.00,  176.29,   -3.73,    0.30, 35.4, 4.02, 4.05, 4.03, -19.64,  -0.17,  -4.88,  -4.53,  -2.78,   0.51,  -0.59,  -0.33,   0.12,   0.88, 4.03, 0.01, 0.00, 0.00, 0.00, 1, 1, 15,  41.4882115, -89.4985093,   217.0, 2026,  5, 24, 19, 20, 19,        0,        0, 143,   0,   0.7,   0.4,   0.6,  0,  0,  0,  0, 38,  0,  0,  0,  0,  0, 35,  0,  0,  0, 36, 44,  0, 39,  0, 40, 41,  0, 40,  0, 32, 39,  0,  0, 35, 39,  0,  0
6, 16162, 5,KC9SZP,    -0.12, 3,   boost,   55.90,  99209.00,  177.65,   -2.37,    0.59, 35.4, 4.02, 4.05, 4.03, -61.57,  -1.67,  -0.28,   5.30,  -3.39,   1.67,  -0.59,  -0.33,   0.12,   0.88, 4.03, 0.01, 0.00, 0.00, 0.00, 1, 1, 15,  41.4882115, -89.4985093,   217.0, 2026,  5, 24, 19, 20, 19,        0,        0, 143,   0,   0.7,   0.4,   0.6,  0,  0,  0,  0, 38,  0,  0,  0,  0,  0, 35,  0,  0,  0, 36, 44,  0, 39,  0, 40, 41,  0, 40,  0, 32, 39,  0,  0, 35, 39,  0,  0
6, 16162, 5,KC9SZP,    -0.11, 3,   boost,   57.86,  99209.00,  177.65,   -2.37,    0.99, 35.4, 4.02, 4.05, 4.03, -63.04,   0.74,  25.40,  26.17,  17.73,   0.93,  -0.58,  -0.33,   0.13,   0.88, 4.03, 0.01, 0.00, 0.00, 0.00, 1, 1, 15,  41.4882115, -89.4985093,   217.0, 2026,  5, 24, 19, 20, 19,        0,        0, 143,   0,   0.7,   0.4,   0.6,  0,  0,  0,  0, 38,  0,  0,  0,  0,  0, 35,  0,  0,  0, 36, 44,  0, 39,  0, 40, 41,  0, 40,  0, 32, 39,  0,  0, 35, 39,  0,  0
6, 16162, 5,KC9SZP,    -0.10, 3,   boost,   54.92,  99190.00,  179.26,   -0.76,    1.49, 35.4, 4.02, 4.05, 4.03, -66.92,   3.94,   7.41,   4.63,   6.80,  -0.16,  -0.58,  -0.33,   0.12,   0.88, 4.03, 0.01, 0.00, 0.00, 0.00, 1, 1, 15,  41.4882115, -89.4985093,   217.0, 2026,  5, 24, 19, 20, 19,        0,        0, 143,   0,   0.7,   0.4,   0.6,  0,  0,  0,  0, 38,  0,  0,  0,  0,  0, 35,  0,  0,  0, 36, 44,  0, 39,  0, 40, 41,  0, 40,  0, 32, 39,  0,  0, 35, 39,  0,  0
6, 16162, 5,KC9SZP,    -0.09, 3,   boost,   59.82,  99190.00,  179.26,   -0.76,    2.04, 35.4, 4.02, 4.05, 4.03, -67.00,  -6.08, -13.94,  -4.10,   1.25,   0.08,  -0.59,  -0.33,   0.12,   0.88, 4.03, 0.01, 0.00, 0.00, 0.00, 1, 1, 15,  41.4882115, -89.4985093,   217.0, 2026,  5, 24, 19, 20, 19,        0,        0, 143,   0,   0.7,   0.4,   0.6,  0,  0,  0,  0, 38,  0,  0,  0,  0,  0, 35,  0,  0,  0, 36, 44,  0, 39,  0, 40, 41,  0, 40,  0, 32, 39,  0,  0, 35, 39,  0,  0
6, 16162, 5,KC9SZP,    -0.08, 3,   boost,   60.31,  99198.00,  178.58,   -1.44,    2.63, 35.4, 4.02, 4.05, 4.03, -69.91,  -1.47,   1.70,  -5.69,  -8.88,   3.07,  -0.59,  -0.33,   0.12,   0.88, 4.03, 0.01, 0.00, 0.00, 0.00, 1, 1, 15,  41.4882115, -89.4985093,   217.0, 2026,  5, 24, 19, 20, 19,        0,        0, 143,   0,   0.7,   0.4,   0.6,  0,  0,  0,  0, 38,  0,  0,  0,  0,  0, 35,  0,  0,  0, 36, 44,  0, 39,  0, 40, 41,  0, 40,  0, 32, 39,  0,  0, 35, 39,  0,  0
6, 16162, 5,KC9SZP,    -0.07, 3,   boost,   60.31,  99198.00,  178.58,   -1.44,    3.22, 35.4, 4.02, 4.05, 4.03, -68.97,  -3.04,   8.60,  14.33,  -7.24,   4.66,  -0.59,  -0.33,   0.12,   0.88, 4.03, 0.01, 0.00, 0.00, 0.00, 1, 1, 15,  41.4882115, -89.4985093,   217.0, 2026,  5, 24, 19, 20, 19,        0,        0, 143,   0,   0.7,   0.4,   0.6,  0,  0,  0,  0, 38,  0,  0,  0,  0,  0, 35,  0,  0,  0, 36, 44,  0, 39,  0, 40, 41,  0, 40,  0, 32, 39,  0,  0, 35, 39,  0,  0
6, 16162, 5,KC9SZP,    -0.06, 3,   boost,   59.33,  99192.00,  179.09,   -0.93,    3.82, 35.4, 4.02, 4.05, 4.03, -69.63,   1.57,   5.40,  31.48,  -3.88,   2.70,  -0.58,  -0.33,   0.12,   0.88, 4.03, 0.01, 0.00, 0.00, 0.00, 1, 1, 15,  41.4882119, -89.4985097,   217.0, 2026,  5, 24, 19, 20, 20,        0,        0,   0,   0,   0.7,   0.4,   0.6,  0,  0,  0,  0, 36,  0,  0,  0,  0,  0, 31,  0,  0,  0, 36, 42,  0, 37,  0, 38, 40,  0, 39,  0, 31, 37,  0,  0, 34, 37,  0,  0
6, 16162, 5,KC9SZP,    -0.05, 3,   boost,   60.80,  99192.00,  179.09,   -0.93,    4.42, 35.4, 4.02, 4.05, 4.03, -69.37,  -0.07,  -2.99,  27.46,  -4.25,   1.54,  -0.58,  -0.33,   0.13,   0.88, 4.03, 0.01, 0.00, 0.00, 0.00, 1, 1, 15,  41.4882119, -89.4985097,   217.0, 2026,  5, 24, 19, 20, 20,        0,        0,   0,   0,   0.7,   0.4,   0.6,  0,  0,  0,  0, 36,  0,  0,  0,  0,  0, 31,  0,  0,  0, 36, 42,  0, 37,  0, 38, 40,  0, 39,  0, 31, 37,  0,  0, 34, 37,  0,  0
6, 16162, 5,KC9SZP,    -0.04, 3,   boost,   59.82,  99209.00,  177.65,   -2.37,    5.01, 35.4, 4.02, 4.05, 4.03, -70.52,  -5.27,   2.66,  27.88,   0.27,   2.22,  -0.58,  -0.33,   0.12,   0.88, 4.03, 0.01, 0.00, 0.00, 0.00, 1, 1, 15,  41.4882119, -89.4985097,   217.0, 2026,  5, 24, 19, 20, 20,        0,        0,   0,   0,   0.7,   0.4,   0.6,  0,  0,  0,  0, 36,  0,  0,  0,  0,  0, 31,  0,  0,  0, 36, 42,  0, 37,  0, 38, 40,  0, 39,  0, 31, 37,  0,  0, 34, 37,  0,  0
6, 16162, 5,KC9SZP,    -0.03, 3,   boost,   59.82,  99209.00,  177.65,   -2.37,    5.61, 35.4, 4.02, 4.05, 4.03, -69.98,  -1.57,   0.63,  16.90,  -1.44,   5.57,  -0.58,  -0.33,   0.13,   0.88, 4.03, 0.01, 0.00, 0.00, 0.00, 1, 1, 15,  41.4882119, -89.4985097,   217.0, 2026,  5, 24, 19, 20, 20,        0,        0,   0,   0,   0.7,   0.4,   0.6,  0,  0,  0,  0, 36,  0,  0,  0,  0,  0, 31,  0,  0,  0, 36, 42,  0, 37,  0, 38, 40,  0, 39,  0, 31, 37,  0,  0, 34, 37,  0,  0
6, 16162, 5,KC9SZP,    -0.02, 3,   boost,   58.84,  99185.00,  179.68,   -0.34,    6.20, 35.4, 4.02, 4.05, 4.03, -69.31,  -0.18,  -0.63,  28.49,  -2.54,   5.76,  -0.58,  -0.32,   0.13,   0.88, 4.03, 0.01, 0.00, 0.00, 0.00, 1, 1, 15,  41.4882119, -89.4985097,   217.0, 2026,  5, 24, 19, 20, 20,        0,        0,   0,   0,   0.7,   0.4,   0.6,  0,  0,  0,  0, 36,  0,  0,  0,  0,  0, 31,  0,  0,  0, 36, 42,  0, 37,  0, 38, 40,  0, 39,  0, 31, 37,  0,  0, 34, 37,  0,  0
6, 16162, 5,KC9SZP,    -0.01, 3,   boost,   56.88,  99185.00,  179.68,   -0.34,    6.78, 35.4, 4.02, 4.05, 4.03, -68.37,  -0.48,   0.06,  32.89,  -6.57,   3.74,  -0.58,  -0.32,   0.13,   0.88, 4.03, 0.01, 0.00, 0.00, 0.00, 1, 1, 15,  41.4882119, -89.4985097,   217.0, 2026,  5, 24, 19, 20, 20,        0,        0,   0,   0,   0.7,   0.4,   0.6,  0,  0,  0,  0, 36,  0,  0,  0,  0,  0, 31,  0,  0,  0, 36, 42,  0, 37,  0, 38, 40,  0, 39,  0, 31, 37,  0,  0, 34, 37,  0,  0
6, 16162, 5,KC9SZP,     0.00, 3,   boost,   57.86,  99190.00,  179.26,   -0.76,    7.36, 35.4, 4.02, 4.05, 4.03, -68.40,  -4.27,   1.78,  31.42,  -5.77,   3.44,  -0.58,  -0.32,   0.13,   0.88, 4.03, 0.01, 0.00, 0.00, 0.00, 1, 1, 15,  41.4882119, -89.4985097,   217.0, 2026,  5, 24, 19, 20, 20,        0,        0,   0,   0,   0.7,   0.4,   0.6,  0,  0,  0,  0, 36,  0,  0,  0,  0,  0, 31,  0,  0,  0, 36, 42,  0, 37,  0, 38, 40,  0, 39,  0, 31, 37,  0,  0, 34, 37,  0,  0
6, 16162, 5,KC9SZP,     0.00, 3,   boost,   57.86,  99190.00,  179.26,   -0.76,    7.36, 35.4, 4.02, 4.05, 4.03, -68.40,  -4.27,   1.78,  31.42,  -5.77,   3.44,  -0.58,  -0.32,   0.13,   0.88, 4.03, 0.01, 0.00, 0.00, 0.00, 1, 1, 15,  41.4882119, -89.4985097,   217.0, 2026,  5, 24, 19, 20, 20,        0,        0,   0,   0,   0.7,   0.4,   0.6,  0,  0,  0,  0, 36,  0,  0,  0,  0,  0, 31,  0,  0,  0, 36, 42,  0, 37,  0, 38, 40,  0, 39,  0, 31, 37,  0,  0, 34, 37,  0,  0
6, 16162, 5,KC9SZP,     0.00, 3,   boost,   57.86,  99190.00,  179.26,   -0.76,    7.36, 35.4, 4.02, 4.05, 4.03, -68.40,  -4.27,   1.78,  31.42,  -5.77,   3.44,  -0.58,  -0.32,   0.13,   0.88, 4.03, 0.01, 0.00, 0.00, 0.00, 1, 1, 15,  41.4882119, -89.4985097,   217.0, 2026,  5, 24, 19, 20, 20,        0,        0,   0,   0,   0.7,   0.4,   0.6,  0,  0,  0,  0, 36,  0,  0,  0,  0,  0, 31,  0,  0,  0, 36, 42,  0, 37,  0, 38, 40,  0, 39,  0, 31, 37,  0,  0, 34, 37,  0,  0
6, 16162, 5,KC9SZP,     0.00, 3,   boost,   57.86,  99190.00,  179.26,   -0.76,    7.36, 35.4, 4.02, 4.05, 4.03, -68.40,  -4.27,   1.78,  31.42,  -5.77,   3.44,  -0.58,  -0.32,   0.13,   0.88, 4.03, 0.01, 0.00, 0.00, 0.00, 1, 1, 15,  41.4882119, -89.4985097,   217.0, 2026,  5, 24, 19, 20, 20,        0,        0,   0,   0,   0.7,   0.4,   0.6,  0,  0,  0,  0, 36,  0,  0,  0,  0,  0, 31,  0,  0,  0, 36, 42,  0, 37,  0, 38, 40,  0, 39,  0, 31, 37,  0,  0, 34, 37,  0,  0
6, 16162, 5,KC9SZP,     0.00, 3,   boost,   57.86,  99190.00,  179.26,   -0.76,    7.36, 35.4, 4.02, 4.05, 4.03, -68.40,  -4.27,   1.78,  31.42,  -5.77,   3.44,  -0.58,  -0.32,   0.13,   0.88, 4.03, 0.01, 0.00, 0.00, 0.00, 1, 1, 15,  41.4882119, -89.4985097,   217.0, 2026,  5, 24, 19, 20, 20,        0,        0,   0,   0,   0.7,   0.4,   0.6,  0,  0,  0,  0, 36,  0,  0,  0,  0,  0, 31,  0,  0,  0, 36, 42,  0, 37,  0, 38, 40,  0, 39,  0, 31, 37,  0,  0, 34, 37,  0,  0
6, 16162, 5,KC9SZP,     0.00, 3,   boost,   57.86,  99190.00,  179.26,   -0.76,    7.36, 35.4, 4.02, 4.05, 4.03, -68.40,  -4.27,   1.78,  31.42,  -5.77,   3.44,  -0.58,  -0.32,   0.13,   0.88, 4.03, 0.01, 0.00, 0.00, 0.00, 1, 1, 15,  41.4882119, -89.4985097,   217.0, 2026,  5, 24, 19, 20, 20,        0,        0,   0,   0,   0.7,   0.4,   0.6,  0,  0,  0,  0, 36,  0,  0,  0,  0,  0, 31,  0,  0,  0, 36, 42,  0, 37,  0, 38, 40,  0, 39,  0, 31, 37,  0,  0, 34, 37,  0,  0
6, 16162, 5,KC9SZP,     0.00, 3,   boost,   57.86,  99190.00,  179.26,   -0.76,    7.36, 35.4, 4.02, 4.05, 4.03, -68.40,  -4.27,   1.78,  31.42,  -5.77,   3.44,  -0.58,  -0.32,   0.13,   0.88, 4.03, 0.01, 0.00, 0.00, 0.00, 1, 1, 15,  41.4882119, -89.4985097,   217.0, 2026,  5, 24, 19, 20, 20,        0,        0,   0,   0,   0.7,   0.4,   0.6,  0,  0,  0,  0, 36,  0,  0,  0,  0,  0, 31,  0,  0,  0, 36, 42,  0, 37,  0, 38, 40,  0, 39,  0, 31, 37,  0,  0, 34, 37,  0,  0
6, 16162, 5,KC9SZP,     0.00, 3,   boost,   57.86,  99190.00,  179.26,   -0.76,    7.36, 35.4, 4.02, 4.05, 4.03, -68.40,  -4.27,   1.78,  31.42,  -5.77,   3.44,  -0.58,  -0.32,   0.13,   0.88, 4.03, 0.01, 0.00, 0.00, 0.00, 1, 1, 15,  41.4882119, -89.4985097,   217.0, 2026,  5, 24, 19, 20, 20,        0,        0,   0,   0,   0.7,   0.4,   0.6,  0,  0,  0,  0, 36,  0,  0,  0,  0,  0, 31,  0,  0,  0, 36, 42,  0, 37,  0, 38, 40,  0, 39,  0, 31, 37,  0,  0, 34, 37,  0,  0
6, 16162, 5,KC9SZP,     0.00, 3,   boost,   57.86,  99190.00,  179.26,   -0.76,    7.36, 35.4, 4.02, 4.05, 4.03, -68.40,  -4.27,   1.78,  31.42,  -5.77,   3.44,  -0.58,  -0.32,   0.13,   0.88, 4.03, 0.01, 0.00, 0.00, 0.00, 1, 1, 15,  41.4882119, -89.4985097,   217.0, 2026,  5, 24, 19, 20, 20,        0,        0,   0,   0,   0.7,   0.4,   0.6,  0,  0,  0,  0, 36,  0,  0,  0,  0,  0, 31,  0,  0,  0, 36, 42,  0, 37,  0, 38, 40,  0, 39,  0, 31, 37,  0,  0, 34, 37,  0,  0
6, 16162, 5,KC9SZP,     0.00, 3,   boost,   57.86,  99190.00,  179.26,   -0.76,    7.36, 35.4, 4.02, 4.05, 4.03, -68.40,  -4.27,   1.78,  31.42,  -5.77,   3.44,  -0.58,  -0.32,   0.13,   0.88, 4.03, 0.01, 0.00, 0.00, 0.00, 1, 1, 15,  41.4882119, -89.4985097,   217.0, 2026,  5, 24, 19, 20, 20,        0,        0,   0,   0,   0.7,   0.4,   0.6,  0,  0,  0,  0, 36,  0,  0,  0,  0,  0, 31,  0,  0,  0, 36, 42,  0, 37,  0, 38, 40,  0, 39,  0, 31, 37,  0,  0, 34, 37,  0,  0
6, 16162, 5,KC9SZP,     0.00, 3,   boost,   57.86,  99190.00,  179.26,   -0.76,    7.36, 35.4, 4.02, 4.05, 4.03, -68.40,  -4.27,   1.78,  31.42,  -5.77,   3.44,  -0.58,  -0.32,   0.13,   0.88, 4.03, 0.01, 0.00, 0.00, 0.00, 1, 1, 15,  41.4882119, -89.4985097,   217.0, 2026,  5, 24, 19, 20, 20,        0,        0,   0,   0,   0.7,   0.4,   0.6,  0,  0,  0,  0, 36,  0,  0,  0,  0,  0, 31,  0,  0,  0, 36, 42,  0, 37,  0, 38, 40,  0, 39,  0, 31, 37,  0,  0, 34, 37,  0,  0
6, 16162, 5,KC9SZP,     0.00, 3,   boost,   57.86,  99190.00,  179.26,   -0.76,    7.36, 35.4, 4.02, 4.05, 4.03, -68.40,  -4.27,   1.78,  31.42,  -5.77,   3.44,  -0.58,  -0.32,   0.13,   0.88, 4.03, 0.01, 0.00, 0.00, 0.00, 1, 1, 15,  41.4882119, -89.4985097,   217.0, 2026,  5, 24, 19, 20, 20,        0,        0,   0,   0,   0.7,   0.4,   0.6,  0,  0,  0,  0, 36,  0,  0,  0,  0,  0, 31,  0,  0,  0, 36, 42,  0, 37,  0, 38, 40,  0, 39,  0, 31, 37,  0,  0, 34, 37,  0,  0
6, 16162, 5,KC9SZP,     0.00, 3,   boost,   57.86,  99190.00,  179.26,   -0.76,    7.36, 35.4, 4.02, 4.05, 4.03, -68.40,  -4.27,   1.78,  31.42,  -5.77,   3.44,  -0.58,  -0.32,   0.13,   0.88, 4.03, 0.01, 0.00, 0.00, 0.00, 1, 1, 15,  41.4882119, -89.4985097,   217.0, 2026,  5, 24, 19, 20, 20,        0,        0,   0,   0,   0.7,   0.4,   0.6,  0,  0,  0,  0, 36,  0,  0,  0,  0,  0, 31,  0,  0,  0, 36, 42,  0, 37,  0, 38, 40,  0, 39,  0, 31, 37,  0,  0, 34, 37,  0,  0
6, 16162, 5,KC9SZP,     0.00, 3,   boost,   57.86,  99190.00,  179.26,   -0.76,    7.36, 35.4, 4.02, 4.05, 4.03, -68.40,  -4.27,   1.78,  31.42,  -5.77,   3.44,  -0.58,  -0.32,   0.13,   0.88, 4.03, 0.01, 0.00, 0.00, 0.00, 1, 1, 15,  41.4882119, -89.4985097,   217.0, 2026,  5, 24, 19, 20, 20,        0,        0,   0,   0,   0.7,   0.4,   0.6,  0,  0,  0,  0, 36,  0,  0,  0,  0,  0, 31,  0,  0,  0, 36, 42,  0, 37,  0, 38, 40,  0, 39,  0, 31, 37,  0,  0, 34, 37,  0,  0
6, 16162, 5,KC9SZP,     0.00, 3,   boost,   57.86,  99190.00,  179.26,   -0.76,    7.36, 35.4, 4.02, 4.05, 4.03, -68.40,  -4.27,   1.78,  31.42,  -5.77,   3.44,  -0.58,  -0.32,   0.13,   0.88, 4.03, 0.01, 0.00, 0.00, 0.00, 1, 1, 15,  41.4882119, -89.4985097,   217.0, 2026,  5, 24, 19, 20, 20,        0,        0,   0,   0,   0.7,   0.4,   0.6,  0,  0,  0,  0, 36,  0,  0,  0,  0,  0, 31,  0,  0,  0, 36, 42,  0, 37,  0, 38, 40,  0, 39,  0, 31, 37,  0,  0, 34, 37,  0,  0
6, 16162, 5,KC9SZP,     0.00, 3,   boost,   57.86,  99190.00,  179.26,   -0.76,    7.36, 35.4, 4.02, 4.05, 4.03, -68.40,  -4.27,   1.78,  31.42,  -5.77,   3.44,  -0.58,  -0.32,   0.13,   0.88, 4.03, 0.01, 0.00, 0.00, 0.00, 1, 1, 15,  41.4882119, -89.4985097,   217.0, 2026,  5, 24, 19, 20, 20,        0,        0,   0,   0,   0.7,   0.4,   0.6,  0,  0,  0,  0, 36,  0,  0,  0,  0,  0, 31,  0,  0,  0, 36, 42,  0, 37,  0, 38, 40,  0, 39,  0, 31, 37,  0,  0, 34, 37,  0,  0
6, 16162, 5,KC9SZP,     0.00, 3,   boost,   57.86,  99190.00,  179.26,   -0.76,    7.36, 35.4, 4.02, 4.05, 4.03, -68.40,  -4.27,   1.78,  31.42,  -5.77,   3.44,  -0.58,  -0.32,   0.13,   0.88, 4.03, 0.01, 0.00, 0.00, 0.00, 1, 1, 15,  41.4882119, -89.4985097,   217.0, 2026,  5, 24, 19, 20, 20,        0,        0,   0,   0,   0.7,   0.4,   0.6,  0,  0,  0,  0, 36,  0,  0,  0,  0,  0, 31,  0,  0,  0, 36, 42,  0, 37,  0, 38, 40,  0, 39,  0, 31, 37,  0,  0, 34, 37,  0,  0
6, 16162, 5,KC9SZP,     0.00, 3,   boost,   57.86,  99190.00,  179.26,   -0.76,    7.36, 35.4, 4.02, 4.05, 4.03, -68.40,  -4.27,   1.78,  31.42,  -5.77,   3.44,  -0.58,  -0.32,   0.13,   0.88, 4.03, 0.01, 0.00, 0.00, 0.00, 1, 1, 15,  41.4882119, -89.4985097,   217.0, 2026,  5, 24, 19, 20, 20,        0,        0,   0,   0,   0.7,   0.4,   0.6,  0,  0,  0,  0, 36,  0,  0,  0,  0,  0, 31,  0,  0,  0, 36, 42,  0, 37,  0, 38, 40,  0, 39,  0, 31, 37,  0,  0, 34, 37,  0,  0
6, 16162, 5,KC9SZP,     0.00, 3,   boost,   57.86,  99190.00,  179.26,   -0.76,    7.36, 35.4, 4.02, 4.05, 4.03, -68.40,  -4.27,   1.78,  31.42,  -5.77,   3.44,  -0.58,  -0.32,   0.13,   0.88, 4.03, 0.01, 0.00, 0.00, 0.00, 1, 1, 15,  41.4882119, -89.4985097,   217.0, 2026,  5, 24, 19, 20, 20,        0,        0,   0,   0,   0.7,   0.4,   0.6,  0,  0,  0,  0, 36,  0,  0,  0,  0,  0, 31,  0,  0,  0, 36, 42,  0, 37,  0, 38, 40,  0, 39,  0, 31, 37,  0,  0, 34, 37,  0,  0
6, 16162, 5,KC9SZP,     0.00, 3,   boost,   57.86,  99190.00,  179.26,   -0.76,    7.36, 35.4, 4.02, 4.05, 4.03, -68.40,  -4.27,   1.78,  31.42,  -5.77,   3.44,  -0.58,  -0.32,   0.13,   0.88, 4.03, 0.01, 0.00, 0.00, 0.00, 1, 1, 15,  41.4882119, -89.4985097,   217.0, 2026,  5, 24, 19, 20, 20,        0,        0,   0,   0,   0.7,   0.4,   0.6,  0,  0,  0,  0, 36,  0,  0,  0,  0,  0, 31,  0,  0,  0, 36, 42,  0, 37,  0, 38, 40,  0, 39,  0, 31, 37,  0,  0, 34, 37,  0,  0
6, 16162, 5,KC9SZP,     0.00, 3,   boost,   57.86,  99190.00,  179.26,   -0.76,    7.36, 35.4, 4.02, 4.05, 4.03, -68.40,  -4.27,   1.78,  31.42,  -5.77,   3.44,  -0.58,  -0.32,   0.13,   0.87, 4.03, 0.01, 0.00, 0.00, 0.00, 1, 1, 15,  41.4882119, -89.4985097,   217.0, 2026,  5, 24, 19, 20, 20,        0,        0,   0,   0,   0.7,   0.4,   0.6,  0,  0,  0,  0, 36,  0,  0,  0,  0,  0, 31,  0,  0,  0, 36, 42,  0, 37,  0, 38, 40,  0, 39,  0, 31, 37,  0,  0, 34, 37,  0,  0
6, 16162, 5,KC9SZP,     0.00, 3,   boost,   57.86,  99190.00,  179.26,   -0.76,    7.36, 35.4, 4.02, 4.05, 4.03, -68.40,  -4.27,   1.78,  31.42,  -5.77,   3.44,  -0.58,  -0.32,   0.13,   0.86, 4.03, 0.01, 0.00, 0.00, 0.00, 1, 1, 15,  41.4882119, -89.4985097,   217.0, 2026,  5, 24, 19, 20, 20,        0,        0,   0,   0,   0.7,   0.4,   0.6,  0,  0,  0,  0, 36,  0,  0,  0,  0,  0, 31,  0,  0,  0, 36, 42,  0, 37,  0, 38, 40,  0, 39,  0, 31, 37,  0,  0, 34, 37,  0,  0
6, 16162, 5,KC9SZP,     0.00, 3,   boost,   57.86,  99190.00,  179.26,   -0.76,    7.36, 35.4, 4.02, 4.05, 4.03, -68.40,  -4.27,   1.78,  31.42,  -5.77,   3.44,  -0.58,  -0.32,   0.13,   0.85, 4.03, 0.01, 0.00, 0.00, 0.00, 1, 1, 15,  41.4882119, -89.4985097,   217.0, 2026,  5, 24, 19, 20, 20,        0,        0,   0,   0,   0.7,   0.4,   0.6,  0,  0,  0,  0, 36,  0,  0,  0,  0,  0, 31,  0,  0,  0, 36, 42,  0, 37,  0, 38, 40,  0, 39,  0, 31, 37,  0,  0, 34, 37,  0,  0
6, 16162, 5,KC9SZP,     0.00, 3,   boost,   57.86,  99190.00,  179.26,   -0.76,    7.36, 35.4, 4.02, 4.05, 4.03, -68.40,  -4.27,   1.78,  31.42,  -5.77,   3.44,  -0.58,  -0.32,   0.13,   0.98, 4.03, 0.01, 0.00, 0.00, 0.00, 1, 1, 15,  41.4882119, -89.4985097,   217.0, 2026,  5, 24, 19, 20, 20,        0,        0,   0,   0,   0.7,   0.4,   0.6,  0,  0,  0,  0, 36,  0,  0,  0,  0,  0, 31,  0,  0,  0, 36, 42,  0, 37,  0, 38, 40,  0, 39,  0, 31, 37,  0,  0, 34, 37,  0,  0
6, 16162, 5,KC9SZP,     0.00, 3,   boost,   57.86,  99190.00,  179.26,   -0.76,    7.36, 35.4, 4.02, 4.05, 4.03, -68.40,  -4.27,   1.78,  31.42,  -5.77,   3.44,  -0.58,  -0.32,   0.13,   1.03, 4.03, 0.01, 0.00, 0.00, 0.00, 1, 1, 15,  41.4882119, -89.4985097,   217.0, 2026,  5, 24, 19, 20, 20,        0,        0,   0,   0,   0.7,   0.4,   0.6,  0,  0,  0,  0, 36,  0,  0,  0,  0,  0, 31,  0,  0,  0, 36, 42,  0, 37,  0, 38, 40,  0, 39,  0, 31, 37,  0,  0, 34, 37,  0,  0
6, 16162, 5,KC9SZP,     0.00, 3,   boost,   57.86,  99190.00,  179.26,   -0.76,    7.36, 35.4, 4.02, 4.05, 4.03, -68.40,  -4.27,   1.78,  31.42,  -5.77,   3.44,  -0.58,  -0.32,   0.13,   1.04, 4.03, 0.01, 0.00, 0.00, 0.00, 1, 1, 15,  41.4882119, -89.4985097,   217.0, 2026,  5, 24, 19, 20, 20,        0,        0,   0,   0,   0.7,   0.4,   0.6,  0,  0,  0,  0, 36,  0,  0,  0,  0,  0, 31,  0,  0,  0, 36, 42,  0, 37,  0, 38, 40,  0, 39,  0, 31, 37,  0,  0, 34, 37,  0,  0
6, 16162, 5,KC9SZP,     0.00, 3,   boost,   57.86,  99190.00,  179.26,   -0.76,    7.36, 35.4, 4.02, 4.05, 4.03, -68.40,  -4.27,   1.78,  31.42,  -5.77,   3.44,  -0.58,  -0.32,   0.13,   0.99, 4.03, 0.01, 0.00, 0.00, 0.00, 1, 1, 15,  41.4882119, -89.4985097,   217.0, 2026,  5, 24, 19, 20, 20,        0,        0,   0,   0,   0.7,   0.4,   0.6,  0,  0,  0,  0, 36,  0,  0,  0,  0,  0, 31,  0,  0,  0, 36, 42,  0, 37,  0, 38, 40,  0, 39,  0, 31, 37,  0,  0, 34, 37,  0,  0
6, 16162, 5,KC9SZP,     0.00, 3,   boost,   57.86,  99190.00,  179.26,   -0.76,    7.36, 35.4, 4.02, 4.05, 4.03, -68.40,  -4.27,   1.78,  31.42,  -5.77,   3.44,  -0.58,  -0.32,   0.13,   0.97, 4.03, 0.01, 0.00, 0.00, 0.00, 1, 1, 15,  41.4882119, -89.4985097,   217.0, 2026,  5, 24, 19, 20, 20,        0,        0,   0,   0,   0.7,   0.4,   0.6,  0,  0,  0,  0, 36,  0,  0,  0,  0,  0, 31,  0,  0,  0, 36, 42,  0, 37,  0, 38, 40,  0, 39,  0, 31, 37,  0,  0, 34, 37,  0,  0
6, 16162, 5,KC9SZP,     0.00, 3,   boost,   57.86,  99190.00,  179.26,   -0.76,    7.36, 35.4, 4.02, 4.05, 4.03, -68.40,  -4.27,   1.78,  31.42,  -5.77,   3.44,  -0.58,  -0.32,   0.13,   0.97, 4.03, 0.01, 0.00, 0.00, 0.00, 1, 1, 15,  41.4882119, -89.4985097,   217.0, 2026,  5, 24, 19, 20, 20,        0,        0,   0,   0,   0.7,   0.4,   0.6,  0,  0,  0,  0, 36,  0,  0,  0,  0,  0, 31,  0,  0,  0, 36, 42,  0, 37,  0, 38, 40,  0, 39,  0, 31, 37,  0,  0, 34, 37,  0,  0
6, 16162, 5,KC9SZP,     0.00, 3,   boost,   57.86,  99190.00,  179.26,   -0.76,    7.36, 35.4, 4.02, 4.05, 4.03, -68.40,  -4.27,   1.78,  31.42,  -5.77,   3.44,  -0.58,  -0.32,   0.13,   0.97, 4.03, 0.01, 0.00, 0.00, 0.00, 1, 1, 15,  41.4882119, -89.4985097,   217.0, 2026,  5, 24, 19, 20, 20,        0,        0,   0,   0,   0.7,   0.4,   0.6,  0,  0,  0,  0, 36,  0,  0,  0,  0,  0, 31,  0,  0,  0, 36, 42,  0, 37,  0, 38, 40,  0, 39,  0, 31, 37,  0,  0, 34, 37,  0,  0
6, 16162, 5,KC9SZP,     0.00, 3,   boost,   57.86,  99190.00,  179.26,   -0.76,    7.36, 35.4, 4.02, 4.05, 4.03, -68.40,  -4.27,   1.78,  31.42,  -5.77,   3.44,  -0.58,  -0.32,   0.13,   0.97, 4.03, 0.01, 0.00, 0.00, 0.00, 1, 1, 15,  41.4882119, -89.4985097,   217.0, 2026,  5, 24, 19, 20, 20,        0,        0,   0,   0,   0.7,   0.4,   0.6,  0,  0,  0,  0, 36,  0,  0,  0,  0,  0, 31,  0,  0,  0, 36, 42,  0, 37,  0, 38, 40,  0, 39,  0, 31, 37,  0,  0, 34, 37,  0,  0
6, 16162, 5,KC9SZP,     0.00, 3,   boost,   57.86,  99190.00,  179.26,   -0.76,    7.36, 35.4, 4.02, 4.05, 4.03, -68.40,  -4.27,   1.78,  31.42,  -5.77,   3.44,  -0.58,  -0.32,   0.13,   0.96, 4.03, 0.01, 0.00, 0.00, 0.00, 1, 1, 15,  41.4882119, -89.4985097,   217.0, 2026,  5, 24, 19, 20, 20,        0,        0,   0,   0,   0.7,   0.4,   0.6,  0,  0,  0,  0, 36,  0,  0,  0,  0,  0, 31,  0,  0,  0, 36, 42,  0, 37,  0, 38, 40,  0, 39,  0, 31, 37,  0,  0, 34, 37,  0,  0
6, 16162, 5,KC9SZP,     0.00, 3,   boost,   57.86,  99190.00,  179.26,   -0.76,    7.36, 35.4, 4.02, 4.05, 4.03, -68.40,  -4.27,   1.78,  31.42,  -5.77,   3.44,  -0.58,  -0.32,   0.13,   0.98, 4.03, 0.01, 0.00, 0.00, 0.00, 1, 1, 15,  41.4882119, -89.4985097,   217.0, 2026,  5, 24, 19, 20, 20,        0,        0,   0,   0,   0.7,   0.4,   0.6,  0,  0,  0,  0, 36,  0,  0,  0,  0,  0, 31,  0,  0,  0, 36, 42,  0, 37,  0, 38, 40,  0, 39,  0, 31, 37,  0,  0, 34, 37,  0,  0
6, 16162, 5,KC9SZP,     0.00, 3,   boost,   57.86,  99190.00,  179.26,   -0.76,    7.36, 35.4, 4.02, 4.05, 4.03, -68.40,  -4.27,   1.78,  31.42,  -5.77,   3.44,  -0.58,  -0.32,   0.13,   1.01, 4.03, 0.01, 0.00, 0.00, 0.00, 1, 1, 15,  41.4882119, -89.4985097,   217.0, 2026,  5, 24, 19, 20, 20,        0,        0,   0,   0,   0.7,   0.4,   0.6,  0,  0,  0,  0, 36,  0,  0,  0,  0,  0, 31,  0,  0,  0, 36, 42,  0, 37,  0, 38, 40,  0, 39,  0, 31, 37,  0,  0, 34, 37,  0,  0
6, 16162, 5,KC9SZP,     0.00, 3,   boost,   57.86,  99190.00,  179.26,   -0.76,    7.36, 35.4, 4.02, 4.05, 4.03, -68.40,  -4.27,   1.78,  31.42,  -5.77,   3.44,  -0.58,  -0.32,   0.13,   1.05, 4.03, 0.01, 0.00, 0.00, 0.00, 1, 1, 15,  41.4882119, -89.4985097,   217.0, 2026,  5, 24, 19, 20, 20,        0,        0,   0,   0,   0.7,   0.4,   0.6,  0,  0,  0,  0, 36,  0,  0,  0,  0,  0, 31,  0,  0,  0, 36, 42,  0, 37,  0, 38, 40,  0, 39,  0, 31, 37,  0,  0, 34, 37,  0,  0
6, 16162, 5,KC9SZP,     0.00, 3,   boost,   57.86,  99190.00,  179.26,   -0.76,    7.36, 35.4, 4.02, 4.05, 4.03, -68.40,  -4.27,   1.78,  31.42,  -5.77,   3.44,  -0.58,  -0.32,   0.13,   1.05, 4.03, 0.01, 0.00, 0.00, 0.00, 1, 1, 15,  41.4882119, -89.4985097,   217.0, 2026,  5, 24, 19, 20, 20,        0,        0,   0,   0,   0.7,   0.4,   0.6,  0,  0,  0,  0, 36,  0,  0,  0,  0,  0, 31,  0,  0,  0, 36, 42,  0, 37,  0, 38, 40,  0, 39,  0, 31, 37,  0,  0, 34, 37,  0,  0
6, 16162, 5,KC9SZP,     0.00, 3,   boost,   57.86,  99190.00,  179.26,   -0.76,    7.36, 35.4, 4.02, 4.05, 4.03, -68.40,  -4.27,   1.78,  31.42,  -5.77,   3.44,  -0.58,  -0.32,   0.13,   1.06, 4.03, 0.01, 0.00, 0.00, 0.00, 1, 1, 15,  41.4882119, -89.4985097,   217.0, 2026,  5, 24, 19, 20, 20,        0,        0,   0,   0,   0.7,   0.4,   0.6,  0,  0,  0,  0, 36,  0,  0,  0,  0,  0, 31,  0,  0,  0, 36, 42,  0, 37,  0, 38, 40,  0, 39,  0, 31, 37,  0,  0, 34, 37,  0,  0
6, 16162, 5,KC9SZP,     0.01, 3,   boost,   58.35,  99190.00,  179.26,   -0.76,    7.94, 35.4, 4.02, 4.05, 4.03, -67.86,  -1.12,   0.91,  14.64,  -6.08,   3.19,  -0.58,  -0.32,   0.13,   1.07, 4.03, 0.01, 0.00, 0.00, 0.00, 1, 1, 15,  41.4882119, -89.4985097,   217.0, 2026,  5, 24, 19, 20, 20,        0,        0,   0,   0,   0.7,   0.4,   0.6,  0,  0,  0,  0, 36,  0,  0,  0,  0,  0, 31,  0,  0,  0, 36, 42,  0, 37,  0, 38, 40,  0, 39,  0, 31, 37,  0,  0, 34, 37,  0,  0
6, 16162, 5,KC9SZP,     0.01, 3,   boost,   58.35,  99190.00,  179.26,   -0.76,    7.94, 35.4, 4.02, 4.05, 4.03, -67.86,  -1.12,   0.91,  14.64,  -6.08,   3.19,  -0.58,  -0.32,   0.13,   1.07, 4.03, 0.01, 0.00, 0.00, 0.00, 1, 1, 15,  41.4882119, -89.4985097,   217.0, 2026,  5, 24, 19, 20, 20,        0,        0,   0,   0,   0.7,   0.4,   0.6,  0,  0,  0,  0, 36,  0,  0,  0,  0,  0, 31,  0,  0,  0, 36, 42,  0, 37,  0, 38, 40,  0, 39,  0, 31, 37,  0,  0, 34, 37,  0,  0
6, 16162, 5,KC9SZP,     0.02, 3,   boost,   56.88,  99186.00,  179.60,   -0.42,    8.52, 35.4, 4.04, 4.05, 4.03, -67.11,  -2.07,   1.52,  -1.05,  -5.04,   2.28,  -0.58,  -0.32,   0.13,   1.08, 4.07, 0.00, 0.00, 0.00, 0.00, 1, 1, 15,  41.4882119, -89.4985097,   217.0, 2026,  5, 24, 19, 20, 20,        0,        0,   0,   0,   0.7,   0.4,   0.6,  0,  0,  0,  0, 36,  0,  0,  0,  0,  0, 31,  0,  0,  0, 36, 42,  0, 37,  0, 38, 40,  0, 39,  0, 31, 37,  0,  0, 34, 37,  0,  0
6, 16162, 5,KC9SZP,     0.02, 3,   boost,   56.88,  99186.00,  179.60,   -0.42,    8.52, 35.4, 4.04, 4.05, 4.03, -67.11,  -2.07,   1.52,  -1.05,  -5.04,   2.28,  -0.58,  -0.32,   0.13,   1.08, 4.07, 0.00, 0.00, 0.00, 0.00, 1, 1, 15,  41.4882119, -89.4985097,   217.0, 2026,  5, 24, 19, 20, 20,        0,        0,   0,   0,   0.7,   0.4,   0.6,  0,  0,  0,  0, 36,  0,  0,  0,  0,  0, 31,  0,  0,  0, 36, 42,  0, 37,  0, 38, 40,  0, 39,  0, 31, 37,  0,  0, 34, 37,  0,  0
6, 16162, 5,KC9SZP,     0.03, 3,   boost,   59.33,  99186.00,  179.60,   -0.42,    9.10, 35.4, 4.04, 4.05, 4.03, -67.63,  -1.72,  -1.95, -17.77,  -4.98,   0.26,  -0.58,  -0.32,   0.13,   1.07, 4.07, 0.00, 0.00, 0.00, 0.00, 1, 1, 15,  41.4882119, -89.4985097,   217.0, 2026,  5, 24, 19, 20, 20,        0,        0,   0,   0,   0.7,   0.4,   0.6,  0,  0,  0,  0, 36,  0,  0,  0,  0,  0, 31,  0,  0,  0, 36, 42,  0, 37,  0, 38, 40,  0, 39,  0, 31, 37,  0,  0, 34, 37,  0,  0
6, 16162, 5,KC9SZP,     0.04, 3,   boost,   55.41,  99188.00,  179.43,   -0.59,    9.67, 35.4, 4.04, 4.05, 4.03, -67.47,  -2.42,  -0.29, -30.77,  -4.00,  -0.90,  -0.59,  -0.33,   0.13,   1.05, 4.07, 0.00, 0.00, 0.00, 0.00, 1, 1, 15,  41.4882119, -89.4985097,   217.0, 2026,  5, 24, 19, 20, 20,        0,        0,   0,   0,   0.7,   0.4,   0.6,  0,  0,  0,  0, 36,  0,  0,  0,  0,  0, 31,  0,  0,  0, 36, 42,  0, 37,  0, 38, 40,  0, 39,  0, 31, 37,  0,  0, 34, 37,  0,  0
6, 16162, 5,KC9SZP,     0.05, 3,   boost,   57.86,  99188.00,  179.43,   -0.59,   10.25, 35.4, 4.04, 4.05, 4.03, -67.15,  -1.24,  -0.24, -36.33,  -4.61,  -2.61,  -0.59,  -0.33,   0.13,   1.02, 4.07, 0.00, 0.00, 0.00, 0.00, 1, 1, 15,  41.4882119, -89.4985097,   217.0, 2026,  5, 24, 19, 20, 20,        0,        0,   0,   0,   0.7,   0.4,   0.6,  0,  0,  0,  0, 36,  0,  0,  0,  0,  0, 31,  0,  0,  0, 36, 42,  0, 37,  0, 38, 40,  0, 39,  0, 31, 37,  0,  0, 34, 37,  0,  0
6, 16162, 5,KC9SZP,     0.06, 3,   boost,   57.37,  99163.00,  181.54,    1.52,   10.82, 35.4, 4.04, 4.05, 4.03, -67.07,  -2.44,   0.19, -40.42,  -2.35,  -3.15,  -0.58,  -0.32,   0.12,   0.99, 4.07, 0.00, 0.00, 0.00, 0.00, 1, 1, 15,  41.4882119, -89.4985097,   217.0, 2026,  5, 24, 19, 20, 20,        0,        0,   0,   0,   0.7,   0.4,   0.6,  0,  0,  0,  0, 36,  0,  0,  0,  0,  0, 31,  0,  0,  0, 36, 42,  0, 37,  0, 38, 40,  0, 39,  0, 31, 37,  0,  0, 34, 37,  0,  0
6, 16162, 5,KC9SZP,     0.07, 3,   boost,   58.84,  99163.00,  181.54,    1.52,   11.40, 35.4, 4.04, 4.05, 4.03, -67.72,  -0.87,  -1.98, -52.01,  -4.55,  -3.22,  -0.58,  -0.33,   0.12,   0.95, 4.07, 0.00, 0.00, 0.00, 0.00, 1, 1, 15,  41.4882119, -89.4985097,   217.0, 2026,  5, 24, 19, 20, 20,        0,        0,   0,   0,   0.7,   0.4,   0.6,  0,  0,  0,  0, 36,  0,  0,  0,  0,  0, 31,  0,  0,  0, 36, 42,  0, 37,  0, 38, 40,  0, 39,  0, 31, 37,  0,  0, 34, 37,  0,  0
6, 16162, 5,KC9SZP,     0.08, 3,   boost,   58.84,  99177.00,  180.36,    0.34,   11.99, 35.4, 4.04, 4.05, 4.03, -68.75,  -2.86,   1.52, -63.18,  -2.35,  -2.79,  -0.59,  -0.33,   0.12,   0.92, 4.07, 0.00, 0.00, 0.00, 0.00, 1, 1, 15,  41.4882119, -89.4985097,   217.0, 2026,  5, 24, 19, 20, 20,        0,        0,   0,   0,   0.7,   0.4,   0.6,  0,  0,  0,  0, 36,  0,  0,  0,  0,  0, 31,  0,  0,  0, 36, 42,  0, 37,  0, 38, 40,  0, 39,  0, 31, 37,  0,  0, 34, 37,  0,  0
6, 16162, 5,KC9SZP,     0.09, 3,   boost,   57.86,  99177.00,  180.36,    0.34,   12.57, 35.4, 4.04, 4.05, 4.03, -68.88,  -0.82,  -0.26, -68.67,  -3.15,  -2.30,  -0.59,  -0.33,   0.11,   0.89, 4.07, 0.00, 0.00, 0.00, 0.00, 1, 1, 15,  41.4882119, -89.4985097,   217.0, 2026,  5, 24, 19, 20, 20,        0,        0,   0,   0,   0.7,   0.4,   0.6,  0,  0,  0,  0, 36,  0,  0,  0,  0,  0, 31,  0,  0,  0, 36, 42,  0, 37,  0, 38, 40,  0, 39,  0, 31, 37,  0,  0, 34, 37,  0,  0
6, 16162, 5,KC9SZP,     0.10, 3,   boost,   60.80,  99164.00,  181.46,    1.44,   13.16, 35.4, 4.04, 4.05, 4.03, -68.73,  -3.08,  -0.52, -69.16,  -2.84,  -1.20,  -0.59,  -0.33,   0.11,   0.88, 4.07, 0.00, 0.00, 0.00, 0.00, 1, 1, 15,  41.4882119, -89.4985097,   217.0, 2026,  5, 24, 19, 20, 20,        0,        0,   0,   0,   0.7,   0.4,   0.6,  0,  0,  0,  0, 36,  0,  0,  0,  0,  0, 31,  0,  0,  0, 36, 42,  0, 37,  0, 38, 40,  0, 39,  0, 31, 37,  0,  0, 34, 37,  0,  0
6, 16162, 5,KC9SZP,     0.11, 3,   boost,   55.41,  99164.00,  181.46,    1.44,   13.74, 35.4, 4.04, 4.05, 4.03, -68.47,  -0.63,  -0.64, -60.98,  -4.12,  -0.84,  -0.59,  -0.33,   0.11,   0.87, 4.07, 0.00, 0.00, 0.00, 0.00, 1, 1, 15,  41.4882119, -89.4985097,   217.0, 2026,  5, 24, 19, 20, 20,        0,        0,   0,   0,   0.7,   0.4,   0.6,  0,  0,  0,  0, 36,  0,  0,  0,  0,  0, 31,  0,  0,  0, 36, 42,  0, 37,  0, 38, 40,  0, 39,  0, 31, 37,  0,  0, 34, 37,  0,  0
6, 16162, 5,KC9SZP,     0.12, 3,   boost,   59.33,  99154.00,  182.31,    2.29,   14.33, 35.4, 4.04, 4.05, 4.03, -68.14,  -2.26,  -1.12, -63.49,  -5.34,  -0.90,  -0.59,  -0.33,   0.11,   0.86, 4.07, 0.00, 0.00, 0.00, 0.00, 1, 1, 15,  41.4882119, -89.4985097,   217.0, 2026,  5, 24, 19, 20, 20,        0,        0,   0,   0,   0.7,   0.4,   0.6,  0,  0,  0,  0, 36,  0,  0,  0,  0,  0, 31,  0,  0,  0, 36, 42,  0, 37,  0, 38, 40,  0, 39,  0, 31, 37,  0,  0, 34, 37,  0,  0
6, 16162, 5,KC9SZP,     0.13, 3,   boost,   59.82,  99154.00,  182.31,    2.29,   14.92, 35.4, 4.04, 4.05, 4.03, -68.57,  -1.63,  -2.60, -62.39,  -5.65,  -0.59,  -0.58,  -0.33,   0.10,   0.86, 4.07, 0.00, 0.00, 0.00, 0.00, 1, 1, 15,  41.4882119, -89.4985097,   217.0, 2026,  5, 24, 19, 20, 20,        0,        0,   0,   0,   0.7,   0.4,   0.6,  0,  0,  0,  0, 36,  0,  0,  0,  0,  0, 31,  0,  0,  0, 36, 42,  0, 37,  0, 38, 40,  0, 39,  0, 31, 37,  0,  0, 34, 37,  0,  0
6, 16162, 5,KC9SZP,     0.14, 3,   boost,   60.80,  99155.00,  182.22,    2.20,   15.51, 35.4, 4.04, 4.05, 4.03, -68.30,  -0.94,  -1.36, -52.87,  -3.57,   0.32,  -0.59,  -0.33,   0.10,   0.87, 4.07, 0.00, 0.00, 0.00, 0.00, 1, 1, 15,  41.4882119, -89.4985097,   217.0, 2026,  5, 24, 19, 20, 20,        0,        0,   0,   0,   0.7,   0.4,   0.6,  0,  0,  0,  0, 36,  0,  0,  0,  0,  0, 31,  0,  0,  0, 36, 42,  0, 37,  0, 38, 40,  0, 39,  0, 31, 37,  0,  0, 34, 37,  0,  0
6, 16162, 5,KC9SZP,     0.15, 3,   boost,   58.84,  99155.00,  182.22,    2.20,   16.10, 35.4, 4.04, 4.05, 4.03, -70.45,  -0.79,   1.26, -68.37,  -3.82,   1.06,  -0.59,  -0.33,   0.10,   0.88, 4.07, 0.00, 0.00, 0.00, 0.00, 1, 1, 15,  41.4882119, -89.4985097,   217.0, 2026,  5, 24, 19, 20, 20,        0,        0,   0,   0,   0.7,   0.4,   0.6,  0,  0,  0,  0, 36,  0,  0,  0,  0,  0, 31,  0,  0,  0, 36, 42,  0, 37,  0, 38, 40,  0, 39,  0, 31, 37,  0,  0, 34, 37,  0,  0
6, 16162, 5,KC9SZP,     0.16, 3,   boost,   58.35,  99147.00,  182.90,    2.88,   16.69, 35.4, 4.04, 4.05, 4.03, -68.24,  -3.77,  -1.29, -69.28,  -3.09,   2.40,  -0.58,  -0.33,   0.09,   0.91, 4.07, 0.00, 0.00, 0.00, 0.00, 1, 1, 15,  41.4882119, -89.4985097,   217.0, 2026,  5, 24, 19, 20, 20,        0,        0,   0,   0,   0.7,   0.4,   0.6,  0,  0,  0,  0, 36,  0,  0,  0,  0,  0, 31,  0,  0,  0, 36, 42,  0, 37,  0, 38, 40,  0, 39,  0, 31, 37,  0,  0, 34, 37,  0,  0
6, 16162, 5,KC9SZP,     0.17, 3,   boost,   57.37,  99147.00,  182.90,    2.88,   17.28, 35.4, 4.04, 4.05, 4.03, -68.43,   1.18,   0.44, -69.04,  -4.00,   2.95,  -0.58,  -0.33,   0.09,   0.95, 4.07, 0.00, 0.00, 0.00, 0.00, 1, 1, 15,  41.4882119, -89.4985097,   217.0, 2026,  5, 24, 19, 20, 20,        0,        0,   0,   0,   0.7,   0.4,   0.6,  0,  0,  0,  0, 36,  0,  0,  0,  0,  0, 31,  0,  0,  0, 36, 42,  0, 37,  0, 38, 40,  0, 39,  0, 31, 37,  0,  0, 34, 37,  0,  0
6, 16162, 5,KC9SZP,     0.18, 3,   boost,   60.31,  99124.00,  184.85,    4.83,   17.87, 35.4, 4.04, 4.05, 4.03, -69.26,  -2.85,  -0.05, -68.55,  -4.67,   2.46,  -0.59,  -0.33,   0.09,   0.98, 4.07, 0.00, 0.00, 0.00, 0.00, 1, 1, 15,  41.4882119, -89.4985097,   217.0, 2026,  5, 24, 19, 20, 20,        0,        0,   0,   0,   0.7,   0.4,   0.6,  0,  0,  0,  0, 36,  0,  0,  0,  0,  0, 31,  0,  0,  0, 36, 42,  0, 37,  0, 38, 40,  0, 39,  0, 31, 37,  0,  0, 34, 37,  0,  0
6, 16162, 5,KC9SZP,     0.19, 3,   boost,   58.84,  99124.00,  184.85,    4.83,   18.46, 35.4, 4.04, 4.05, 4.03, -68.49,  -1.04,   1.77, -69.59,  -4.31,   3.19,  -0.59,  -0.33,   0.09,   1.02, 4.07, 0.00, 0.00, 0.00, 0.00, 1, 1, 15,  41.4882119, -89.4985097,   217.0, 2026,  5, 24, 19, 20, 20,        0,        0,   0,   0,   0.7,   0.4,   0.6,  0,  0,  0,  0, 36,  0,  0,  0,  0,  0, 31,  0,  0,  0, 36, 42,  0, 37,  0, 38, 40,  0, 39,  0, 31, 37,  0,  0, 34, 37,  0,  0
6, 16162, 5,KC9SZP,     0.20, 3,   boost,   58.35,  99141.00,  183.41,    3.39,   19.04, 35.4, 4.04, 4.05, 4.03, -68.50,  -2.74,  -0.75, -69.96,  -5.71,   4.54,  -0.59,  -0.33,   0.08,   1.08, 4.07, 0.00, 0.00, 0.00, 0.00, 1, 1, 15,  41.4882119, -89.4985097,   217.0, 2026,  5, 24, 19, 20, 20,        0,        0,   0,   0,   0.7,   0.4,   0.6,  0,  0,  0,  0, 36,  0,  0,  0,  0,  0, 31,  0,  0,  0, 36, 42,  0, 37,  0, 38, 40,  0, 39,  0, 31, 37,  0,  0, 34, 37,  0,  0
6, 16162, 5,KC9SZP,     0.21, 3,   boost,   58.35,  99141.00,  183.41,    3.39,   19.63, 35.4, 4.04, 4.05, 4.03, -69.02,   0.32,   0.07, -69.96,  -5.16,   4.29,  -0.59,  -0.33,   0.08,   1.14, 4.07, 0.00, 0.00, 0.00, 0.00, 1, 1, 15,  41.4882119, -89.4985097,   217.0, 2026,  5, 24, 19, 20, 20,        0,        0,   0,   0,   0.7,   0.4,   0.6,  0,  0,  0,  0, 36,  0,  0,  0,  0,  0, 31,  0,  0,  0, 36, 42,  0, 37,  0, 38, 40,  0, 39,  0, 31, 37,  0,  0, 34, 37,  0,  0
6, 16162, 5,KC9SZP,     0.22, 3,   boost,   57.86,  99135.00,  183.92,    3.90,   20.22, 35.4, 4.04, 4.05, 4.03, -68.68,  -2.64,   0.17, -71.12,  -7.79,   4.35,  -0.59,  -0.33,   0.08,   1.21, 4.07, 0.00, 0.00, 0.00, 0.00, 1, 1, 15,  41.4882119, -89.4985097,   217.0, 2026,  5, 24, 19, 20, 20,        0,        0,   0,   0,   0.7,   0.4,   0.6,  0,  0,  0,  0, 36,  0,  0,  0,  0,  0, 31,  0,  0,  0, 36, 42,  0, 37,  0, 38, 40,  0, 39,  0, 31, 37,  0,  0, 34, 37,  0,  0
6, 16162, 5,KC9SZP,     0.23, 3,   boost,   59.82,  99135.00,  183.92,    3.90,   20.81, 35.4, 4.04, 4.05, 4.03, -68.79,  -1.19,   0.53, -72.46,  -6.26,   5.02,  -0.59,  -0.33,   0.08,   1.27, 4.07, 0.00, 0.00, 0.00, 0.00, 1, 1, 15,  41.4882119, -89.4985097,   217.0, 2026,  5, 24, 19, 20, 20,        0,        0,   0,   0,   0.7,   0.4,   0.6,  0,  0,  0,  0, 36,  0,  0,  0,  0,  0, 31,  0,  0,  0, 36, 42,  0, 37,  0, 38, 40,  0, 39,  0, 31, 37,  0,  0, 34, 37,  0,  0
6, 16162, 5,KC9SZP,     0.24, 3,   boost,   58.84,  99129.00,  184.43,    4.41,   21.40, 35.4, 4.04, 4.05, 4.03, -69.45,  -2.05,  -0.70, -74.90,  -6.38,   5.82,  -0.59,  -0.32,   0.07,   1.35, 4.07, 0.00, 0.00, 0.00, 0.00, 1, 1, 15,  41.4882119, -89.4985097,   217.0, 2026,  5, 24, 19, 20, 20,        0,        0,   0,   0,   0.7,   0.4,   0.6,  0,  0,  0,  0, 36,  0,  0,  0,  0,  0, 31,  0,  0,  0, 36, 42,  0, 37,  0, 38, 40,  0, 39,  0, 31, 37,  0,  0, 34, 37,  0,  0
6, 16162, 5,KC9SZP,     0.25, 3,   boost,   59.33,  99129.00,  184.43,    4.41,   21.99, 35.4, 4.04, 4.05, 4.03, -69.52,  -0.40,  -0.24, -75.27,  -5.89,   5.57,  -0.59,  -0.33,   0.07,   1.43, 4.07, 0.00, 0.00, 0.00, 0.00, 1, 1, 15,  41.4882119, -89.4985097,   217.0, 2026,  5, 24, 19, 20, 20,        0,        0,   0,   0,   0.7,   0.4,   0.6,  0,  0,  0,  0, 36,  0,  0,  0,  0,  0, 31,  0,  0,  0, 36, 42,  0, 37,  0, 38, 40,  0, 39,  0, 31, 37,  0,  0, 34, 37,  0,  0
6, 16162, 5,KC9SZP,     0.26, 3,   boost,   58.35,  99121.00,  185.10,    5.08,   22.58, 35.4, 4.04, 4.05, 4.03, -69.87,  -2.41,   1.22, -76.12,  -5.83,   5.57,  -0.59,  -0.33,   0.07,   1.50, 4.07, 0.00, 0.00, 0.00, 0.00, 1, 1, 15,  41.4882119, -89.4985097,   217.0, 2026,  5, 24, 19, 20, 20,        0,        0,   0,   0,   0.7,   0.4,   0.6,  0,  0,  0,  0, 36,  0,  0,  0,  0,  0, 31,  0,  0,  0, 36, 42,  0, 37,  0, 38, 40,  0, 39,  0, 31, 37,  0,  0, 34, 37,  0,  0
6, 16162, 5,KC9SZP,     0.27, 3,   boost,   61.29,  99121.00,  185.10,    5.08,   23.18, 35.4, 4.04, 4.05, 4.03, -68.85,  -1.16,  -0.10, -77.89,  -4.98,   6.31,  -0.59,  -0.32,   0.06,   1.58, 4.07, 0.00, 0.00, 0.00, 0.00, 1, 1, 15,  41.4882119, -89.4985097,   217.0, 2026,  5, 24, 19, 20, 20,        0,        0,   0,   0,   0.7,   0.4,   0.6,  0,  0,  0,  0, 36,  0,  0,  0,  0,  0, 31,  0,  0,  0, 36, 42,  0, 37,  0, 38, 40,  0, 39,  0, 31, 37,  0,  0, 34, 37,  0,  0
6, 16162, 5,KC9SZP,     0.28, 3,   boost,   61.29,  99122.00,  185.02,    5.00,   23.78, 35.4, 4.04, 4.05, 4.03, -68.57,  -1.77,  -0.40, -79.05,  -5.28,   6.49,  -0.59,  -0.32,   0.06,   1.66, 4.07, 0.00, 0.00, 0.00, 0.00, 1, 1, 15,  41.4882119, -89.4985097,   217.0, 2026,  5, 24, 19, 20, 20,        0,        0,   0,   0,   0.7,   0.4,   0.6,  0,  0,  0,  0, 36,  0,  0,  0,  0,  0, 31,  0,  0,  0, 36, 42,  0, 37,  0, 38, 40,  0, 39,  0, 31, 37,  0,  0, 34, 37,  0,  0
6, 16162, 5,KC9SZP,     0.29, 3,   boost,   58.35,  99122.00,  185.02,    5.00,   24.38, 35.4, 4.04, 4.05, 4.03, -68.59,  -0.76,   0.17, -79.11,  -4.86,   6.55,  -0.59,  -0.32,   0.06,   1.74, 4.07, 0.00, 0.00, 0.00, 0.00, 1, 1, 15,  41.4882119, -89.4985097,   217.0, 2026,  5, 24, 19, 20, 20,        0,        0,   0,   0,   0.7,   0.4,   0.6,  0,  0,  0,  0, 36,  0,  0,  0,  0,  0, 31,  0,  0,  0, 36, 42,  0, 37,  0, 38, 40,  0, 39,  0, 31, 37,  0,  0, 34, 37,  0,  0
6, 16162, 5,KC9SZP,     0.30, 3,   boost,   62.27,  99109.00,  186.12,    6.10,   24.98, 35.4, 4.04, 4.05, 4.03, -68.59,  -2.25,   0.25, -79.23,  -4.80,   6.79,  -0.59,  -0.32,   0.05,   1.82, 4.07, 0.00, 0.00, 0.00, 0.00, 1, 1, 15,  41.4882119, -89.4985097,   217.0, 2026,  5, 24, 19, 20, 20,        0,        0,   0,   0,   0.7,   0.4,   0.6,  0,  0,  0,  0, 36,  0,  0,  0,  0,  0, 31,  0,  0,  0, 36, 42,  0, 37,  0, 38, 40,  0, 39,  0, 31, 37,  0,  0, 34, 37,  0,  0
6, 16162, 5,KC9SZP,     0.31, 3,   boost,   57.86,  99109.00,  186.12,    6.10,   25.59, 35.4, 4.04, 4.05, 4.03, -68.40,  -0.88,  -0.11, -79.05,  -3.45,   7.22,  -0.59,  -0.32,   0.05,   1.90, 4.07, 0.00, 0.00, 0.00, 0.00, 1, 1, 15,  41.4882119, -89.4985097,   217.0, 2026,  5, 24, 19, 20, 20,        0,        0,   0,   0,   0.7,   0.4,   0.6,  0,  0,  0,  0, 36,  0,  0,  0,  0,  0, 31,  0,  0,  0, 36, 42,  0, 37,  0, 38, 40,  0, 39,  0, 31, 37,  0,  0, 34, 37,  0,  0
6, 16162, 5,KC9SZP,     0.32, 3,   boost,   62.27,  99109.00,  186.12,    6.10,   26.19, 35.4, 4.04, 4.05, 4.03, -68.98,  -1.48,  -0.56, -79.78,  -3.64,   7.47,  -0.59,  -0.32,   0.05,   1.98, 4.07, 0.00, 0.00, 0.00, 0.00, 1, 1, 15,  41.4882119, -89.4985097,   217.0, 2026,  5, 24, 19, 20, 20,        0,        0,   0,   0,   0.7,   0.4,   0.6,  0,  0,  0,  0, 36,  0,  0,  0,  0,  0, 31,  0,  0,  0, 36, 42,  0, 37,  0, 38, 40,  0, 39,  0, 31, 37,  0,  0, 34, 37,  0,  0
6, 16162, 5,KC9SZP,     0.33, 3,   boost,   59.33,  99109.00,  186.12,    6.10,   26.79, 35.4, 4.04, 4.05, 4.03, -69.31,  -1.06,   0.76, -80.45,  -2.54,   7.59,  -0.59,  -0.32,   0.04,   2.06, 4.07, 0.00, 0.00, 0.00, 0.00, 1, 1, 15,  41.4882119, -89.4985097,   217.0, 2026,  5, 24, 19, 20, 20,        0,        0,   0,   0,   0.7,   0.4,   0.6,  0,  0,  0,  0, 36,  0,  0,  0,  0,  0, 31,  0,  0,  0, 36, 42,  0, 37,  0, 38, 40,  0, 39,  0, 31, 37,  0,  0, 34, 37,  0,  0
6, 16162, 5,KC9SZP,     0.34, 3,   boost,   60.31,  99097.00,  187.14,    7.12,   27.39, 35.4, 4.03, 4.05, 4.04, -69.06,  -1.82,  -0.35, -81.19,  -2.96,   7.89,  -0.59,  -0.32,   0.04,   2.14, 4.05, 0.00, 0.01, 0.00, 0.00, 1, 1, 15,  41.4882119, -89.4985097,   217.0, 2026,  5, 24, 19, 20, 20,        0,        0,   0,   0,   0.7,   0.4,   0.6,  0,  0,  0,  0, 36,  0,  0,  0,  0,  0, 31,  0,  0,  0, 36, 42,  0, 37,  0, 38, 40,  0, 39,  0, 31, 37,  0,  0, 34, 37,  0,  0
6, 16162, 5,KC9SZP,     0.34, 3,   boost,   60.31,  99097.00,  187.14,    7.12,   27.39, 35.4, 4.03, 4.05, 4.04, -69.06,  -1.82,  -0.35, -81.19,  -2.96,   7.89,  -0.59,  -0.32,   0.04,   2.14, 4.05, 0.00, 0.01, 0.00, 0.00, 1, 1, 15,  41.4882119, -89.4985097,   217.0, 2026,  5, 24, 19, 20, 20,        0,        0,   0,   0,   0.7,   0.4,   0.6,  0,  0,  0,  0, 36,  0,  0,  0,  0,  0, 31,  0,  0,  0, 36, 42,  0, 37,  0, 38, 40,  0, 39,  0, 31, 37,  0,  0, 34, 37,  0,  0
6, 16162, 5,KC9SZP,     0.35, 3,   boost,   58.35,  99097.00,  187.14,    7.12,   27.99, 35.4, 4.03, 4.05, 4.04, -70.01,  -0.88,   0.42, -81.43,  -1.44,   8.26,  -0.59,  -0.32,   0.04,   2.23, 4.05, 0.00, 0.01, 0.00, 0.00, 1, 1, 15,  41.4882119, -89.4985097,   217.0, 2026,  5, 24, 19, 20, 20,        0,        0,   0,   0,   0.7,   0.4,   0.6,  0,  0,  0,  0, 36,  0,  0,  0,  0,  0, 31,  0,  0,  0, 36, 42,  0, 37,  0, 38, 40,  0, 39,  0, 31, 37,  0,  0, 34, 37,  0,  0
6, 16162, 5,KC9SZP,     0.36, 3,   boost,   62.27,  99096.00,  187.22,    7.20,   28.59, 35.4, 4.03, 4.05, 4.04, -69.65,  -1.44,  -0.57, -81.55,  -1.68,   8.14,  -0.59,  -0.32,   0.03,   2.31, 4.05, 0.00, 0.01, 0.00, 0.00, 1, 1, 15,  41.4882119, -89.4985097,   217.0, 2026,  5, 24, 19, 20, 20,        0,        0,   0,   0,   0.7,   0.4,   0.6,  0,  0,  0,  0, 36,  0,  0,  0,  0,  0, 31,  0,  0,  0, 36, 42,  0, 37,  0, 38, 40,  0, 39,  0, 31, 37,  0,  0, 34, 37,  0,  0
6, 16162, 5,KC9SZP,     0.37, 3,   boost,   58.84,  99096.00,  187.22,    7.20,   29.19, 35.4, 4.03, 4.05, 4.04, -69.86,  -1.31,   0.94, -81.92,  -0.64,   8.01,  -0.59,  -0.32,   0.03,   2.39, 4.05, 0.00, 0.01, 0.00, 0.00, 1, 1, 15,  41.4882119, -89.4985097,   217.0, 2026,  5, 24, 19, 20, 20,        0,        0,   0,   0,   0.7,   0.4,   0.6,  0,  0,  0,  0, 36,  0,  0,  0,  0,  0, 31,  0,  0,  0, 36, 42,  0, 37,  0, 38, 40,  0, 39,  0, 31, 37,  0,  0, 34, 37,  0,  0
6, 16162, 5,KC9SZP,     0.38, 3,   boost,   60.80,  99091.00,  187.65,    7.63,   29.78, 35.4, 4.03, 4.05, 4.04, -70.04,  -1.39,  -0.41, -81.49,  -0.16,   7.95,  -0.59,  -0.31,   0.03,   2.47, 4.05, 0.00, 0.01, 0.00, 0.00, 1, 1, 15,  41.4882119, -89.4985097,   217.0, 2026,  5, 24, 19, 20, 20,        0,        0,   0,   0,   0.7,   0.4,   0.6,  0,  0,  0,  0, 36,  0,  0,  0,  0,  0, 31,  0,  0,  0, 36, 42,  0, 37,  0, 38, 40,  0, 39,  0, 31, 37,  0,  0, 34, 37,  0,  0
6, 16162, 5,KC9SZP,     0.39, 3,   boost,   58.84,  99091.00,  187.65,    7.63,   30.38, 35.4, 4.03, 4.05, 4.04, -69.66,  -0.91,  -0.01, -80.33,   0.45,   8.26,  -0.59,  -0.31,   0.03,   2.54, 4.05, 0.00, 0.01, 0.00, 0.00, 1, 1, 15,  41.4882119, -89.4985097,   217.0, 2026,  5, 24, 19, 20, 20,        0,        0,   0,   0,   0.7,   0.4,   0.6,  0,  0,  0,  0, 36,  0,  0,  0,  0,  0, 31,  0,  0,  0, 36, 42,  0, 37,  0, 38, 40,  0, 39,  0, 31, 37,  0,  0, 34, 37,  0,  0
6, 16162, 5,KC9SZP,     0.40, 3,   boost,   58.84,  99085.00,  188.15,    8.13,   30.98, 35.4, 4.03, 4.05, 4.04, -69.70,  -1.52,   0.09, -79.05,   0.58,   8.08,  -0.59,  -0.31,   0.03,   2.62, 4.05, 0.00, 0.01, 0.00, 0.00, 1, 1, 15,  41.4882119, -89.4985097,   217.0, 2026,  5, 24, 19, 20, 20,        0,        0,   0,   0,   0.7,   0.4,   0.6,  0,  0,  0,  0, 36,  0,  0,  0,  0,  0, 31,  0,  0,  0, 36, 42,  0, 37,  0, 38, 40,  0, 39,  0, 31, 37,  0,  0, 34, 37,  0,  0
6, 16162, 5,KC9SZP,     0.41, 3,   boost,   59.82,  99085.00,  188.15,    8.13,   31.58, 35.4, 4.03, 4.05, 4.04, -69.63,  -1.20,   0.11, -76.18,   1.19,   8.26,  -0.59,  -0.31,   0.02,   2.70, 4.05, 0.00, 0.01, 0.00, 0.00, 1, 1, 15,  41.4882119, -89.4985097,   217.0, 2026,  5, 24, 19, 20, 20,        0,        0,   0,   0,   0.7,   0.4,   0.6,  0,  0,  0,  0, 36,  0,  0,  0,  0,  0, 31,  0,  0,  0, 36, 42,  0, 37,  0, 38, 40,  0, 39,  0, 31, 37,  0,  0, 34, 37,  0,  0
6, 16162, 5,KC9SZP,     0.42, 3,   boost,   61.78,  99073.00,  189.17,    9.15,   32.18, 35.4, 4.03, 4.05, 4.04, -70.65,  -1.08,  -0.11, -73.37,   1.55,   7.83,  -0.59,  -0.31,   0.02,   2.77, 4.05, 0.00, 0.01, 0.00, 0.00, 1, 1, 15,  41.4882119, -89.4985097,   217.0, 2026,  5, 24, 19, 20, 20,        0,        0,   0,   0,   0.7,   0.4,   0.6,  0,  0,  0,  0, 36,  0,  0,  0,  0,  0, 31,  0,  0,  0, 36, 42,  0, 37,  0, 38, 40,  0, 39,  0, 31, 37,  0,  0, 34, 37,  0,  0
6, 16162, 5,KC9SZP,     0.43, 3,   boost,   63.74,  99073.00,  189.17,    9.15,   32.77, 35.4, 4.03, 4.05, 4.04, -71.91,  -1.59,  -0.29, -70.81,   1.55,   8.08,  -0.60,  -0.31,   0.02,   2.85, 4.05, 0.00, 0.01, 0.00, 0.00, 1, 1, 15,  41.4882119, -89.4985097,   217.0, 2026,  5, 24, 19, 20, 20,        0,        0,   0,   0,   0.7,   0.4,   0.6,  0,  0,  0,  0, 36,  0,  0,  0,  0,  0, 31,  0,  0,  0, 36, 42,  0, 37,  0, 38, 40,  0, 39,  0, 31, 37,  0,  0, 34, 37,  0,  0
6, 16162, 5,KC9SZP,     0.44, 3,   boost,   52.96,  99063.00,  190.02,   10.00,   33.36, 35.4, 4.03, 4.05, 4.04, -70.13,  -1.16,  -0.28, -68.00,   1.49,   7.71,  -0.60,  -0.31,   0.02,   2.93, 4.05, 0.00, 0.01, 0.00, 0.00, 1, 1, 15,  41.4882119, -89.4985097,   217.0, 2026,  5, 24, 19, 20, 20,        0,        0,   0,   0,   0.7,   0.4,   0.6,  0,  0,  0,  0, 36,  0,  0,  0,  0,  0, 31,  0,  0,  0, 36, 42,  0, 37,  0, 38, 40,  0, 39,  0, 31, 37,  0,  0, 34, 37,  0,  0
6, 16162, 5,KC9SZP,     0.45, 3,   boost,   56.88,  99063.00,  190.02,   10.00,   33.96, 35.4, 4.03, 4.05, 4.04, -67.07,  -1.11,   0.17, -65.01,   1.92,   7.71,  -0.60,  -0.31,   0.02,   3.00, 4.05, 0.00, 0.01, 0.00, 0.00, 1, 1, 15,  41.4882119, -89.4985097,   217.0, 2026,  5, 24, 19, 20, 20,        0,        0,   0,   0,   0.7,   0.4,   0.6,  0,  0,  0,  0, 36,  0,  0,  0,  0,  0, 31,  0,  0,  0, 36, 42,  0, 37,  0, 38, 40,  0, 39,  0, 31, 37,  0,  0, 34, 37,  0,  0
6, 16162, 5,KC9SZP,     0.46, 3,   boost,   63.25,  99060.00,  190.27,   10.25,   34.56, 35.4, 4.03, 4.05, 4.04, -74.72,  -1.20,   0.13, -60.25,   1.98,   7.10,  -0.59,  -0.30,   0.01,   3.07, 4.05, 0.00, 0.01, 0.00, 0.00, 1, 1, 15,  41.4882119, -89.4985097,   217.0, 2026,  5, 24, 19, 20, 20,        0,        0,   0,   0,   0.7,   0.4,   0.6,  0,  0,  0,  0, 36,  0,  0,  0,  0,  0, 31,  0,  0,  0, 36, 42,  0, 37,  0, 38, 40,  0, 39,  0, 31, 37,  0,  0, 34, 37,  0,  0
6, 16162, 5,KC9SZP,     0.47, 3,   boost,   61.29,  99060.00,  190.27,   10.25,   35.16, 35.4, 4.03, 4.05, 4.04, -72.02,  -1.90,   0.11, -58.79,   0.94,   7.47,  -0.59,  -0.30,   0.01,   3.14, 4.05, 0.00, 0.01, 0.00, 0.00, 1, 1, 15,  41.4882119, -89.4985097,   217.0, 2026,  5, 24, 19, 20, 20,        0,        0,   0,   0,   0.7,   0.4,   0.6,  0,  0,  0,  0, 36,  0,  0,  0,  0,  0, 31,  0,  0,  0, 36, 42,  0, 37,  0, 38, 40,  0, 39,  0, 31, 37,  0,  0, 34, 37,  0,  0
6, 16162, 5,KC9SZP,     0.48, 3,   boost,   64.23,  99054.00,  190.78,   10.76,   35.77, 35.4, 4.03, 4.05, 4.04, -72.00,  -0.67,  -0.05, -54.70,   0.70,   6.98,  -0.59,  -0.30,   0.01,   3.21, 4.05, 0.00, 0.01, 0.00, 0.00, 1, 1, 15,  41.4882119, -89.4985097,   217.0, 2026,  5, 24, 19, 20, 20,        0,        0,   0,   0,   0.7,   0.4,   0.6,  0,  0,  0,  0, 36,  0,  0,  0,  0,  0, 31,  0,  0,  0, 36, 42,  0, 37,  0, 38, 40,  0, 39,  0, 31, 37,  0,  0, 34, 37,  0,  0
6, 16162, 5,KC9SZP,     0.49, 3,   boost,   59.33,  99054.00,  190.78,   10.76,   36.38, 35.4, 4.03, 4.05, 4.04, -71.84,  -1.37,  -0.05, -51.95,   1.31,   7.04,  -0.59,  -0.30,   0.01,   3.28, 4.05, 0.00, 0.01, 0.00, 0.00, 1, 1, 15,  41.4882119, -89.4985097,   217.0, 2026,  5, 24, 19, 20, 20,        0,        0,   0,   0,   0.7,   0.4,   0.6,  0,  0,  0,  0, 36,  0,  0,  0,  0,  0, 31,  0,  0,  0, 36, 42,  0, 37,  0, 38, 40,  0, 39,  0, 31, 37,  0,  0, 34, 37,  0,  0
6, 16162, 5,KC9SZP,     0.50, 3,   boost,   57.86,  99045.00,  191.55,   11.53,   36.99, 35.4, 4.03, 4.05, 4.04, -71.20,  -1.08,  -0.49, -49.33,  -0.34,   6.86,  -0.59,  -0.30,   0.00,   3.35, 4.05, 0.00, 0.01, 0.00, 0.00, 1, 1, 15,  41.4882119, -89.4985097,   217.0, 2026,  5, 24, 19, 20, 20,        0,        0,   0,   0,   0.7,   0.4,   0.6,  0,  0,  0,  0, 36,  0,  0,  0,  0,  0, 31,  0,  0,  0, 36, 42,  0, 37,  0, 38, 40,  0, 39,  0, 31, 37,  0,  0, 34, 37,  0,  0
6, 16162, 5,KC9SZP,     0.51, 3,   boost,   66.19,  99045.00,  191.55,   11.53,   37.59, 35.4, 4.03, 4.05, 4.04, -71.69,  -1.36,  -0.23, -44.08,   0.27,   6.86,  -0.59,  -0.30,   0.00,   3.42, 4.05, 0.00, 0.01, 0.00, 0.00, 1, 1, 15,  41.4882119, -89.4985097,   217.0, 2026,  5, 24, 19, 20, 20,        0,        0,   0,   0,   0.7,   0.4,   0.6,  0,  0,  0,  0, 36,  0,  0,  0,  0,  0, 31,  0,  0,  0, 36, 42,  0, 37,  0, 38, 40,  0, 39,  0, 31, 37,  0,  0, 34, 37,  0,  0
6, 16162, 5,KC9SZP,     0.52, 3,   boost,   53.94,  99043.00,  191.71,   11.69,   38.19, 35.4, 4.03, 4.05, 4.04, -71.15,  -0.73,  -0.34, -40.78,   0.82,   6.31,  -0.59,  -0.30,   0.00,   3.48, 4.05, 0.00, 0.01, 0.00, 0.00, 1, 1, 15,  41.4882119, -89.4985097,   217.0, 2026,  5, 24, 19, 20, 20,        0,        0,   0,   0,   0.7,   0.4,   0.6,  0,  0,  0,  0, 36,  0,  0,  0,  0,  0, 31,  0,  0,  0, 36, 42,  0, 37,  0, 38, 40,  0, 39,  0, 31, 37,  0,  0, 34, 37,  0,  0
6, 16162, 5,KC9SZP,     0.53, 3,   boost,   63.25,  99043.00,  191.71,   11.69,   38.79, 35.4, 4.03, 4.05, 4.04, -70.82,  -1.09,  -0.23, -38.46,   1.25,   6.00,  -0.59,  -0.30,   0.00,   3.54, 4.05, 0.00, 0.01, 0.00, 0.00, 1, 1, 15,  41.4882119, -89.4985097,   217.0, 2026,  5, 24, 19, 20, 20,        0,        0,   0,   0,   0.7,   0.4,   0.6,  0,  0,  0,  0, 36,  0,  0,  0,  0,  0, 31,  0,  0,  0, 36, 42,  0, 37,  0, 38, 40,  0, 39,  0, 31, 37,  0,  0, 34, 37,  0,  0
6, 16162, 5,KC9SZP,     0.54, 3,   boost,   55.41,  99022.00,  193.50,   13.48,   39.39, 35.4, 4.03, 4.05, 4.04, -70.49,  -1.37,  -0.60, -35.35,   0.94,   5.94,  -0.60,  -0.30,   0.00,   3.60, 4.05, 0.00, 0.01, 0.00, 0.00, 1, 1, 15,  41.4882119, -89.4985097,   217.0, 2026,  5, 24, 19, 20, 20,        0,        0,   0,   0,   0.7,   0.4,   0.6,  0,  0,  0,  0, 36,  0,  0,  0,  0,  0, 31,  0,  0,  0, 36, 42,  0, 37,  0, 38, 40,  0, 39,  0, 31, 37,  0,  0, 34, 37,  0,  0
6, 16162, 5,KC9SZP,     0.55, 3,   boost,   65.21,  99022.00,  193.50,   13.48,   40.00, 35.4, 4.03, 4.05, 4.04, -70.13,  -0.63,  -0.01, -31.38,   1.00,   6.06,  -0.60,  -0.30,   0.00,   3.66, 4.05, 0.00, 0.01, 0.00, 0.00, 1, 1, 15,  41.4882119, -89.4985097,   217.0, 2026,  5, 24, 19, 20, 20,        0,        0,   0,   0,   0.7,   0.4,   0.6,  0,  0,  0,  0, 36,  0,  0,  0,  0,  0, 31,  0,  0,  0, 36, 42,  0, 37,  0, 38, 40,  0, 39,  0, 31, 37,  0,  0, 34, 37,  0,  0
