#version,serial,flight,call,time,state,state_name,acceleration,pressure,altitude,height,speed,temperature,drogue_voltage,main_voltage,battery_voltage,accel_x,accel_y,accel_z,gyro_roll,gyro_pitch,gyro_yaw,mag_x,mag_y,mag_z,tilt,pyro,igniter_a,igniter_b,igniter_c,igniter_d,connected,locked,nsat,latitude,longitude,altitude,year,month,day,hour,minute,second,pad_dist,pad_range,pad_az,pad_el,pdop,hdop,vdop,sat01,sat02,sat03,sat04,sat05,sat06,sat07,sat08,sat09,sat10,sat11,sat12,sat13,sat14,sat15,sat16,sat17,sat18,sat19,sat20,sat21,sat22,sat23,sat24,sat25,sat26,sat27,sat28,sat29,sat30,sat31,sat32
6, 11115, 1,N0CALL,    -0.30, 3,   boost,   -0.49,  98997.00,  195.62,    0.25,    0.00, 17.9, 3.95, 3.95, 3.96,  -9.82,  -0.64,  -0.06,  -0.08,   0.08,  -0.21,  -0.94,  -0.20,  -0.27,   3.64, 3.97, 0.00, 0.00, 0.00, 0.00, 1, 1, 12,  41.7776126, -86.5768673,   200.0, 2024, 12,  8, 15, 29, 28,        0,        0,  62,   0,   1.4,   0.8,   1.2,  0, 27, 27, 32,  0,  0,  0,  0,  0, 39,  0,  0,  0,  0,  0, 33,  0,  0,  0,  0, 13,  0,  0,  0, 25, 33,  0, 37, 37,  0, 34, 38
6, 11115, 1,N0CALL,    -0.29, 3,   boost,   -0.00,  98997.00,  195.62,    0.25,    0.00, 17.9, 3.95, 3.95, 3.96,  -9.79,  -0.61,  -0.09,  -0.14,   0.02,   0.16,  -0.94,  -0.19,  -0.27,   3.64, 3.97, 0.00, 0.00, 0.00, 0.00, 1, 1, 12,  41.7776126, -86.5768673,   200.0, 2024, 12,  8, 15, 29, 28,        0,        0,  62,   0,   1.4,   0.8,   1.2,  0, 27, 27, 32,  0,  0,  0,  0,  0, 39,  0,  0,  0,  0,  0, 33,  0,  0,  0,  0, 13,  0,  0,  0, 25, 33,  0, 37, 37,  0, 34, 38
6, 11115, 1,N0CALL,    -0.28, 3,   boost,   -0.49,  99000.00,  195.36,    0.00,    0.00, 18.0, 3.95, 3.95, 3.96,  -9.83,  -0.65,  -0.06,  -0.08,  -0.10,   0.10,  -0.94,  -0.20,  -0.27,   3.64, 3.97, 0.00, 0.00, 0.00, 0.00, 1, 1, 12,  41.7776126, -86.5768673,   200.0, 2024, 12,  8, 15, 29, 28,        0,        0,  62,   0,   1.4,   0.8,   1.2,  0, 27, 27, 32,  0,  0,  0,  0,  0, 39,  0,  0,  0,  0,  0, 33,  0,  0,  0,  0, 13,  0,  0,  0, 25, 33,  0, 37, 37,  0, 34, 38
6, 11115, 1,N0CALL,    -0.27, 3,   boost,   -0.00,  99000.00,  195.36,    0.00,    0.00, 18.0, 3.95, 3.95, 3.96,  -9.80,  -0.65,  -0.11,   0.04,   0.21,   0.10,  -0.94,  -0.19,  -0.27,   3.64, 3.97, 0.00, 0.00, 0.00, 0.00, 1, 1, 12,  41.7776126, -86.5768673,   200.0, 2024, 12,  8, 15, 29, 28,        0,        0,  62,   0,   1.4,   0.8,   1.2,  0, 27, 27, 32,  0,  0,  0,  0,  0, 39,  0,  0,  0,  0,  0, 33,  0,  0,  0,  0, 13,  0,  0,  0, 25, 33,  0, 37, 37,  0, 34, 38
6, 11115, 1,N0CALL,    -0.26, 3,   boost,   -0.00,  99000.00,  195.36,    0.00,    0.00, 17.9, 3.95, 3.95, 3.96,  -9.82,  -0.62,  -0.11,   0.10,   0.14,  -0.03,  -0.94,  -0.20,  -0.27,   3.64, 3.97, 0.00, 0.00, 0.00, 0.00, 1, 1, 12,  41.7776126, -86.5768673,   200.0, 2024, 12,  8, 15, 29, 28,        0,        0,  62,   0,   1.4,   0.8,   1.2,  0, 27, 27, 32,  0,  0,  0,  0,  0, 39,  0,  0,  0,  0,  0, 33,  0,  0,  0,  0, 13,  0,  0,  0, 25, 33,  0, 37, 37,  0, 34, 38
6, 11115, 1,N0CALL,    -0.25, 3,   boost,    1.96,  99000.00,  195.36,    0.00,    0.00, 17.9, 3.95, 3.95, 3.96,  -9.79,  -0.63,  -0.08,   0.04,  -0.16,  -0.09,  -0.94,  -0.19,  -0.27,   3.64, 3.97, 0.00, 0.00, 0.00, 0.00, 1, 1, 12,  41.7776126, -86.5768673,   200.0, 2024, 12,  8, 15, 29, 28,        0,        0,  62,   0,   1.4,   0.8,   1.2,  0, 27, 27, 32,  0,  0,  0,  0,  0, 39,  0,  0,  0,  0,  0, 33,  0,  0,  0,  0, 13,  0,  0,  0, 25, 33,  0, 37, 37,  0, 34, 38
6, 11115, 1,N0CALL,    -0.24, 3,   boost,   -1.47,  99004.00,  195.02,   -0.34,    0.00, 18.0, 3.95, 3.95, 3.96,  -9.84,  -0.60,  -0.09,   0.10,  -0.10,  -0.03,  -0.94,  -0.19,  -0.27,   3.64, 3.97, 0.00, 0.00, 0.00, 0.00, 1, 1, 12,  41.7776126, -86.5768673,   200.0, 2024, 12,  8, 15, 29, 28,        0,        0,  62,   0,   1.4,   0.8,   1.2,  0, 27, 27, 32,  0,  0,  0,  0,  0, 39,  0,  0,  0,  0,  0, 33,  0,  0,  0,  0, 13,  0,  0,  0, 25, 33,  0, 37, 37,  0, 34, 38
6, 11115, 1,N0CALL,    -0.23, 3,   boost,   -0.00,  99004.00,  195.02,   -0.34,    0.00, 18.0, 3.95, 3.95, 3.96,  -9.81,  -0.58,  -0.14,  -0.14,  -0.04,  -0.15,  -0.94,  -0.19,  -0.27,   3.64, 3.97, 0.00, 0.00, 0.00, 0.00, 1, 1, 12,  41.7776126, -86.5768673,   200.0, 2024, 12,  8, 15, 29, 28,        0,        0,  62,   0,   1.4,   0.8,   1.2,  0, 27, 27, 32,  0,  0,  0,  0,  0, 39,  0,  0,  0,  0,  0, 33,  0,  0,  0,  0, 13,  0,  0,  0, 25, 33,  0, 37, 37,  0, 34, 38
6, 11115, 1,N0CALL,    -0.22, 3,   boost,   -2.45,  99003.00,  195.11,   -0.25,    0.00, 17.9, 3.95, 3.95, 3.96,  -9.79,  -0.63,  -0.06,  -0.14,  -0.28,  -0.09,  -0.94,  -0.20,  -0.27,   3.64, 3.97, 0.00, 0.00, 0.00, 0.00, 1, 1, 12,  41.7776126, -86.5768673,   200.0, 2024, 12,  8, 15, 29, 28,        0,        0,  62,   0,   1.4,   0.8,   1.2,  0, 27, 27, 32,  0,  0,  0,  0,  0, 39,  0,  0,  0,  0,  0, 33,  0,  0,  0,  0, 13,  0,  0,  0, 25, 33,  0, 37, 37,  0, 34, 38
6, 11115, 1,N0CALL,    -0.21, 3,   boost,    1.47,  99003.00,  195.11,   -0.25,    0.00, 17.9, 3.95, 3.95, 3.96,  -9.85,  -0.62,  -0.09,   0.16,   0.14,   0.10,  -0.94,  -0.19,  -0.27,   3.64, 3.97, 0.00, 0.00, 0.00, 0.00, 1, 1, 12,  41.7776124, -86.5768678,   200.0, 2024, 12,  8, 15, 29, 29,        0,        0,   0,   0,   1.4,   0.8,   1.2,  0, 27, 28, 32,  0,  0,  0,  0,  0, 41,  0,  0,  0,  0,  0, 33,  0,  0,  0,  0, 16,  0,  0,  0, 26, 33,  0, 37, 37,  0, 34, 38
6, 11115, 1,N0CALL,    -0.20, 3,   boost,   -0.49,  99013.00,  194.26,   -1.10,    0.00, 18.0, 3.95, 3.95, 3.96,  -9.81,  -0.62,  -0.10,  -0.02,  -0.10,   0.16,  -0.94,  -0.20,  -0.27,   3.64, 3.97, 0.00, 0.00, 0.00, 0.00, 1, 1, 12,  41.7776124, -86.5768678,   200.0, 2024, 12,  8, 15, 29, 29,        0,        0,   0,   0,   1.4,   0.8,   1.2,  0, 27, 28, 32,  0,  0,  0,  0,  0, 41,  0,  0,  0,  0,  0, 33,  0,  0,  0,  0, 16,  0,  0,  0, 26, 33,  0, 37, 37,  0, 34, 38
6, 11115, 1,N0CALL,    -0.19, 3,   boost,   -0.98,  99013.00,  194.26,   -1.10,    0.00, 18.0, 3.95, 3.95, 3.96,  -9.84,  -0.63,  -0.10,  -0.21,   0.08,   0.03,  -0.94,  -0.20,  -0.27,   3.64, 3.97, 0.00, 0.00, 0.00, 0.00, 1, 1, 12,  41.7776124, -86.5768678,   200.0, 2024, 12,  8, 15, 29, 29,        0,        0,   0,   0,   1.4,   0.8,   1.2,  0, 27, 28, 32,  0,  0,  0,  0,  0, 41,  0,  0,  0,  0,  0, 33,  0,  0,  0,  0, 16,  0,  0,  0, 26, 33,  0, 37, 37,  0, 34, 38
6, 11115, 1,N0CALL,    -0.18, 3,   boost,   -1.47,  99007.00,  194.77,   -0.59,    0.00, 17.9, 3.95, 3.95, 3.96,  -9.82,  -0.59,  -0.11,  -0.02,  -0.04,   0.03,  -0.94,  -0.19,  -0.27,   3.64, 3.97, 0.00, 0.00, 0.00, 0.00, 1, 1, 12,  41.7776124, -86.5768678,   200.0, 2024, 12,  8, 15, 29, 29,        0,        0,   0,   0,   1.4,   0.8,   1.2,  0, 27, 28, 32,  0,  0,  0,  0,  0, 41,  0,  0,  0,  0,  0, 33,  0,  0,  0,  0, 16,  0,  0,  0, 26, 33,  0, 37, 37,  0, 34, 38
6, 11115, 1,N0CALL,    -0.17, 3,   boost,   -0.00,  99007.00,  194.77,   -0.59,    0.00, 17.9, 3.95, 3.95, 3.96,  -9.77,  -0.60,  -0.18,   0.16,  -0.10,   0.28,  -0.94,  -0.20,  -0.27,   3.64, 3.97, 0.00, 0.00, 0.00, 0.00, 1, 1, 12,  41.7776124, -86.5768678,   200.0, 2024, 12,  8, 15, 29, 29,        0,        0,   0,   0,   1.4,   0.8,   1.2,  0, 27, 28, 32,  0,  0,  0,  0,  0, 41,  0,  0,  0,  0,  0, 33,  0,  0,  0,  0, 16,  0,  0,  0, 26, 33,  0, 37, 37,  0, 34, 38
6, 11115, 1,N0CALL,    -0.16, 3,   boost,    0.98,  98997.00,  195.62,    0.25,    0.00, 17.9, 3.95, 3.95, 3.96,  -9.80,  -0.60,  -0.09,   0.28,  -0.10,   0.22,  -0.94,  -0.20,  -0.27,   3.64, 3.97, 0.00, 0.00, 0.00, 0.00, 1, 1, 12,  41.7776124, -86.5768678,   200.0, 2024, 12,  8, 15, 29, 29,        0,        0,   0,   0,   1.4,   0.8,   1.2,  0, 27, 28, 32,  0,  0,  0,  0,  0, 41,  0,  0,  0,  0,  0, 33,  0,  0,  0,  0, 16,  0,  0,  0, 26, 33,  0, 37, 37,  0, 34, 38
6, 11115, 1,N0CALL,    -0.15, 3,   boost,    1.47,  98997.00,  195.62,    0.25,    0.00, 17.9, 3.95, 3.95, 3.96,  -9.79,  -0.63,  -0.08,   0.04,   0.33,  -0.03,  -0.94,  -0.20,  -0.27,   3.64, 3.97, 0.00, 0.00, 0.00, 0.00, 1, 1, 12,  41.7776124, -86.5768678,   200.0, 2024, 12,  8, 15, 29, 29,        0,        0,   0,   0,   1.4,   0.8,   1.2,  0, 27, 28, 32,  0,  0,  0,  0,  0, 41,  0,  0,  0,  0,  0, 33,  0,  0,  0,  0, 16,  0,  0,  0, 26, 33,  0, 37, 37,  0, 34, 38
6, 11115, 1,N0CALL,    -0.14, 3,   boost,   -0.00,  99003.00,  195.11,   -0.25,    0.00, 17.9, 3.95, 3.95, 3.96,  -9.79,  -0.61,  -0.10,   0.04,  -0.16,   0.22,  -0.94,  -0.20,  -0.27,   3.64, 3.97, 0.00, 0.00, 0.00, 0.00, 1, 1, 12,  41.7776124, -86.5768678,   200.0, 2024, 12,  8, 15, 29, 29,        0,        0,   0,   0,   1.4,   0.8,   1.2,  0, 27, 28, 32,  0,  0,  0,  0,  0, 41,  0,  0,  0,  0,  0, 33,  0,  0,  0,  0, 16,  0,  0,  0, 26, 33,  0, 37, 37,  0, 34, 38
6, 11115, 1,N0CALL,    -0.13, 3,   boost,   -0.00,  99003.00,  195.11,   -0.25,    0.00, 17.9, 3.95, 3.95, 3.96,  -9.77,  -0.63,  -0.14,   0.04,   0.27,  -0.09,  -0.94,  -0.19,  -0.27,   3.64, 3.97, 0.00, 0.00, 0.00, 0.00, 1, 1, 12,  41.7776124, -86.5768678,   200.0, 2024, 12,  8, 15, 29, 29,        0,        0,   0,   0,   1.4,   0.8,   1.2,  0, 27, 28, 32,  0,  0,  0,  0,  0, 41,  0,  0,  0,  0,  0, 33,  0,  0,  0,  0, 16,  0,  0,  0, 26, 33,  0, 37, 37,  0, 34, 38
6, 11115, 1,N0CALL,    -0.12, 3,   boost,   -0.49,  99005.00,  194.94,   -0.42,    0.00, 17.9, 3.95, 3.95, 3.96,  -9.84,  -0.61,  -0.11,   0.10,   0.21,  -0.09,  -0.94,  -0.19,  -0.27,   3.64, 3.97, 0.00, 0.00, 0.00, 0.00, 1, 1, 12,  41.7776124, -86.5768678,   200.0, 2024, 12,  8, 15, 29, 29,        0,        0,   0,   0,   1.4,   0.8,   1.2,  0, 27, 28, 32,  0,  0,  0,  0,  0, 41,  0,  0,  0,  0,  0, 33,  0,  0,  0,  0, 16,  0,  0,  0, 26, 33,  0, 37, 37,  0, 34, 38
6, 11115, 1,N0CALL,    -0.11, 3,   boost,   -1.47,  99005.00,  194.94,   -0.42,    0.00, 17.9, 3.95, 3.95, 3.96,  -9.84,  -0.60,  -0.09,   0.04,  -0.04,  -0.03,  -0.94,  -0.19,  -0.27,   3.64, 3.97, 0.00, 0.00, 0.00, 0.00, 1, 1, 12,  41.7776124, -86.5768678,   200.0, 2024, 12,  8, 15, 29, 29,        0,        0,   0,   0,   1.4,   0.8,   1.2,  0, 27, 28, 32,  0,  0,  0,  0,  0, 41,  0,  0,  0,  0,  0, 33,  0,  0,  0,  0, 16,  0,  0,  0, 26, 33,  0, 37, 37,  0, 34, 38
6, 11115, 1,N0CALL,    -0.10, 3,   boost,   -0.49,  99006.00,  194.85,   -0.51,    0.01, 17.9, 3.95, 3.95, 3.96,  -9.81,  -0.60,  -0.13,   0.10,   0.14,   0.22,  -0.94,  -0.20,  -0.27,   3.64, 3.97, 0.00, 0.00, 0.00, 0.00, 1, 1, 12,  41.7776124, -86.5768678,   200.0, 2024, 12,  8, 15, 29, 29,        0,        0,   0,   0,   1.4,   0.8,   1.2,  0, 27, 28, 32,  0,  0,  0,  0,  0, 41,  0,  0,  0,  0,  0, 33,  0,  0,  0,  0, 16,  0,  0,  0, 26, 33,  0, 37, 37,  0, 34, 38
6, 11115, 1,N0CALL,    -0.09, 3,   boost,    0.98,  99006.00,  194.85,   -0.51,    0.06, 17.9, 3.95, 3.95, 3.96,  -9.76,  -0.60,  -0.14,  -0.14,   0.33,  -0.03,  -0.94,  -0.19,  -0.27,   3.64, 3.97, 0.00, 0.00, 0.00, 0.00, 1, 1, 12,  41.7776124, -86.5768678,   200.0, 2024, 12,  8, 15, 29, 29,        0,        0,   0,   0,   1.4,   0.8,   1.2,  0, 27, 28, 32,  0,  0,  0,  0,  0, 41,  0,  0,  0,  0,  0, 33,  0,  0,  0,  0, 16,  0,  0,  0, 26, 33,  0, 37, 37,  0, 34, 38
6, 11115, 1,N0CALL,    -0.08, 3,   boost,    0.49,  99010.00,  194.51,   -0.85,    0.16, 17.9, 3.95, 3.95, 3.96,  -9.81,  -0.55,  -0.17,   0.04,   0.14,  -0.09,  -0.94,  -0.19,  -0.27,   3.64, 3.97, 0.00, 0.00, 0.00, 0.00, 1, 1, 12,  41.7776124, -86.5768678,   200.0, 2024, 12,  8, 15, 29, 29,        0,        0,   0,   0,   1.4,   0.8,   1.2,  0, 27, 28, 32,  0,  0,  0,  0,  0, 41,  0,  0,  0,  0,  0, 33,  0,  0,  0,  0, 16,  0,  0,  0, 26, 33,  0, 37, 37,  0, 34, 38
6, 11115, 1,N0CALL,    -0.07, 3,   boost,   22.56,  99010.00,  194.51,   -0.85,    0.37, 17.9, 3.95, 3.95, 3.96, -10.06,  -0.47,  -0.06,  -0.08,  -0.04,  -0.03,  -0.94,  -0.19,  -0.27,   3.64, 3.97, 0.00, 0.00, 0.00, 0.00, 1, 1, 12,  41.7776124, -86.5768678,   200.0, 2024, 12,  8, 15, 29, 29,        0,        0,   0,   0,   1.4,   0.8,   1.2,  0, 27, 28, 32,  0,  0,  0,  0,  0, 41,  0,  0,  0,  0,  0, 33,  0,  0,  0,  0, 16,  0,  0,  0, 26, 33,  0, 37, 37,  0, 34, 38
6, 11115, 1,N0CALL,    -0.06, 3,   boost,   45.60,  99006.00,  194.85,   -0.51,    0.70, 18.0, 3.95, 3.95, 3.96, -20.58,  -0.88,  -5.01,  -2.40,   0.75,   0.16,  -0.94,  -0.20,  -0.27,   3.64, 3.97, 0.00, 0.00, 0.00, 0.00, 1, 1, 12,  41.7776124, -86.5768678,   200.0, 2024, 12,  8, 15, 29, 29,        0,        0,   0,   0,   1.4,   0.8,   1.2,  0, 27, 28, 32,  0,  0,  0,  0,  0, 41,  0,  0,  0,  0,  0, 33,  0,  0,  0,  0, 16,  0,  0,  0, 26, 33,  0, 37, 37,  0, 34, 38
6, 11115, 1,N0CALL,    -0.05, 3,   boost,   58.35,  99006.00,  194.85,   -0.51,    1.19, 18.0, 3.95, 3.95, 3.96, -54.77,   1.31,   2.33,   2.97,   1.30,  -0.76,  -0.94,  -0.20,  -0.27,   3.64, 3.97, 0.00, 0.00, 0.00, 0.00, 1, 1, 12,  41.7776124, -86.5768678,   200.0, 2024, 12,  8, 15, 29, 29,        0,        0,   0,   0,   1.4,   0.8,   1.2,  0, 27, 28, 32,  0,  0,  0,  0,  0, 41,  0,  0,  0,  0,  0, 33,  0,  0,  0,  0, 16,  0,  0,  0, 26, 33,  0, 37, 37,  0, 34, 38
6, 11115, 1,N0CALL,    -0.04, 3,   boost,   74.04,  99033.00,  192.56,   -2.80,    1.83, 18.0, 3.95, 3.95, 3.96, -65.08,  -3.61,   0.78,   1.87,   0.14,  -0.15,  -0.94,  -0.20,  -0.27,   3.64, 3.97, 0.00, 0.00, 0.00, 0.00, 1, 1, 12,  41.7776124, -86.5768678,   200.0, 2024, 12,  8, 15, 29, 29,        0,        0,   0,   0,   1.4,   0.8,   1.2,  0, 27, 28, 32,  0,  0,  0,  0,  0, 41,  0,  0,  0,  0,  0, 33,  0,  0,  0,  0, 16,  0,  0,  0, 26, 33,  0, 37, 37,  0, 34, 38
6, 11115, 1,N0CALL,    -0.03, 3,   boost,   92.18,  99033.00,  192.56,   -2.80,    2.60, 18.0, 3.95, 3.95, 3.96, -75.90,   6.65,  -0.92,   7.06,  -0.04,  -7.11,  -0.94,  -0.20,  -0.27,   3.64, 3.97, 0.00, 0.00, 0.00, 0.00, 1, 1, 12,  41.7776124, -86.5768678,   200.0, 2024, 12,  8, 15, 29, 29,        0,        0,   0,   0,   1.4,   0.8,   1.2,  0, 27, 28, 32,  0,  0,  0,  0,  0, 41,  0,  0,  0,  0,  0, 33,  0,  0,  0,  0, 16,  0,  0,  0, 26, 33,  0, 37, 37,  0, 34, 38
6, 11115, 1,N0CALL,    -0.02, 3,   boost,  100.03,  99015.00,  194.09,   -1.27,    3.46, 18.0, 3.95, 3.95, 3.96, -98.17,  -7.05,  -0.73,  15.48,  -2.30,  -7.23,  -0.94,  -0.20,  -0.27,   3.64, 3.97, 0.00, 0.00, 0.00, 0.00, 1, 1, 12,  41.7776124, -86.5768678,   200.0, 2024, 12,  8, 15, 29, 29,        0,        0,   0,   0,   1.4,   0.8,   1.2,  0, 27, 28, 32,  0,  0,  0,  0,  0, 41,  0,  0,  0,  0,  0, 33,  0,  0,  0,  0, 16,  0,  0,  0, 26, 33,  0, 37, 37,  0, 34, 38
6, 11115, 1,N0CALL,    -0.01, 3,   boost,   96.60,  99015.00,  194.09,   -1.27,    4.39, 18.0, 3.95, 3.95, 3.96,-107.85,   0.55,  -1.44,  33.00,  -3.03,  -3.08,  -0.94,  -0.20,  -0.27,   3.64, 3.97, 0.00, 0.00, 0.00, 0.00, 1, 1, 12,  41.7776124, -86.5768678,   200.0, 2024, 12,  8, 15, 29, 29,        0,        0,   0,   0,   1.4,   0.8,   1.2,  0, 27, 28, 32,  0,  0,  0,  0,  0, 41,  0,  0,  0,  0,  0, 33,  0,  0,  0,  0, 16,  0,  0,  0, 26, 33,  0, 37, 37,  0, 34, 38
6, 11115, 1,N0CALL,     0.00, 3,   boost,   98.07,  98996.00,  195.70,    0.34,    5.35, 18.0, 3.95, 3.95, 3.96,-110.42,  -4.29,   2.61,  18.47,  -9.38,   7.05,  -0.94,  -0.20,  -0.27,   3.64, 3.97, 0.00, 0.00, 0.00, 0.00, 1, 1, 12,  41.7776124, -86.5768678,   200.0, 2024, 12,  8, 15, 29, 29,        0,        0,   0,   0,   1.4,   0.8,   1.2,  0, 27, 28, 32,  0,  0,  0,  0,  0, 41,  0,  0,  0,  0,  0, 33,  0,  0,  0,  0, 16,  0,  0,  0, 26, 33,  0, 37, 37,  0, 34, 38
6, 11115, 1,N0CALL,     0.00, 3,   boost,   98.07,  98996.00,  195.70,    0.34,    5.35, 18.0, 3.95, 3.95, 3.96,-110.42,  -4.29,   2.61,  18.47,  -9.38,   7.05,  -0.94,  -0.20,  -0.27,   3.64, 3.97, 0.00, 0.00, 0.00, 0.00, 1, 1, 12,  41.7776124, -86.5768678,   200.0, 2024, 12,  8, 15, 29, 29,        0,        0,   0,   0,   1.4,   0.8,   1.2,  0, 27, 28, 32,  0,  0,  0,  0,  0, 41,  0,  0,  0,  0,  0, 33,  0,  0,  0,  0, 16,  0,  0,  0, 26, 33,  0, 37, 37,  0, 34, 38
6, 11115, 1,N0CALL,     0.00, 3,   boost,   98.07,  98996.00,  195.70,    0.34,    5.35, 18.0, 3.95, 3.95, 3.96,-110.42,  -4.29,   2.61,  18.47,  -9.38,   7.05,  -0.94,  -0.20,  -0.27,   3.64, 3.97, 0.00, 0.00, 0.00, 0.00, 1, 1, 12,  41.7776124, -86.5768678,   200.0, 2024, 12,  8, 15, 29, 29,        0,        0,   0,   0,   1.4,   0.8,   1.2,  0, 27, 28, 32,  0,  0,  0,  0,  0, 41,  0,  0,  0,  0,  0, 33,  0,  0,  0,  0, 16,  0,  0,  0, 26, 33,  0, 37, 37,  0, 34, 38
6, 11115, 1,N0CALL,     0.00, 3,   boost,   98.07,  98996.00,  195.70,    0.34,    5.35, 18.0, 3.95, 3.95, 3.96,-110.42,  -4.29,   2.61,  18.47,  -9.38,   7.05,  -0.94,  -0.20,  -0.27,   3.64, 3.97, 0.00, 0.00, 0.00, 0.00, 1, 1, 12,  41.7776124, -86.5768678,   200.0, 2024, 12,  8, 15, 29, 29,        0,        0,   0,   0,   1.4,   0.8,   1.2,  0, 27, 28, 32,  0,  0,  0,  0,  0, 41,  0,  0,  0,  0,  0, 33,  0,  0,  0,  0, 16,  0,  0,  0, 26, 33,  0, 37, 37,  0, 34, 38
6, 11115, 1,N0CALL,     0.00, 3,   boost,   98.07,  98996.00,  195.70,    0.34,    5.35, 18.0, 3.95, 3.95, 3.96,-110.42,  -4.29,   2.61,  18.47,  -9.38,   7.05,  -0.94,  -0.20,  -0.27,   3.64, 3.97, 0.00, 0.00, 0.00, 0.00, 1, 1, 12,  41.7776124, -86.5768678,   200.0, 2024, 12,  8, 15, 29, 29,        0,        0,   0,   0,   1.4,   0.8,   1.2,  0, 27, 28, 32,  0,  0,  0,  0,  0, 41,  0,  0,  0,  0,  0, 33,  0,  0,  0,  0, 16,  0,  0,  0, 26, 33,  0, 37, 37,  0, 34, 38
6, 11115, 1,N0CALL,     0.00, 3,   boost,   98.07,  98996.00,  195.70,    0.34,    5.35, 18.0, 3.95, 3.95, 3.96,-110.42,  -4.29,   2.61,  18.47,  -9.38,   7.05,  -0.94,  -0.20,  -0.27,   3.64, 3.97, 0.00, 0.00, 0.00, 0.00, 1, 1, 12,  41.7776124, -86.5768678,   200.0, 2024, 12,  8, 15, 29, 29,        0,        0,   0,   0,   1.4,   0.8,   1.2,  0, 27, 28, 32,  0,  0,  0,  0,  0, 41,  0,  0,  0,  0,  0, 33,  0,  0,  0,  0, 16,  0,  0,  0, 26, 33,  0, 37, 37,  0, 34, 38
6, 11115, 1,N0CALL,     0.00, 3,   boost,   98.07,  98996.00,  195.70,    0.34,    5.35, 18.0, 3.95, 3.95, 3.96,-110.42,  -4.29,   2.61,  18.47,  -9.38,   7.05,  -0.94,  -0.20,  -0.27,   3.64, 3.97, 0.00, 0.00, 0.00, 0.00, 1, 1, 12,  41.7776124, -86.5768678,   200.0, 2024, 12,  8, 15, 29, 29,        0,        0,   0,   0,   1.4,   0.8,   1.2,  0, 27, 28, 32,  0,  0,  0,  0,  0, 41,  0,  0,  0,  0,  0, 33,  0,  0,  0,  0, 16,  0,  0,  0, 26, 33,  0, 37, 37,  0, 34, 38
6, 11115, 1,N0CALL,     0.00, 3,   boost,   98.07,  98996.00,  195.70,    0.34,    5.35, 18.0, 3.95, 3.95, 3.96,-110.42,  -4.29,   2.61,  18.47,  -9.38,   7.05,  -0.94,  -0.20,  -0.27,   3.64, 3.97, 0.00, 0.00, 0.00, 0.00, 1, 1, 12,  41.7776124, -86.5768678,   200.0, 2024, 12,  8, 15, 29, 29,        0,        0,   0,   0,   1.4,   0.8,   1.2,  0, 27, 28, 32,  0,  0,  0,  0,  0, 41,  0,  0,  0,  0,  0, 33,  0,  0,  0,  0, 16,  0,  0,  0, 26, 33,  0, 37, 37,  0, 34, 38
6, 11115, 1,N0CALL,     0.00, 3,   boost,   98.07,  98996.00,  195.70,    0.34,    5.35, 18.0, 3.95, 3.95, 3.96,-110.42,  -4.29,   2.61,  18.47,  -9.38,   7.05,  -0.94,  -0.20,  -0.27,   3.64, 3.97, 0.00, 0.00, 0.00, 0.00, 1, 1, 12,  41.7776124, -86.5768678,   200.0, 2024, 12,  8, 15, 29, 29,        0,        0,   0,   0,   1.4,   0.8,   1.2,  0, 27, 28, 32,  0,  0,  0,  0,  0, 41,  0,  0,  0,  0,  0, 33,  0,  0,  0,  0, 16,  0,  0,  0, 26, 33,  0, 37, 37,  0, 34, 38
6, 11115, 1,N0CALL,     0.00, 3,   boost,   98.07,  98996.00,  195.70,    0.34,    5.35, 18.0, 3.95, 3.95, 3.96,-110.42,  -4.29,   2.61,  18.47,  -9.38,   7.05,  -0.94,  -0.20,  -0.27,   3.64, 3.97, 0.00, 0.00, 0.00, 0.00, 1, 1, 12,  41.7776124, -86.5768678,   200.0, 2024, 12,  8, 15, 29, 29,        0,        0,   0,   0,   1.4,   0.8,   1.2,  0, 27, 28, 32,  0,  0,  0,  0,  0, 41,  0,  0,  0,  0,  0, 33,  0,  0,  0,  0, 16,  0,  0,  0, 26, 33,  0, 37, 37,  0, 34, 38
6, 11115, 1,N0CALL,     0.00, 3,   boost,   98.07,  98996.00,  195.70,    0.34,    5.35, 18.0, 3.95, 3.95, 3.96,-110.42,  -4.29,   2.61,  18.47,  -9.38,   7.05,  -0.94,  -0.20,  -0.27,   3.64, 3.97, 0.00, 0.00, 0.00, 0.00, 1, 1, 12,  41.7776124, -86.5768678,   200.0, 2024, 12,  8, 15, 29, 29,        0,        0,   0,   0,   1.4,   0.8,   1.2,  0, 27, 28, 32,  0,  0,  0,  0,  0, 41,  0,  0,  0,  0,  0, 33,  0,  0,  0,  0, 16,  0,  0,  0, 26, 33,  0, 37, 37,  0, 34, 38
6, 11115, 1,N0CALL,     0.00, 3,   boost,   98.07,  98996.00,  195.70,    0.34,    5.35, 18.0, 3.95, 3.95, 3.96,-110.42,  -4.29,   2.61,  18.47,  -9.38,   7.05,  -0.94,  -0.20,  -0.27,   3.64, 3.97, 0.00, 0.00, 0.00, 0.00, 1, 1, 12,  41.7776124, -86.5768678,   200.0, 2024, 12,  8, 15, 29, 29,        0,        0,   0,   0,   1.4,   0.8,   1.2,  0, 27, 28, 32,  0,  0,  0,  0,  0, 41,  0,  0,  0,  0,  0, 33,  0,  0,  0,  0, 16,  0,  0,  0, 26, 33,  0, 37, 37,  0, 34, 38
6, 11115, 1,N0CALL,     0.00, 3,   boost,   98.07,  98996.00,  195.70,    0.34,    5.35, 18.0, 3.95, 3.95, 3.96,-110.42,  -4.29,   2.61,  18.47,  -9.38,   7.05,  -0.94,  -0.20,  -0.27,   3.64, 3.97, 0.00, 0.00, 0.00, 0.00, 1, 1, 12,  41.7776124, -86.5768678,   200.0, 2024, 12,  8, 15, 29, 29,        0,        0,   0,   0,   1.4,   0.8,   1.2,  0, 27, 28, 32,  0,  0,  0,  0,  0, 41,  0,  0,  0,  0,  0, 33,  0,  0,  0,  0, 16,  0,  0,  0, 26, 33,  0, 37, 37,  0, 34, 38
6, 11115, 1,N0CALL,     0.00, 3,   boost,   98.07,  98996.00,  195.70,    0.34,    5.35, 18.0, 3.95, 3.95, 3.96,-110.42,  -4.29,   2.61,  18.47,  -9.38,   7.05,  -0.94,  -0.20,  -0.27,   3.64, 3.97, 0.00, 0.00, 0.00, 0.00, 1, 1, 12,  41.7776124, -86.5768678,   200.0, 2024, 12,  8, 15, 29, 29,        0,        0,   0,   0,   1.4,   0.8,   1.2,  0, 27, 28, 32,  0,  0,  0,  0,  0, 41,  0,  0,  0,  0,  0, 33,  0,  0,  0,  0, 16,  0,  0,  0, 26, 33,  0, 37, 37,  0, 34, 38
6, 11115, 1,N0CALL,     0.00, 3,   boost,   98.07,  98996.00,  195.70,    0.34,    5.35, 18.0, 3.95, 3.95, 3.96,-110.42,  -4.29,   2.61,  18.47,  -9.38,   7.05,  -0.94,  -0.20,  -0.27,   3.64, 3.97, 0.00, 0.00, 0.00, 0.00, 1, 1, 12,  41.7776124, -86.5768678,   200.0, 2024, 12,  8, 15, 29, 29,        0,        0,   0,   0,   1.4,   0.8,   1.2,  0, 27, 28, 32,  0,  0,  0,  0,  0, 41,  0,  0,  0,  0,  0, 33,  0,  0,  0,  0, 16,  0,  0,  0, 26, 33,  0, 37, 37,  0, 34, 38
6, 11115, 1,N0CALL,     0.00, 3,   boost,   98.07,  98996.00,  195.70,    0.34,    5.35, 18.0, 3.95, 3.95, 3.96,-110.42,  -4.29,   2.61,  18.47,  -9.38,   7.05,  -0.94,  -0.20,  -0.27,   3.64, 3.97, 0.00, 0.00, 0.00, 0.00, 1, 1, 12,  41.7776124, -86.5768678,   200.0, 2024, 12,  8, 15, 29, 29,        0,        0,   0,   0,   1.4,   0.8,   1.2,  0, 27, 28, 32,  0,  0,  0,  0,  0, 41,  0,  0,  0,  0,  0, 33,  0,  0,  0,  0, 16,  0,  0,  0, 26, 33,  0, 37, 37,  0, 34, 38
6, 11115, 1,N0CALL,     0.00, 3,   boost,   98.07,  98996.00,  195.70,    0.34,    5.35, 18.0, 3.95, 3.95, 3.96,-110.42,  -4.29,   2.61,  18.47,  -9.38,   7.05,  -0.94,  -0.20,  -0.27,   3.64, 3.97, 0.00, 0.00, 0.00, 0.00, 1, 1, 12,  41.7776124, -86.5768678,   200.0, 2024, 12,  8, 15, 29, 29,        0,        0,   0,   0,   1.4,   0.8,   1.2,  0, 27, 28, 32,  0,  0,  0,  0,  0, 41,  0,  0,  0,  0,  0, 33,  0,  0,  0,  0, 16,  0,  0,  0, 26, 33,  0, 37, 37,  0, 34, 38
6, 11115, 1,N0CALL,     0.00, 3,   boost,   98.07,  98996.00,  195.70,    0.34,    5.35, 18.0, 3.95, 3.95, 3.96,-110.42,  -4.29,   2.61,  18.47,  -9.38,   7.05,  -0.94,  -0.20,  -0.27,   3.64, 3.97, 0.00, 0.00, 0.00, 0.00, 1, 1, 12,  41.7776124, -86.5768678,   200.0, 2024, 12,  8, 15, 29, 29,        0,        0,   0,   0,   1.4,   0.8,   1.2,  0, 27, 28, 32,  0,  0,  0,  0,  0, 41,  0,  0,  0,  0,  0, 33,  0,  0,  0,  0, 16,  0,  0,  0, 26, 33,  0, 37, 37,  0, 34, 38
6, 11115, 1,N0CALL,     0.00, 3,   boost,   98.07,  98996.00,  195.70,    0.34,    5.35, 18.0, 3.95, 3.95, 3.96,-110.42,  -4.29,   2.61,  18.47,  -9.38,   7.05,  -0.94,  -0.20,  -0.27,   3.64, 3.97, 0.00, 0.00, 0.00, 0.00, 1, 1, 12,  41.7776124, -86.5768678,   200.0, 2024, 12,  8, 15, 29, 29,        0,        0,   0,   0,   1.4,   0.8,   1.2,  0, 27, 28, 32,  0,  0,  0,  0,  0, 41,  0,  0,  0,  0,  0, 33,  0,  0,  0,  0, 16,  0,  0,  0, 26, 33,  0, 37, 37,  0, 34, 38
6, 11115, 1,N0CALL,     0.00, 3,   boost,   98.07,  98996.00,  195.70,    0.34,    5.35, 18.0, 3.95, 3.95, 3.96,-110.42,  -4.29,   2.61,  18.47,  -9.38,   7.05,  -0.94,  -0.20,  -0.27,   3.65, 3.97, 0.00, 0.00, 0.00, 0.00, 1, 1, 12,  41.7776124, -86.5768678,   200.0, 2024, 12,  8, 15, 29, 29,        0,        0,   0,   0,   1.4,   0.8,   1.2,  0, 27, 28, 32,  0,  0,  0,  0,  0, 41,  0,  0,  0,  0,  0, 33,  0,  0,  0,  0, 16,  0,  0,  0, 26, 33,  0, 37, 37,  0, 34, 38
6, 11115, 1,N0CALL,     0.00, 3,   boost,   98.07,  98996.00,  195.70,    0.34,    5.35, 18.0, 3.95, 3.95, 3.96,-110.42,  -4.29,   2.61,  18.47,  -9.38,   7.05,  -0.94,  -0.20,  -0.27,   3.65, 3.97, 0.00, 0.00, 0.00, 0.00, 1, 1, 12,  41.7776124, -86.5768678,   200.0, 2024, 12,  8, 15, 29, 29,        0,        0,   0,   0,   1.4,   0.8,   1.2,  0, 27, 28, 32,  0,  0,  0,  0,  0, 41,  0,  0,  0,  0,  0, 33,  0,  0,  0,  0, 16,  0,  0,  0, 26, 33,  0, 37, 37,  0, 34, 38
6, 11115, 1,N0CALL,     0.00, 3,   boost,   98.07,  98996.00,  195.70,    0.34,    5.35, 18.0, 3.95, 3.95, 3.96,-110.42,  -4.29,   2.61,  18.47,  -9.38,   7.05,  -0.94,  -0.20,  -0.27,   3.65, 3.97, 0.00, 0.00, 0.00, 0.00, 1, 1, 12,  41.7776124, -86.5768678,   200.0, 2024, 12,  8, 15, 29, 29,        0,        0,   0,   0,   1.4,   0.8,   1.2,  0, 27, 28, 32,  0,  0,  0,  0,  0, 41,  0,  0,  0,  0,  0, 33,  0,  0,  0,  0, 16,  0,  0,  0, 26, 33,  0, 37, 37,  0, 34, 38
6, 11115, 1,N0CALL,     0.00, 3,   boost,   98.07,  98996.00,  195.70,    0.34,    5.35, 18.0, 3.95, 3.95, 3.96,-110.42,  -4.29,   2.61,  18.47,  -9.38,   7.05,  -0.94,  -0.20,  -0.27,   3.65, 3.97, 0.00, 0.00, 0.00, 0.00, 1, 1, 12,  41.7776124, -86.5768678,   200.0, 2024, 12,  8, 15, 29, 29,        0,        0,   0,   0,   1.4,   0.8,   1.2,  0, 27, 28, 32,  0,  0,  0,  0,  0, 41,  0,  0,  0,  0,  0, 33,  0,  0,  0,  0, 16,  0,  0,  0, 26, 33,  0, 37, 37,  0, 34, 38
6, 11115, 1,N0CALL,     0.00, 3,   boost,   98.07,  98996.00,  195.70,    0.34,    5.35, 18.0, 3.95, 3.95, 3.96,-110.42,  -4.29,   2.61,  18.47,  -9.38,   7.05,  -0.94,  -0.20,  -0.27,   3.65, 3.97, 0.00, 0.00, 0.00, 0.00, 1, 1, 12,  41.7776124, -86.5768678,   200.0, 2024, 12,  8, 15, 29, 29,        0,        0,   0,   0,   1.4,   0.8,   1.2,  0, 27, 28, 32,  0,  0,  0,  0,  0, 41,  0,  0,  0,  0,  0, 33,  0,  0,  0,  0, 16,  0,  0,  0, 26, 33,  0, 37, 37,  0, 34, 38
6, 11115, 1,N0CALL,     0.00, 3,   boost,   98.07,  98996.00,  195.70,    0.34,    5.35, 18.0, 3.95, 3.95, 3.96,-110.42,  -4.29,   2.61,  18.47,  -9.38,   7.05,  -0.94,  -0.20,  -0.27,   3.65, 3.97, 0.00, 0.00, 0.00, 0.00, 1, 1, 12,  41.7776124, -86.5768678,   200.0, 2024, 12,  8, 15, 29, 29,        0,        0,   0,   0,   1.4,   0.8,   1.2,  0, 27, 28, 32,  0,  0,  0,  0,  0, 41,  0,  0,  0,  0,  0, 33,  0,  0,  0,  0, 16,  0,  0,  0, 26, 33,  0, 37, 37,  0, 34, 38
6, 11115, 1,N0CALL,     0.00, 3,   boost,   98.07,  98996.00,  195.70,    0.34,    5.35, 18.0, 3.95, 3.95, 3.96,-110.42,  -4.29,   2.61,  18.47,  -9.38,   7.05,  -0.94,  -0.20,  -0.27,   3.65, 3.97, 0.00, 0.00, 0.00, 0.00, 1, 1, 12,  41.7776124, -86.5768678,   200.0, 2024, 12,  8, 15, 29, 29,        0,        0,   0,   0,   1.4,   0.8,   1.2,  0, 27, 28, 32,  0,  0,  0,  0,  0, 41,  0,  0,  0,  0,  0, 33,  0,  0,  0,  0, 16,  0,  0,  0, 26, 33,  0, 37, 37,  0, 34, 38
6, 11115, 1,N0CALL,     0.00, 3,   boost,   98.07,  98996.00,  195.70,    0.34,    5.35, 18.0, 3.95, 3.95, 3.96,-110.42,  -4.29,   2.61,  18.47,  -9.38,   7.05,  -0.94,  -0.20,  -0.27,   3.65, 3.97, 0.00, 0.00, 0.00, 0.00, 1, 1, 12,  41.7776124, -86.5768678,   200.0, 2024, 12,  8, 15, 29, 29,        0,        0,   0,   0,   1.4,   0.8,   1.2,  0, 27, 28, 32,  0,  0,  0,  0,  0, 41,  0,  0,  0,  0,  0, 33,  0,  0,  0,  0, 16,  0,  0,  0, 26, 33,  0, 37, 37,  0, 34, 38
6, 11115, 1,N0CALL,     0.00, 3,   boost,   98.07,  98996.00,  195.70,    0.34,    5.35, 18.0, 3.95, 3.95, 3.96,-110.42,  -4.29,   2.61,  18.47,  -9.38,   7.05,  -0.94,  -0.20,  -0.27,   3.65, 3.97, 0.00, 0.00, 0.00, 0.00, 1, 1, 12,  41.7776124, -86.5768678,   200.0, 2024, 12,  8, 15, 29, 29,        0,        0,   0,   0,   1.4,   0.8,   1.2,  0, 27, 28, 32,  0,  0,  0,  0,  0, 41,  0,  0,  0,  0,  0, 33,  0,  0,  0,  0, 16,  0,  0,  0, 26, 33,  0, 37, 37,  0, 34, 38
6, 11115, 1,N0CALL,     0.00, 3,   boost,   98.07,  98996.00,  195.70,    0.34,    5.35, 18.0, 3.95, 3.95, 3.96,-110.42,  -4.29,   2.61,  18.47,  -9.38,   7.05,  -0.94,  -0.20,  -0.27,   3.65, 3.97, 0.00, 0.00, 0.00, 0.00, 1, 1, 12,  41.7776124, -86.5768678,   200.0, 2024, 12,  8, 15, 29, 29,        0,        0,   0,   0,   1.4,   0.8,   1.2,  0, 27, 28, 32,  0,  0,  0,  0,  0, 41,  0,  0,  0,  0,  0, 33,  0,  0,  0,  0, 16,  0,  0,  0, 26, 33,  0, 37, 37,  0, 34, 38
6, 11115, 1,N0CALL,     0.00, 3,   boost,   98.07,  98996.00,  195.70,    0.34,    5.35, 18.0, 3.95, 3.95, 3.96,-110.42,  -4.29,   2.61,  18.47,  -9.38,   7.05,  -0.94,  -0.20,  -0.27,   3.65, 3.97, 0.00, 0.00, 0.00, 0.00, 1, 1, 12,  41.7776124, -86.5768678,   200.0, 2024, 12,  8, 15, 29, 29,        0,        0,   0,   0,   1.4,   0.8,   1.2,  0, 27, 28, 32,  0,  0,  0,  0,  0, 41,  0,  0,  0,  0,  0, 33,  0,  0,  0,  0, 16,  0,  0,  0, 26, 33,  0, 37, 37,  0, 34, 38
6, 11115, 1,N0CALL,     0.00, 3,   boost,   98.07,  98996.00,  195.70,    0.34,    5.35, 18.0, 3.95, 3.95, 3.96,-110.42,  -4.29,   2.61,  18.47,  -9.38,   7.05,  -0.94,  -0.20,  -0.27,   3.65, 3.97, 0.00, 0.00, 0.00, 0.00, 1, 1, 12,  41.7776124, -86.5768678,   200.0, 2024, 12,  8, 15, 29, 29,        0,        0,   0,   0,   1.4,   0.8,   1.2,  0, 27, 28, 32,  0,  0,  0,  0,  0, 41,  0,  0,  0,  0,  0, 33,  0,  0,  0,  0, 16,  0,  0,  0, 26, 33,  0, 37, 37,  0, 34, 38
6, 11115, 1,N0CALL,     0.00, 3,   boost,   98.07,  98996.00,  195.70,    0.34,    5.35, 18.0, 3.95, 3.95, 3.96,-110.42,  -4.29,   2.61,  18.47,  -9.38,   7.05,  -0.94,  -0.20,  -0.27,   3.64, 3.97, 0.00, 0.00, 0.00, 0.00, 1, 1, 12,  41.7776124, -86.5768678,   200.0, 2024, 12,  8, 15, 29, 29,        0,        0,   0,   0,   1.4,   0.8,   1.2,  0, 27, 28, 32,  0,  0,  0,  0,  0, 41,  0,  0,  0,  0,  0, 33,  0,  0,  0,  0, 16,  0,  0,  0, 26, 33,  0, 37, 37,  0, 34, 38
6, 11115, 1,N0CALL,     0.00, 3,   boost,   98.07,  98996.00,  195.70,    0.34,    5.35, 18.0, 3.95, 3.95, 3.96,-110.42,  -4.29,   2.61,  18.47,  -9.38,   7.05,  -0.94,  -0.20,  -0.27,   3.64, 3.97, 0.00, 0.00, 0.00, 0.00, 1, 1, 12,  41.7776124, -86.5768678,   200.0, 2024, 12,  8, 15, 29, 29,        0,        0,   0,   0,   1.4,   0.8,   1.2,  0, 27, 28, 32,  0,  0,  0,  0,  0, 41,  0,  0,  0,  0,  0, 33,  0,  0,  0,  0, 16,  0,  0,  0, 26, 33,  0, 37, 37,  0, 34, 38
6, 11115, 1,N0CALL,     0.00, 3,   boost,   98.07,  98996.00,  195.70,    0.34,    5.35, 18.0, 3.95, 3.95, 3.96,-110.42,  -4.29,   2.61,  18.47,  -9.38,   7.05,  -0.94,  -0.20,  -0.27,   3.57, 3.97, 0.00, 0.00, 0.00, 0.00, 1, 1, 12,  41.7776124, -86.5768678,   200.0, 2024, 12,  8, 15, 29, 29,        0,        0,   0,   0,   1.4,   0.8,   1.2,  0, 27, 28, 32,  0,  0,  0,  0,  0, 41,  0,  0,  0,  0,  0, 33,  0,  0,  0,  0, 16,  0,  0,  0, 26, 33,  0, 37, 37,  0, 34, 38
6, 11115, 1,N0CALL,     0.00, 3,   boost,   98.07,  98996.00,  195.70,    0.34,    5.35, 18.0, 3.95, 3.95, 3.96,-110.42,  -4.29,   2.61,  18.47,  -9.38,   7.05,  -0.94,  -0.20,  -0.27,   3.50, 3.97, 0.00, 0.00, 0.00, 0.00, 1, 1, 12,  41.7776124, -86.5768678,   200.0, 2024, 12,  8, 15, 29, 29,        0,        0,   0,   0,   1.4,   0.8,   1.2,  0, 27, 28, 32,  0,  0,  0,  0,  0, 41,  0,  0,  0,  0,  0, 33,  0,  0,  0,  0, 16,  0,  0,  0, 26, 33,  0, 37, 37,  0, 34, 38
6, 11115, 1,N0CALL,     0.00, 3,   boost,   98.07,  98996.00,  195.70,    0.34,    5.35, 18.0, 3.95, 3.95, 3.96,-110.42,  -4.29,   2.61,  18.47,  -9.38,   7.05,  -0.94,  -0.20,  -0.27,   3.47, 3.97, 0.00, 0.00, 0.00, 0.00, 1, 1, 12,  41.7776124, -86.5768678,   200.0, 2024, 12,  8, 15, 29, 29,        0,        0,   0,   0,   1.4,   0.8,   1.2,  0, 27, 28, 32,  0,  0,  0,  0,  0, 41,  0,  0,  0,  0,  0, 33,  0,  0,  0,  0, 16,  0,  0,  0, 26, 33,  0, 37, 37,  0, 34, 38
6, 11115, 1,N0CALL,     0.00, 3,   boost,   98.07,  98996.00,  195.70,    0.34,    5.35, 18.0, 3.95, 3.95, 3.96,-110.42,  -4.29,   2.61,  18.47,  -9.38,   7.05,  -0.94,  -0.20,  -0.27,   3.56, 3.97, 0.00, 0.00, 0.00, 0.00, 1, 1, 12,  41.7776124, -86.5768678,   200.0, 2024, 12,  8, 15, 29, 29,        0,        0,   0,   0,   1.4,   0.8,   1.2,  0, 27, 28, 32,  0,  0,  0,  0,  0, 41,  0,  0,  0,  0,  0, 33,  0,  0,  0,  0, 16,  0,  0,  0, 26, 33,  0, 37, 37,  0, 34, 38
6, 11115, 1,N0CALL,     0.01, 3,   boost,   99.05,  98996.00,  195.70,    0.34,    6.33, 18.0, 3.95, 3.95, 3.96,-111.72,  -3.46,  -0.71,  -6.98, -12.98,  19.02,  -0.94,  -0.20,  -0.27,   3.77, 3.97, 0.00, 0.00, 0.00, 0.00, 1, 1, 12,  41.7776124, -86.5768678,   200.0, 2024, 12,  8, 15, 29, 29,        0,        0,   0,   0,   1.4,   0.8,   1.2,  0, 27, 28, 32,  0,  0,  0,  0,  0, 41,  0,  0,  0,  0,  0, 33,  0,  0,  0,  0, 16,  0,  0,  0, 26, 33,  0, 37, 37,  0, 34, 38
6, 11115, 1,N0CALL,     0.01, 3,   boost,   99.05,  98996.00,  195.70,    0.34,    6.33, 18.0, 3.95, 3.95, 3.96,-111.72,  -3.46,  -0.71,  -6.98, -12.98,  19.02,  -0.94,  -0.20,  -0.27,   3.77, 3.97, 0.00, 0.00, 0.00, 0.00, 1, 1, 12,  41.7776124, -86.5768678,   200.0, 2024, 12,  8, 15, 29, 29,        0,        0,   0,   0,   1.4,   0.8,   1.2,  0, 27, 28, 32,  0,  0,  0,  0,  0, 41,  0,  0,  0,  0,  0, 33,  0,  0,  0,  0, 16,  0,  0,  0, 26, 33,  0, 37, 37,  0, 34, 38
6, 11115, 1,N0CALL,     0.02, 3,   boost,   99.05,  98992.00,  196.04,    0.68,    7.31, 18.0, 3.94, 3.93, 3.95,-111.96,   2.62,  -3.36,   2.24, -12.86,  20.60,  -0.93,  -0.19,  -0.28,   4.00, 3.96, 0.00, 0.00, 0.00, 0.00, 1, 1, 12,  41.7776124, -86.5768678,   200.0, 2024, 12,  8, 15, 29, 29,        0,        0,   0,   0,   1.4,   0.8,   1.2,  0, 27, 28, 32,  0,  0,  0,  0,  0, 41,  0,  0,  0,  0,  0, 33,  0,  0,  0,  0, 16,  0,  0,  0, 26, 33,  0, 37, 37,  0, 34, 38
6, 11115, 1,N0CALL,     0.02, 3,   boost,   99.05,  98992.00,  196.04,    0.68,    7.31, 18.0, 3.94, 3.93, 3.95,-111.96,   2.62,  -3.36,   2.24, -12.86,  20.60,  -0.93,  -0.19,  -0.28,   4.00, 3.96, 0.00, 0.00, 0.00, 0.00, 1, 1, 12,  41.7776124, -86.5768678,   200.0, 2024, 12,  8, 15, 29, 29,        0,        0,   0,   0,   1.4,   0.8,   1.2,  0, 27, 28, 32,  0,  0,  0,  0,  0, 41,  0,  0,  0,  0,  0, 33,  0,  0,  0,  0, 16,  0,  0,  0, 26, 33,  0, 37, 37,  0, 34, 38
6, 11115, 1,N0CALL,     0.03, 3,   boost,   98.56,  98992.00,  196.04,    0.68,    8.29, 18.0, 3.94, 3.93, 3.95,-111.20,  -1.10,   0.78,  -5.88, -11.39,  21.34,  -0.93,  -0.19,  -0.28,   4.24, 3.96, 0.00, 0.00, 0.00, 0.00, 1, 1, 12,  41.7776124, -86.5768678,   200.0, 2024, 12,  8, 15, 29, 29,        0,        0,   0,   0,   1.4,   0.8,   1.2,  0, 27, 28, 32,  0,  0,  0,  0,  0, 41,  0,  0,  0,  0,  0, 33,  0,  0,  0,  0, 16,  0,  0,  0, 26, 33,  0, 37, 37,  0, 34, 38
6, 11115, 1,N0CALL,     0.04, 3,   boost,   94.63,  99004.00,  195.02,   -0.34,    9.27, 17.9, 3.94, 3.93, 3.95,-110.62,   1.02,   1.50,  -8.81,  -6.02,  20.91,  -0.93,  -0.19,  -0.28,   4.46, 3.96, 0.00, 0.00, 0.00, 0.00, 1, 1, 12,  41.7776124, -86.5768678,   200.0, 2024, 12,  8, 15, 29, 29,        0,        0,   0,   0,   1.4,   0.8,   1.2,  0, 27, 28, 32,  0,  0,  0,  0,  0, 41,  0,  0,  0,  0,  0, 33,  0,  0,  0,  0, 16,  0,  0,  0, 26, 33,  0, 37, 37,  0, 34, 38
6, 11115, 1,N0CALL,     0.05, 3,   boost,   98.56,  99004.00,  195.02,   -0.34,   10.26, 17.9, 3.94, 3.93, 3.95,-109.36, -17.31,  -8.69,   3.15,  -0.04,  10.96,  -0.93,  -0.19,  -0.28,   4.56, 3.96, 0.00, 0.00, 0.00, 0.00, 1, 1, 12,  41.7776124, -86.5768678,   200.0, 2024, 12,  8, 15, 29, 29,        0,        0,   0,   0,   1.4,   0.8,   1.2,  0, 27, 28, 32,  0,  0,  0,  0,  0, 41,  0,  0,  0,  0,  0, 33,  0,  0,  0,  0, 16,  0,  0,  0, 26, 33,  0, 37, 37,  0, 34, 38
6, 11115, 1,N0CALL,     0.06, 3,   boost,  102.48,  98996.00,  195.70,    0.34,   11.26, 17.9, 3.94, 3.93, 3.95,-112.79,   1.33,   4.52,  67.91,   6.06,  -7.96,  -0.93,  -0.19,  -0.28,   4.47, 3.96, 0.00, 0.00, 0.00, 0.00, 1, 1, 12,  41.7776124, -86.5768678,   200.0, 2024, 12,  8, 15, 29, 29,        0,        0,   0,   0,   1.4,   0.8,   1.2,  0, 27, 28, 32,  0,  0,  0,  0,  0, 41,  0,  0,  0,  0,  0, 33,  0,  0,  0,  0, 16,  0,  0,  0, 26, 33,  0, 37, 37,  0, 34, 38
6, 11115, 1,N0CALL,     0.07, 3,   boost,  105.42,  98996.00,  195.70,    0.34,   12.27, 17.9, 3.94, 3.93, 3.95,-114.51,  -0.89,  -5.63,  61.56,  12.11, -16.69,  -0.94,  -0.19,  -0.28,   4.28, 3.96, 0.00, 0.00, 0.00, 0.00, 1, 1, 12,  41.7776124, -86.5768678,   200.0, 2024, 12,  8, 15, 29, 29,        0,        0,   0,   0,   1.4,   0.8,   1.2,  0, 27, 28, 32,  0,  0,  0,  0,  0, 41,  0,  0,  0,  0,  0, 33,  0,  0,  0,  0, 16,  0,  0,  0, 26, 33,  0, 37, 37,  0, 34, 38
6, 11115, 1,N0CALL,     0.08, 3,   boost,  102.97,  98998.00,  195.53,    0.17,   13.30, 17.9, 3.94, 3.93, 3.95,-115.87,  -8.08,   5.28,  49.05,  15.46, -20.90,  -0.94,  -0.20,  -0.28,   4.04, 3.96, 0.00, 0.00, 0.00, 0.00, 1, 1, 12,  41.7776124, -86.5768678,   200.0, 2024, 12,  8, 15, 29, 29,        0,        0,   0,   0,   1.4,   0.8,   1.2,  0, 27, 28, 32,  0,  0,  0,  0,  0, 41,  0,  0,  0,  0,  0, 33,  0,  0,  0,  0, 16,  0,  0,  0, 26, 33,  0, 37, 37,  0, 34, 38
6, 11115, 1,N0CALL,     0.09, 3,   boost,  103.46,  98998.00,  195.53,    0.17,   14.32, 17.9, 3.94, 3.93, 3.95,-116.53,   6.44,  -2.11,   2.85,  20.16, -16.81,  -0.94,  -0.20,  -0.28,   3.83, 3.96, 0.00, 0.00, 0.00, 0.00, 1, 1, 12,  41.7776124, -86.5768678,   200.0, 2024, 12,  8, 15, 29, 29,        0,        0,   0,   0,   1.4,   0.8,   1.2,  0, 27, 28, 32,  0,  0,  0,  0,  0, 41,  0,  0,  0,  0,  0, 33,  0,  0,  0,  0, 16,  0,  0,  0, 26, 33,  0, 37, 37,  0, 34, 38
6, 11115, 1,N0CALL,     0.10, 3,   boost,  103.46,  98988.00,  196.38,    1.02,   15.35, 18.0, 3.94, 3.93, 3.95,-116.37,  -1.92,  -0.86,  21.28,  14.43, -14.25,  -0.94,  -0.20,  -0.28,   3.67, 3.96, 0.00, 0.00, 0.00, 0.00, 1, 1, 12,  41.7776124, -86.5768678,   200.0, 2024, 12,  8, 15, 29, 29,        0,        0,   0,   0,   1.4,   0.8,   1.2,  0, 27, 28, 32,  0,  0,  0,  0,  0, 41,  0,  0,  0,  0,  0, 33,  0,  0,  0,  0, 16,  0,  0,  0, 26, 33,  0, 37, 37,  0, 34, 38
6, 11115, 1,N0CALL,     0.11, 3,   boost,  102.48,  98988.00,  196.38,    1.02,   16.38, 18.0, 3.94, 3.93, 3.95,-113.87,   2.38,   2.18,  13.89,  10.28, -16.63,  -0.94,  -0.20,  -0.28,   3.49, 3.96, 0.00, 0.00, 0.00, 0.00, 1, 1, 12,  41.7776124, -86.5768678,   200.0, 2024, 12,  8, 15, 29, 29,        0,        0,   0,   0,   1.4,   0.8,   1.2,  0, 27, 28, 32,  0,  0,  0,  0,  0, 41,  0,  0,  0,  0,  0, 33,  0,  0,  0,  0, 16,  0,  0,  0, 26, 33,  0, 37, 37,  0, 34, 38
6, 11115, 1,N0CALL,     0.12, 3,   boost,   98.07,  98992.00,  196.04,    0.68,   17.40, 17.9, 3.94, 3.93, 3.95,-113.85,   3.45,  -0.39,   3.88,   6.74, -13.88,  -0.94,  -0.20,  -0.27,   3.34, 3.96, 0.00, 0.00, 0.00, 0.00, 1, 1, 12,  41.7776124, -86.5768678,   200.0, 2024, 12,  8, 15, 29, 29,        0,        0,   0,   0,   1.4,   0.8,   1.2,  0, 27, 28, 32,  0,  0,  0,  0,  0, 41,  0,  0,  0,  0,  0, 33,  0,  0,  0,  0, 16,  0,  0,  0, 26, 33,  0, 37, 37,  0, 34, 38
6, 11115, 1,N0CALL,     0.13, 3,   boost,  103.95,  98992.00,  196.04,    0.68,   18.43, 17.9, 3.94, 3.93, 3.95,-114.07,   2.56,  -0.29, -18.88,   2.89, -12.05,  -0.94,  -0.20,  -0.27,   3.22, 3.96, 0.00, 0.00, 0.00, 0.00, 1, 1, 12,  41.7776124, -86.5768678,   200.0, 2024, 12,  8, 15, 29, 29,        0,        0,   0,   0,   1.4,   0.8,   1.2,  0, 27, 28, 32,  0,  0,  0,  0,  0, 41,  0,  0,  0,  0,  0, 33,  0,  0,  0,  0, 16,  0,  0,  0, 26, 33,  0, 37, 37,  0, 34, 38
6, 11115, 1,N0CALL,     0.14, 3,   boost,  106.40,  99000.00,  195.36,    0.00,   19.47, 18.0, 3.94, 3.93, 3.95,-117.77,  -7.74,   1.64, -38.23,  -3.33,  -3.08,  -0.94,  -0.20,  -0.27,   3.19, 3.96, 0.00, 0.00, 0.00, 0.00, 1, 1, 12,  41.7776124, -86.5768678,   200.0, 2024, 12,  8, 15, 29, 29,        0,        0,   0,   0,   1.4,   0.8,   1.2,  0, 27, 28, 32,  0,  0,  0,  0,  0, 41,  0,  0,  0,  0,  0, 33,  0,  0,  0,  0, 16,  0,  0,  0, 26, 33,  0, 37, 37,  0, 34, 38
6, 11115, 1,N0CALL,     0.15, 3,   boost,  106.40,  99000.00,  195.36,    0.00,   20.53, 18.0, 3.94, 3.93, 3.95,-119.50,  13.30,   2.80, -63.38,  -1.20,  -6.19,  -0.94,  -0.20,  -0.27,   3.13, 3.96, 0.00, 0.00, 0.00, 0.00, 1, 1, 12,  41.7776124, -86.5768678,   200.0, 2024, 12,  8, 15, 29, 29,        0,        0,   0,   0,   1.4,   0.8,   1.2,  0, 27, 28, 32,  0,  0,  0,  0,  0, 41,  0,  0,  0,  0,  0, 33,  0,  0,  0,  0, 16,  0,  0,  0, 26, 33,  0, 37, 37,  0, 34, 38
6, 11115, 1,N0CALL,     0.16, 3,   boost,  107.87,  98992.00,  196.04,    0.68,   21.59, 18.0, 3.94, 3.93, 3.95,-119.28, -13.41,  -3.05, -62.22,  -1.32,  -9.67,  -0.94,  -0.20,  -0.27,   3.04, 3.96, 0.00, 0.00, 0.00, 0.00, 1, 1, 12,  41.7776124, -86.5768678,   200.0, 2024, 12,  8, 15, 29, 29,        0,        0,   0,   0,   1.4,   0.8,   1.2,  0, 27, 28, 32,  0,  0,  0,  0,  0, 41,  0,  0,  0,  0,  0, 33,  0,  0,  0,  0, 16,  0,  0,  0, 26, 33,  0, 37, 37,  0, 34, 38
6, 11115, 1,N0CALL,     0.17, 3,   boost,  107.38,  98992.00,  196.04,    0.68,   22.66, 18.0, 3.94, 3.93, 3.95,-120.99,  10.60,   3.20, -60.69,  -3.21,  -6.31,  -0.94,  -0.20,  -0.26,   2.98, 3.96, 0.00, 0.00, 0.00, 0.00, 1, 1, 12,  41.7776124, -86.5768678,   200.0, 2024, 12,  8, 15, 29, 29,        0,        0,   0,   0,   1.4,   0.8,   1.2,  0, 27, 28, 32,  0,  0,  0,  0,  0, 41,  0,  0,  0,  0,  0, 33,  0,  0,  0,  0, 16,  0,  0,  0, 26, 33,  0, 37, 37,  0, 34, 38
6, 11115, 1,N0CALL,     0.18, 3,   boost,  107.38,  98981.00,  196.97,    1.61,   23.73, 17.9, 3.94, 3.93, 3.95,-119.92,  -9.54,  -1.85, -57.88,  -3.52,  -9.55,  -0.94,  -0.20,  -0.26,   2.89, 3.96, 0.00, 0.00, 0.00, 0.00, 1, 1, 12,  41.7776124, -86.5768678,   200.0, 2024, 12,  8, 15, 29, 29,        0,        0,   0,   0,   1.4,   0.8,   1.2,  0, 27, 28, 32,  0,  0,  0,  0,  0, 41,  0,  0,  0,  0,  0, 33,  0,  0,  0,  0, 16,  0,  0,  0, 26, 33,  0, 37, 37,  0, 34, 38
6, 11115, 1,N0CALL,     0.19, 3,   boost,  108.36,  98981.00,  196.97,    1.61,   24.81, 17.9, 3.94, 3.93, 3.95,-120.60,   6.44,   1.08, -56.72,  -4.86,  -7.41,  -0.94,  -0.20,  -0.26,   2.82, 3.96, 0.00, 0.00, 0.00, 0.00, 1, 1, 12,  41.7776124, -86.5768678,   200.0, 2024, 12,  8, 15, 29, 29,        0,        0,   0,   0,   1.4,   0.8,   1.2,  0, 27, 28, 32,  0,  0,  0,  0,  0, 41,  0,  0,  0,  0,  0, 33,  0,  0,  0,  0, 16,  0,  0,  0, 26, 33,  0, 37, 37,  0, 34, 38
6, 11115, 1,N0CALL,     0.20, 3,   boost,  109.83,  98974.00,  197.57,    2.21,   25.89, 17.9, 3.94, 3.93, 3.95,-119.55,  -6.49,  -0.32, -54.53,  -5.17,  -9.49,  -0.94,  -0.20,  -0.26,   2.74, 3.96, 0.00, 0.00, 0.00, 0.00, 1, 1, 12,  41.7776124, -86.5768678,   200.0, 2024, 12,  8, 15, 29, 29,        0,        0,   0,   0,   1.4,   0.8,   1.2,  0, 27, 28, 32,  0,  0,  0,  0,  0, 41,  0,  0,  0,  0,  0, 33,  0,  0,  0,  0, 16,  0,  0,  0, 26, 33,  0, 37, 37,  0, 34, 38
6, 11115, 1,N0CALL,     0.21, 3,   boost,  108.36,  98974.00,  197.57,    2.21,   26.98, 17.9, 3.94, 3.93, 3.95,-120.56,   4.71,   0.36, -53.37,  -6.14,  -7.96,  -0.94,  -0.21,  -0.26,   2.67, 3.96, 0.00, 0.00, 0.00, 0.00, 1, 1, 12,  41.7776124, -86.5768678,   200.0, 2024, 12,  8, 15, 29, 29,        0,        0,   0,   0,   1.4,   0.8,   1.2,  0, 27, 28, 32,  0,  0,  0,  0,  0, 41,  0,  0,  0,  0,  0, 33,  0,  0,  0,  0, 16,  0,  0,  0, 26, 33,  0, 37, 37,  0, 34, 38
6, 11115, 1,N0CALL,     0.22, 3,   boost,  107.87,  98967.00,  198.16,    2.80,   28.06, 18.0, 3.94, 3.93, 3.95,-120.86,  -5.24,   0.91, -51.35,  -6.57,  -8.94,  -0.94,  -0.21,  -0.26,   2.59, 3.96, 0.00, 0.00, 0.00, 0.00, 1, 1, 12,  41.7776124, -86.5768678,   200.0, 2024, 12,  8, 15, 29, 29,        0,        0,   0,   0,   1.4,   0.8,   1.2,  0, 27, 28, 32,  0,  0,  0,  0,  0, 41,  0,  0,  0,  0,  0, 33,  0,  0,  0,  0, 16,  0,  0,  0, 26, 33,  0, 37, 37,  0, 34, 38
6, 11115, 1,N0CALL,     0.23, 3,   boost,  107.38,  98967.00,  198.16,    2.80,   29.15, 18.0, 3.94, 3.93, 3.95,-121.21,   3.36,  -0.29, -49.95,  -7.36,  -8.08,  -0.94,  -0.21,  -0.26,   2.53, 3.96, 0.00, 0.00, 0.00, 0.00, 1, 1, 12,  41.7776124, -86.5768678,   200.0, 2024, 12,  8, 15, 29, 29,        0,        0,   0,   0,   1.4,   0.8,   1.2,  0, 27, 28, 32,  0,  0,  0,  0,  0, 41,  0,  0,  0,  0,  0, 33,  0,  0,  0,  0, 16,  0,  0,  0, 26, 33,  0, 37, 37,  0, 34, 38
6, 11115, 1,N0CALL,     0.24, 3,   boost,  109.34,  98970.00,  197.91,    2.54,   30.25, 18.0, 3.94, 3.93, 3.95,-120.80,  -4.11,   0.90, -47.87,  -8.03,  -8.45,  -0.94,  -0.20,  -0.26,   2.47, 3.96, 0.00, 0.00, 0.00, 0.00, 1, 1, 12,  41.7776124, -86.5768678,   200.0, 2024, 12,  8, 15, 29, 29,        0,        0,   0,   0,   1.4,   0.8,   1.2,  0, 27, 28, 32,  0,  0,  0,  0,  0, 41,  0,  0,  0,  0,  0, 33,  0,  0,  0,  0, 16,  0,  0,  0, 26, 33,  0, 37, 37,  0, 34, 38
6, 11115, 1,N0CALL,     0.25, 3,   boost,  115.72,  98970.00,  197.91,    2.54,   31.35, 18.0, 3.94, 3.93, 3.95,-122.05,   2.26,  -0.78, -47.02,  -8.64,  -7.78,  -0.94,  -0.20,  -0.26,   2.41, 3.96, 0.00, 0.00, 0.00, 0.00, 1, 1, 12,  41.7776124, -86.5768678,   200.0, 2024, 12,  8, 15, 29, 29,        0,        0,   0,   0,   1.4,   0.8,   1.2,  0, 27, 28, 32,  0,  0,  0,  0,  0, 41,  0,  0,  0,  0,  0, 33,  0,  0,  0,  0, 16,  0,  0,  0, 26, 33,  0, 37, 37,  0, 34, 38
6, 11115, 1,N0CALL,     0.26, 3,   boost,  108.85,  98967.00,  198.16,    2.80,   32.46, 18.0, 3.94, 3.93, 3.95,-122.21,  -2.92,   1.34, -46.10,  -9.68,  -7.47,  -0.94,  -0.20,  -0.26,   2.37, 3.96, 0.00, 0.00, 0.00, 0.00, 1, 1, 12,  41.7776124, -86.5768678,   200.0, 2024, 12,  8, 15, 29, 29,        0,        0,   0,   0,   1.4,   0.8,   1.2,  0, 27, 28, 32,  0,  0,  0,  0,  0, 41,  0,  0,  0,  0,  0, 33,  0,  0,  0,  0, 16,  0,  0,  0, 26, 33,  0, 37, 37,  0, 34, 38
6, 11115, 1,N0CALL,     0.27, 3,   boost,  110.82,  98967.00,  198.16,    2.80,   33.56, 18.0, 3.94, 3.93, 3.95,-122.90,   0.89,  -0.75, -71.13,  -9.50,  -5.03,  -0.94,  -0.21,  -0.25,   2.36, 3.96, 0.00, 0.00, 0.00, 0.00, 1, 1, 12,  41.7776124, -86.5768678,   200.0, 2024, 12,  8, 15, 29, 29,        0,        0,   0,   0,   1.4,   0.8,   1.2,  0, 27, 28, 32,  0,  0,  0,  0,  0, 41,  0,  0,  0,  0,  0, 33,  0,  0,  0,  0, 16,  0,  0,  0, 26, 33,  0, 37, 37,  0, 34, 38
6, 11115, 1,N0CALL,     0.28, 3,   boost,  111.31,  98952.00,  199.43,    4.07,   34.67, 18.0, 3.94, 3.93, 3.95,-122.46,  -1.55,   1.16, -44.15, -11.27,  -6.56,  -0.94,  -0.21,  -0.25,   2.34, 3.96, 0.00, 0.00, 0.00, 0.00, 1, 1, 12,  41.7776124, -86.5768678,   200.0, 2024, 12,  8, 15, 29, 29,        0,        0,   0,   0,   1.4,   0.8,   1.2,  0, 27, 28, 32,  0,  0,  0,  0,  0, 41,  0,  0,  0,  0,  0, 33,  0,  0,  0,  0, 16,  0,  0,  0, 26, 33,  0, 37, 37,  0, 34, 38
6, 11115, 1,N0CALL,     0.29, 3,   boost,  109.83,  98952.00,  199.43,    4.07,   35.78, 18.0, 3.94, 3.93, 3.95,-122.56,  -0.47,  -0.63, -43.60, -12.55,  -6.80,  -0.94,  -0.21,  -0.25,   2.33, 3.96, 0.00, 0.00, 0.00, 0.00, 1, 1, 12,  41.7776124, -86.5768678,   200.0, 2024, 12,  8, 15, 29, 29,        0,        0,   0,   0,   1.4,   0.8,   1.2,  0, 27, 28, 32,  0,  0,  0,  0,  0, 41,  0,  0,  0,  0,  0, 33,  0,  0,  0,  0, 16,  0,  0,  0, 26, 33,  0, 37, 37,  0, 34, 38
6, 11115, 1,N0CALL,     0.30, 3,   boost,  111.80,  98949.00,  199.69,    4.33,   36.88, 17.9, 3.94, 3.93, 3.95,-122.95,  -0.40,   0.98, -41.65, -13.04,  -5.76,  -0.94,  -0.21,  -0.25,   2.34, 3.96, 0.00, 0.00, 0.00, 0.00, 1, 1, 12,  41.7776124, -86.5768678,   200.0, 2024, 12,  8, 15, 29, 29,        0,        0,   0,   0,   1.4,   0.8,   1.2,  0, 27, 28, 32,  0,  0,  0,  0,  0, 41,  0,  0,  0,  0,  0, 33,  0,  0,  0,  0, 16,  0,  0,  0, 26, 33,  0, 37, 37,  0, 34, 38
6, 11115, 1,N0CALL,     0.31, 3,   boost,  110.32,  98949.00,  199.69,    4.33,   37.98, 17.9, 3.94, 3.93, 3.95,-122.83,  -1.62,   0.01, -40.79, -14.26,  -6.07,  -0.94,  -0.21,  -0.25,   2.36, 3.96, 0.00, 0.00, 0.00, 0.00, 1, 1, 12,  41.7776124, -86.5768678,   200.0, 2024, 12,  8, 15, 29, 29,        0,        0,   0,   0,   1.4,   0.8,   1.2,  0, 27, 28, 32,  0,  0,  0,  0,  0, 41,  0,  0,  0,  0,  0, 33,  0,  0,  0,  0, 16,  0,  0,  0, 26, 33,  0, 37, 37,  0, 34, 38
6, 11115, 1,N0CALL,     0.32, 3,   boost,  109.83,  98929.00,  201.39,    6.02,   39.08, 18.0, 3.94, 3.93, 3.95,-122.06,   0.59,   0.40, -37.25, -14.63,  -4.97,  -0.94,  -0.21,  -0.25,   2.40, 3.96, 0.00, 0.00, 0.00, 0.00, 1, 1, 12,  41.7776124, -86.5768678,   200.0, 2024, 12,  8, 15, 29, 29,        0,        0,   0,   0,   1.4,   0.8,   1.2,  0, 27, 28, 32,  0,  0,  0,  0,  0, 41,  0,  0,  0,  0,  0, 33,  0,  0,  0,  0, 16,  0,  0,  0, 26, 33,  0, 37, 37,  0, 34, 38
6, 11115, 1,N0CALL,     0.33, 3,   boost,  106.89,  98929.00,  201.39,    6.02,   40.17, 18.0, 3.94, 3.93, 3.95,-122.13,  -2.21,   0.46, -38.60, -15.60,  -5.34,  -0.94,  -0.21,  -0.25,   2.46, 3.96, 0.00, 0.00, 0.00, 0.00, 1, 1, 12,  41.7776124, -86.5768678,   200.0, 2024, 12,  8, 15, 29, 29,        0,        0,   0,   0,   1.4,   0.8,   1.2,  0, 27, 28, 32,  0,  0,  0,  0,  0, 41,  0,  0,  0,  0,  0, 33,  0,  0,  0,  0, 16,  0,  0,  0, 26, 33,  0, 37, 37,  0, 34, 38
6, 11115, 1,N0CALL,     0.34, 3,   boost,  110.32,  98922.00,  201.98,    6.62,   41.25, 18.0, 3.96, 3.95, 3.96,-123.53,   0.73,  -1.10, -45.25, -15.60,  -4.54,  -0.94,  -0.21,  -0.25,   2.52, 3.95, 0.00, 0.00, 0.00, 0.20, 1, 1, 12,  41.7776124, -86.5768678,   200.0, 2024, 12,  8, 15, 29, 29,        0,        0,   0,   0,   1.4,   0.8,   1.2,  0, 27, 28, 32,  0,  0,  0,  0,  0, 41,  0,  0,  0,  0,  0, 33,  0,  0,  0,  0, 16,  0,  0,  0, 26, 33,  0, 37, 37,  0, 34, 38
6, 11115, 1,N0CALL,     0.34, 3,   boost,  110.32,  98922.00,  201.98,    6.62,   41.25, 18.0, 3.96, 3.95, 3.96,-123.53,   0.73,  -1.10, -45.25, -15.60,  -4.54,  -0.94,  -0.21,  -0.25,   2.52, 3.95, 0.00, 0.00, 0.00, 0.20, 1, 1, 12,  41.7776124, -86.5768678,   200.0, 2024, 12,  8, 15, 29, 29,        0,        0,   0,   0,   1.4,   0.8,   1.2,  0, 27, 28, 32,  0,  0,  0,  0,  0, 41,  0,  0,  0,  0,  0, 33,  0,  0,  0,  0, 16,  0,  0,  0, 26, 33,  0, 37, 37,  0, 34, 38
6, 11115, 1,N0CALL,     0.35, 3,   boost,  103.46,  98922.00,  201.98,    6.62,   42.32, 18.0, 3.96, 3.95, 3.96,-121.80,  -2.72,   0.73, -32.55, -18.47,  -4.79,  -0.94,  -0.21,  -0.25,   2.62, 3.95, 0.00, 0.00, 0.00, 0.20, 1, 1, 12,  41.7776124, -86.5768678,   200.0, 2024, 12,  8, 15, 29, 29,        0,        0,   0,   0,   1.4,   0.8,   1.2,  0, 27, 28, 32,  0,  0,  0,  0,  0, 41,  0,  0,  0,  0,  0, 33,  0,  0,  0,  0, 16,  0,  0,  0, 26, 33,  0, 37, 37,  0, 34, 38
6, 11115, 1,N0CALL,     0.36, 3,   boost,  106.89,  98929.00,  201.39,    6.02,   43.39, 18.0, 3.96, 3.95, 3.96,-121.39,   1.14,  -0.78, -36.22, -18.17,  -3.99,  -0.94,  -0.21,  -0.25,   2.72, 3.95, 0.00, 0.00, 0.00, 0.20, 1, 1, 12,  41.7776124, -86.5768678,   200.0, 2024, 12,  8, 15, 29, 29,        0,        0,   0,   0,   1.4,   0.8,   1.2,  0, 27, 28, 32,  0,  0,  0,  0,  0, 41,  0,  0,  0,  0,  0, 33,  0,  0,  0,  0, 16,  0,  0,  0, 26, 33,  0, 37, 37,  0, 34, 38
6, 11115, 1,N0CALL,     0.37, 3,   boost,  107.87,  98929.00,  201.39,    6.02,   44.46, 18.0, 3.96, 3.95, 3.96,-122.21,  -2.43,   1.17, -38.96, -25.49,  -3.32,  -0.94,  -0.21,  -0.25,   2.90, 3.95, 0.00, 0.00, 0.00, 0.20, 1, 1, 12,  41.7776124, -86.5768678,   200.0, 2024, 12,  8, 15, 29, 29,        0,        0,   0,   0,   1.4,   0.8,   1.2,  0, 27, 28, 32,  0,  0,  0,  0,  0, 41,  0,  0,  0,  0,  0, 33,  0,  0,  0,  0, 16,  0,  0,  0, 26, 33,  0, 37, 37,  0, 34, 38
6, 11115, 1,N0CALL,     0.38, 3,   boost,  107.87,  98911.00,  202.91,    7.55,   45.54, 17.9, 3.96, 3.95, 3.96,-120.04,   0.78,  -0.47, -30.78, -19.27,  -3.38,  -0.94,  -0.21,  -0.26,   3.03, 3.95, 0.00, 0.00, 0.00, 0.20, 1, 1, 12,  41.7776124, -86.5768678,   200.0, 2024, 12,  8, 15, 29, 29,        0,        0,   0,   0,   1.4,   0.8,   1.2,  0, 27, 28, 32,  0,  0,  0,  0,  0, 41,  0,  0,  0,  0,  0, 33,  0,  0,  0,  0, 16,  0,  0,  0, 26, 33,  0, 37, 37,  0, 34, 38
6, 11115, 1,N0CALL,     0.39, 3,   boost,  110.32,  98911.00,  202.91,    7.55,   46.61, 17.9, 3.96, 3.95, 3.96,-119.38,  -2.16,   1.49, -31.46, -19.75,  -3.08,  -0.94,  -0.21,  -0.26,   3.18, 3.95, 0.00, 0.00, 0.00, 0.20, 1, 1, 12,  41.7776124, -86.5768678,   200.0, 2024, 12,  8, 15, 29, 29,        0,        0,   0,   0,   1.4,   0.8,   1.2,  0, 27, 28, 32,  0,  0,  0,  0,  0, 41,  0,  0,  0,  0,  0, 33,  0,  0,  0,  0, 16,  0,  0,  0, 26, 33,  0, 37, 37,  0, 34, 38
6, 11115, 1,N0CALL,     0.40, 3,   boost,  106.40,  98909.00,  203.08,    7.72,   47.69, 18.0, 3.96, 3.95, 3.96,-118.56,   0.27,  -1.14, -34.45, -18.04,  -1.68,  -0.94,  -0.21,  -0.26,   3.32, 3.95, 0.00, 0.00, 0.00, 0.20, 1, 1, 12,  41.7776124, -86.5768678,   200.0, 2024, 12,  8, 15, 29, 29,        0,        0,   0,   0,   1.4,   0.8,   1.2,  0, 27, 28, 32,  0,  0,  0,  0,  0, 41,  0,  0,  0,  0,  0, 33,  0,  0,  0,  0, 16,  0,  0,  0, 26, 33,  0, 37, 37,  0, 34, 38
6, 11115, 1,N0CALL,     0.41, 3,   boost,  106.40,  98909.00,  203.08,    7.72,   48.75, 18.0, 3.96, 3.95, 3.96,-118.46,   0.51,  -0.62, -28.53, -21.77,  -1.61,  -0.94,  -0.21,  -0.26,   3.50, 3.95, 0.00, 0.00, 0.00, 0.20, 1, 1, 12,  41.7776124, -86.5768678,   200.0, 2024, 12,  8, 15, 29, 29,        0,        0,   0,   0,   1.4,   0.8,   1.2,  0, 27, 28, 32,  0,  0,  0,  0,  0, 41,  0,  0,  0,  0,  0, 33,  0,  0,  0,  0, 16,  0,  0,  0, 26, 33,  0, 37, 37,  0, 34, 38
6, 11115, 1,N0CALL,     0.42, 3,   boost,  105.42,  98896.00,  204.19,    8.83,   49.82, 17.9, 3.96, 3.95, 3.96,-118.64,  -1.70,   1.42, -26.33, -20.97,  -1.61,  -0.94,  -0.22,  -0.26,   3.68, 3.95, 0.00, 0.00, 0.00, 0.20, 1, 1, 12,  41.7776124, -86.5768678,   200.0, 2024, 12,  8, 15, 29, 29,        0,        0,   0,   0,   1.4,   0.8,   1.2,  0, 27, 28, 32,  0,  0,  0,  0,  0, 41,  0,  0,  0,  0,  0, 33,  0,  0,  0,  0, 16,  0,  0,  0, 26, 33,  0, 37, 37,  0, 34, 38
6, 11115, 1,N0CALL,     0.43, 3,   boost,  108.36,  98896.00,  204.19,    8.83,   50.88, 17.9, 3.96, 3.95, 3.96,-119.31,   0.29,  -0.74, -25.17, -21.46,  -1.13,  -0.95,  -0.22,  -0.26,   3.86, 3.95, 0.00, 0.00, 0.00, 0.20, 1, 1, 12,  41.7776124, -86.5768678,   200.0, 2024, 12,  8, 15, 29, 29,        0,        0,   0,   0,   1.4,   0.8,   1.2,  0, 27, 28, 32,  0,  0,  0,  0,  0, 41,  0,  0,  0,  0,  0, 33,  0,  0,  0,  0, 16,  0,  0,  0, 26, 33,  0, 37, 37,  0, 34, 38
6, 11115, 1,N0CALL,     0.44, 3,   boost,  104.44,  98882.00,  205.38,   10.01,   51.94, 18.0, 3.96, 3.95, 3.96,-119.04,  -1.52,   1.25, -23.34, -23.29,  -0.76,  -0.95,  -0.22,  -0.26,   4.07, 3.95, 0.00, 0.00, 0.00, 0.20, 1, 1, 12,  41.7776124, -86.5768678,   200.0, 2024, 12,  8, 15, 29, 29,        0,        0,   0,   0,   1.4,   0.8,   1.2,  0, 27, 28, 32,  0,  0,  0,  0,  0, 41,  0,  0,  0,  0,  0, 33,  0,  0,  0,  0, 16,  0,  0,  0, 26, 33,  0, 37, 37,  0, 34, 38
6, 11115, 1,N0CALL,     0.45, 3,   boost,  105.91,  98882.00,  205.38,   10.01,   53.00, 18.0, 3.96, 3.95, 3.96,-119.66,  -0.04,   0.80, -18.76, -22.50,  -0.88,  -0.95,  -0.22,  -0.26,   4.27, 3.95, 0.00, 0.00, 0.00, 0.20, 1, 1, 12,  41.7776124, -86.5768678,   200.0, 2024, 12,  8, 15, 29, 29,        0,        0,   0,   0,   1.4,   0.8,   1.2,  0, 27, 28, 32,  0,  0,  0,  0,  0, 41,  0,  0,  0,  0,  0, 33,  0,  0,  0,  0, 16,  0,  0,  0, 26, 33,  0, 37, 37,  0, 34, 38
6, 11115, 1,N0CALL,     0.46, 3,   boost,  105.91,  98874.00,  206.05,   10.69,   54.07, 18.0, 3.96, 3.95, 3.96,-118.72,  -1.18,   1.61, -19.43, -21.89,  -0.09,  -0.94,  -0.21,  -0.26,   4.47, 3.95, 0.00, 0.00, 0.00, 0.20, 1, 1, 12,  41.7776124, -86.5768678,   200.0, 2024, 12,  8, 15, 29, 29,        0,        0,   0,   0,   1.4,   0.8,   1.2,  0, 27, 28, 32,  0,  0,  0,  0,  0, 41,  0,  0,  0,  0,  0, 33,  0,  0,  0,  0, 16,  0,  0,  0, 26, 33,  0, 37, 37,  0, 34, 38
6, 11115, 1,N0CALL,     0.47, 3,   boost,  110.32,  98874.00,  206.05,   10.69,   55.13, 18.0, 3.96, 3.95, 3.96,-119.38,  -0.35,   0.31, -18.15, -21.71,  -0.03,  -0.94,  -0.21,  -0.26,   4.67, 3.95, 0.00, 0.00, 0.00, 0.20, 1, 1, 12,  41.7776124, -86.5768678,   200.0, 2024, 12,  8, 15, 29, 29,        0,        0,   0,   0,   1.4,   0.8,   1.2,  0, 27, 28, 32,  0,  0,  0,  0,  0, 41,  0,  0,  0,  0,  0, 33,  0,  0,  0,  0, 16,  0,  0,  0, 26, 33,  0, 37, 37,  0, 34, 38
6, 11115, 1,N0CALL,     0.48, 3,   boost,  106.40,  98861.00,  207.16,   11.80,   56.20, 18.0, 3.96, 3.95, 3.96,-119.84,  -0.88,   0.60, -16.50, -19.39,  -0.27,  -0.94,  -0.21,  -0.27,   4.84, 3.95, 0.00, 0.00, 0.00, 0.20, 1, 1, 12,  41.7776124, -86.5768678,   200.0, 2024, 12,  8, 15, 29, 29,        0,        0,   0,   0,   1.4,   0.8,   1.2,  0, 27, 28, 32,  0,  0,  0,  0,  0, 41,  0,  0,  0,  0,  0, 33,  0,  0,  0,  0, 16,  0,  0,  0, 26, 33,  0, 37, 37,  0, 34, 38
6, 11115, 1,N0CALL,     0.49, 3,   boost,  107.38,  98861.00,  207.16,   11.80,   57.26, 18.0, 3.96, 3.95, 3.96,-119.13,  -0.70,   1.36, -17.17, -21.46,   0.22,  -0.94,  -0.21,  -0.27,   5.04, 3.95, 0.00, 0.00, 0.00, 0.20, 1, 1, 12,  41.7776124, -86.5768678,   200.0, 2024, 12,  8, 15, 29, 29,        0,        0,   0,   0,   1.4,   0.8,   1.2,  0, 27, 28, 32,  0,  0,  0,  0,  0, 41,  0,  0,  0,  0,  0, 33,  0,  0,  0,  0, 16,  0,  0,  0, 26, 33,  0, 37, 37,  0, 34, 38
6, 11115, 1,N0CALL,     0.50, 3,   boost,  105.42,  98838.00,  209.11,   13.75,   58.33, 17.9, 3.96, 3.95, 3.96,-118.72,  -0.65,   1.17, -15.59, -20.30,   0.95,  -0.94,  -0.21,  -0.27,   5.24, 3.95, 0.00, 0.00, 0.00, 0.20, 1, 1, 12,  41.7776124, -86.5768678,   200.0, 2024, 12,  8, 15, 29, 29,        0,        0,   0,   0,   1.4,   0.8,   1.2,  0, 27, 28, 32,  0,  0,  0,  0,  0, 41,  0,  0,  0,  0,  0, 33,  0,  0,  0,  0, 16,  0,  0,  0, 26, 33,  0, 37, 37,  0, 34, 38
6, 11115, 1,N0CALL,     0.51, 3,   boost,  106.40,  98838.00,  209.11,   13.75,   59.39, 17.9, 3.96, 3.95, 3.96,-117.67,  -0.77,   2.13, -13.45, -20.42,   0.89,  -0.94,  -0.21,  -0.27,   5.43, 3.95, 0.00, 0.00, 0.00, 0.20, 1, 1, 12,  41.7776124, -86.5768678,   200.0, 2024, 12,  8, 15, 29, 29,        0,        0,   0,   0,   1.4,   0.8,   1.2,  0, 27, 28, 32,  0,  0,  0,  0,  0, 41,  0,  0,  0,  0,  0, 33,  0,  0,  0,  0, 16,  0,  0,  0, 26, 33,  0, 37, 37,  0, 34, 38
6, 11115, 1,N0CALL,     0.52, 3,   boost,  106.40,  98831.00,  209.71,   14.34,   60.45, 18.0, 3.96, 3.95, 3.96,-117.67,  -0.43,   1.09, -12.23, -19.39,   1.19,  -0.94,  -0.21,  -0.27,   5.62, 3.95, 0.00, 0.00, 0.00, 0.20, 1, 1, 12,  41.7776124, -86.5768678,   200.0, 2024, 12,  8, 15, 29, 29,        0,        0,   0,   0,   1.4,   0.8,   1.2,  0, 27, 28, 32,  0,  0,  0,  0,  0, 41,  0,  0,  0,  0,  0, 33,  0,  0,  0,  0, 16,  0,  0,  0, 26, 33,  0, 37, 37,  0, 34, 38
6, 11115, 1,N0CALL,     0.53, 3,   boost,  106.40,  98831.00,  209.71,   14.34,   61.51, 18.0, 3.96, 3.95, 3.96,-117.92,  -0.88,   2.26, -11.07, -18.59,   1.50,  -0.95,  -0.21,  -0.27,   5.80, 3.95, 0.00, 0.00, 0.00, 0.20, 1, 1, 12,  41.7776124, -86.5768678,   200.0, 2024, 12,  8, 15, 29, 29,        0,        0,   0,   0,   1.4,   0.8,   1.2,  0, 27, 28, 32,  0,  0,  0,  0,  0, 41,  0,  0,  0,  0,  0, 33,  0,  0,  0,  0, 16,  0,  0,  0, 26, 33,  0, 37, 37,  0, 34, 38
6, 11115, 1,N0CALL,     0.54, 3,   boost,  109.34,  98810.00,  211.49,   16.13,   62.57, 18.0, 3.96, 3.95, 3.96,-117.88,  -0.40,   1.16,  -9.30, -17.37,   1.87,  -0.95,  -0.21,  -0.27,   5.97, 3.95, 0.00, 0.00, 0.00, 0.20, 1, 1, 12,  41.7776124, -86.5768678,   200.0, 2024, 12,  8, 15, 29, 29,        0,        0,   0,   0,   1.4,   0.8,   1.2,  0, 27, 28, 32,  0,  0,  0,  0,  0, 41,  0,  0,  0,  0,  0, 33,  0,  0,  0,  0, 16,  0,  0,  0, 26, 33,  0, 37, 37,  0, 34, 38
6, 11115, 1,N0CALL,     0.55, 3,   boost,  106.40,  98810.00,  211.49,   16.13,   63.63, 18.0, 3.96, 3.95, 3.96,-117.17,  -0.89,   2.79,  -7.90, -16.27,   2.17,  -0.95,  -0.21,  -0.27,   6.13, 3.95, 0.00, 0.00, 0.00, 0.20, 1, 1, 12,  41.7776124, -86.5768678,   200.0, 2024, 12,  8, 15, 29, 29,        0,        0,   0,   0,   1.4,   0.8,   1.2,  0, 27, 28, 32,  0,  0,  0,  0,  0, 41,  0,  0,  0,  0,  0, 33,  0,  0,  0,  0, 16,  0,  0,  0, 26, 33,  0, 37, 37,  0, 34, 38
