#version,serial,flight,call,time,state,state_name,acceleration,pressure,altitude,height,speed,temperature,drogue_voltage,main_voltage,battery_voltage,accel_x,accel_y,accel_z,gyro_roll,gyro_pitch,gyro_yaw,mag_x,mag_y,mag_z,tilt,pyro,igniter_a,igniter_b,igniter_c,igniter_d,connected,locked,nsat,latitude,longitude,altitude,year,month,day,hour,minute,second,pad_dist,pad_range,pad_az,pad_el,pdop,hdop,vdop,sat01,sat02,sat03,sat04,sat05,sat06,sat07,sat08,sat09,sat10,sat11,sat12,sat13,sat14,sat15,sat16,sat17,sat18,sat19,sat20,sat21,sat22,sat23,sat24,sat25,sat26,sat27,sat28,sat29,sat30,sat31,sat32
6, 11044, 1,N0CALL,    -0.30, 3,   boost,    0.48,  99043.00,  191.71,   -0.59,    0.00,  6.1, 3.85, 3.86, 3.86,  -9.85,  -0.22,   0.15,   0.23,   0.21,  -0.17,  -0.98,  -0.11,   0.14,   1.14, 3.86, 0.00, 0.00, 0.00, 0.00, 1, 1, 13,  42.6264331, -88.1614974,   237.0, 2024,  2, 11, 20, 19,  7,        0,        0,   0,   0,   1.3,   0.8,   1.0,  0, 31, 38,  0,  0,  0, 35, 32,  0,  0,  0,  0, 31, 23, 37,  0, 16,  0, 34,  0, 36, 30,  0,  0,  0,  0,  0,  0,  0, 32,  0,  0
6, 11044, 1,N0CALL,    -0.29, 3,   boost,    0.96,  99036.00,  192.31,    0.00,    0.00,  6.2, 3.85, 3.86, 3.86,  -9.90,  -0.28,   0.29,   0.05,   0.33,  -0.04,  -0.97,  -0.11,   0.14,   1.14, 3.86, 0.00, 0.00, 0.00, 0.00, 1, 1, 13,  42.6264331, -88.1614974,   237.0, 2024,  2, 11, 20, 19,  7,        0,        0,   0,   0,   1.3,   0.8,   1.0,  0, 31, 38,  0,  0,  0, 35, 32,  0,  0,  0,  0, 31, 23, 37,  0, 16,  0, 34,  0, 36, 30,  0,  0,  0,  0,  0,  0,  0, 32,  0,  0
6, 11044, 1,N0CALL,    -0.28, 3,   boost,   -0.48,  99036.00,  192.31,    0.00,    0.00,  6.2, 3.85, 3.86, 3.86,  -9.89,   0.00,   0.27,  -0.07,   0.15,  -0.23,  -0.98,  -0.11,   0.14,   1.14, 3.86, 0.00, 0.00, 0.00, 0.00, 1, 1, 13,  42.6264331, -88.1614974,   237.0, 2024,  2, 11, 20, 19,  7,        0,        0,   0,   0,   1.3,   0.8,   1.0,  0, 31, 38,  0,  0,  0, 35, 32,  0,  0,  0,  0, 31, 23, 37,  0, 16,  0, 34,  0, 36, 30,  0,  0,  0,  0,  0,  0,  0, 32,  0,  0
6, 11044, 1,N0CALL,    -0.27, 3,   boost,   -1.44,  99043.00,  191.71,   -0.59,    0.00,  6.2, 3.85, 3.86, 3.86,  -9.89,   0.01,   0.14,  -0.01,  -0.09,   0.02,  -0.98,  -0.11,   0.14,   1.14, 3.86, 0.00, 0.00, 0.00, 0.00, 1, 1, 13,  42.6264331, -88.1614974,   237.0, 2024,  2, 11, 20, 19,  7,        0,        0,   0,   0,   1.3,   0.8,   1.0,  0, 31, 38,  0,  0,  0, 35, 32,  0,  0,  0,  0, 31, 23, 37,  0, 16,  0, 34,  0, 36, 30,  0,  0,  0,  0,  0,  0,  0, 32,  0,  0
6, 11044, 1,N0CALL,    -0.26, 3,   boost,   -1.44,  99043.00,  191.71,   -0.59,    0.00,  6.2, 3.85, 3.86, 3.86,  -9.88,  -0.02,  -0.01,  -0.19,  -0.09,  -0.04,  -0.97,  -0.11,   0.14,   1.14, 3.86, 0.00, 0.00, 0.00, 0.00, 1, 1, 13,  42.6264331, -88.1614974,   237.0, 2024,  2, 11, 20, 19,  7,        0,        0,   0,   0,   1.3,   0.8,   1.0,  0, 31, 38,  0,  0,  0, 35, 32,  0,  0,  0,  0, 31, 23, 37,  0, 16,  0, 34,  0, 36, 30,  0,  0,  0,  0,  0,  0,  0, 32,  0,  0
6, 11044, 1,N0CALL,    -0.25, 3,   boost,   -1.44,  99046.00,  191.46,   -0.85,    0.00,  6.2, 3.85, 3.86, 3.86,  -9.86,  -0.21,   0.09,   0.05,   0.15,  -0.17,  -0.97,  -0.11,   0.14,   1.14, 3.86, 0.00, 0.00, 0.00, 0.00, 1, 1, 13,  42.6264331, -88.1614974,   237.0, 2024,  2, 11, 20, 19,  7,        0,        0,   0,   0,   1.3,   0.8,   1.0,  0, 31, 38,  0,  0,  0, 35, 32,  0,  0,  0,  0, 31, 23, 37,  0, 16,  0, 34,  0, 36, 30,  0,  0,  0,  0,  0,  0,  0, 32,  0,  0
6, 11044, 1,N0CALL,    -0.24, 3,   boost,   -0.00,  99046.00,  191.46,   -0.85,    0.00,  6.2, 3.85, 3.86, 3.86,  -9.93,  -0.22,   0.24,  -0.19,  -0.22,   0.20,  -0.97,  -0.11,   0.14,   1.14, 3.86, 0.00, 0.00, 0.00, 0.00, 1, 1, 13,  42.6264331, -88.1614974,   237.0, 2024,  2, 11, 20, 19,  7,        0,        0,   0,   0,   1.3,   0.8,   1.0,  0, 31, 38,  0,  0,  0, 35, 32,  0,  0,  0,  0, 31, 23, 37,  0, 16,  0, 34,  0, 36, 30,  0,  0,  0,  0,  0,  0,  0, 32,  0,  0
6, 11044, 1,N0CALL,    -0.23, 3,   boost,   -0.48,  99042.00,  191.80,   -0.51,    0.00,  6.1, 3.85, 3.86, 3.86,  -9.85,   0.07,   0.24,   0.11,  -0.15,   0.20,  -0.97,  -0.11,   0.14,   1.14, 3.86, 0.00, 0.00, 0.00, 0.00, 1, 1, 13,  42.6264331, -88.1614974,   237.0, 2024,  2, 11, 20, 19,  7,        0,        0,   0,   0,   1.3,   0.8,   1.0,  0, 31, 38,  0,  0,  0, 35, 32,  0,  0,  0,  0, 31, 23, 37,  0, 16,  0, 34,  0, 36, 30,  0,  0,  0,  0,  0,  0,  0, 32,  0,  0
6, 11044, 1,N0CALL,    -0.22, 3,   boost,   -0.48,  99042.00,  191.80,   -0.51,    0.00,  6.1, 3.85, 3.86, 3.86,  -9.91,   0.04,   0.09,   0.11,  -0.03,  -0.23,  -0.98,  -0.11,   0.14,   1.14, 3.86, 0.00, 0.00, 0.00, 0.00, 1, 1, 13,  42.6264331, -88.1614974,   237.0, 2024,  2, 11, 20, 19,  7,        0,        0,   0,   0,   1.3,   0.8,   1.0,  0, 31, 38,  0,  0,  0, 35, 32,  0,  0,  0,  0, 31, 23, 37,  0, 16,  0, 34,  0, 36, 30,  0,  0,  0,  0,  0,  0,  0, 32,  0,  0
6, 11044, 1,N0CALL,    -0.21, 3,   boost,   -0.96,  99042.00,  191.80,   -0.51,    0.00,  6.2, 3.85, 3.86, 3.86,  -9.89,   0.02,   0.09,   0.11,  -0.22,   0.02,  -0.98,  -0.11,   0.14,   1.14, 3.86, 0.00, 0.00, 0.00, 0.00, 1, 1, 13,  42.6264331, -88.1614974,   237.0, 2024,  2, 11, 20, 19,  7,        0,        0,   0,   0,   1.3,   0.8,   1.0,  0, 31, 38,  0,  0,  0, 35, 32,  0,  0,  0,  0, 31, 23, 37,  0, 16,  0, 34,  0, 36, 30,  0,  0,  0,  0,  0,  0,  0, 32,  0,  0
6, 11044, 1,N0CALL,    -0.20, 3,   boost,   -1.44,  99042.00,  191.80,   -0.51,    0.00,  6.2, 3.85, 3.86, 3.86,  -9.86,  -0.28,   0.17,   0.23,   0.03,  -0.04,  -0.98,  -0.11,   0.14,   1.14, 3.86, 0.00, 0.00, 0.00, 0.00, 1, 1, 13,  42.6264331, -88.1614974,   237.0, 2024,  2, 11, 20, 19,  7,        0,        0,   0,   0,   1.3,   0.8,   1.0,  0, 31, 38,  0,  0,  0, 35, 32,  0,  0,  0,  0, 31, 23, 37,  0, 16,  0, 34,  0, 36, 30,  0,  0,  0,  0,  0,  0,  0, 32,  0,  0
6, 11044, 1,N0CALL,    -0.19, 3,   boost,   -0.48,  99042.00,  191.80,   -0.51,    0.00,  6.2, 3.85, 3.86, 3.86,  -9.89,  -0.04,   0.37,   0.11,  -0.15,   0.02,  -0.98,  -0.11,   0.14,   1.14, 3.86, 0.00, 0.00, 0.00, 0.00, 1, 1, 13,  42.6264331, -88.1614974,   237.0, 2024,  2, 11, 20, 19,  7,        0,        0,   0,   0,   1.3,   0.8,   1.0,  0, 31, 38,  0,  0,  0, 35, 32,  0,  0,  0,  0, 31, 23, 37,  0, 16,  0, 34,  0, 36, 30,  0,  0,  0,  0,  0,  0,  0, 32,  0,  0
6, 11044, 1,N0CALL,    -0.18, 3,   boost,   -0.96,  99042.00,  191.80,   -0.51,    0.00,  6.2, 3.85, 3.86, 3.86,  -9.90,   0.06,   0.26,   0.29,  -0.28,  -0.04,  -0.98,  -0.11,   0.14,   1.14, 3.86, 0.00, 0.00, 0.00, 0.00, 1, 1, 13,  42.6264331, -88.1614974,   237.0, 2024,  2, 11, 20, 19,  7,        0,        0,   0,   0,   1.3,   0.8,   1.0,  0, 31, 38,  0,  0,  0, 35, 32,  0,  0,  0,  0, 31, 23, 37,  0, 16,  0, 34,  0, 36, 30,  0,  0,  0,  0,  0,  0,  0, 32,  0,  0
6, 11044, 1,N0CALL,    -0.17, 3,   boost,    1.44,  99041.00,  191.88,   -0.42,    0.00,  6.2, 3.85, 3.86, 3.86,  -9.86,  -0.02,   0.24,   0.17,   0.21,  -0.11,  -0.98,  -0.11,   0.14,   1.14, 3.86, 0.00, 0.00, 0.00, 0.00, 1, 1, 13,  42.6264331, -88.1614974,   237.0, 2024,  2, 11, 20, 19,  7,        0,        0,   0,   0,   1.3,   0.8,   1.0,  0, 31, 38,  0,  0,  0, 35, 32,  0,  0,  0,  0, 31, 23, 37,  0, 16,  0, 34,  0, 36, 30,  0,  0,  0,  0,  0,  0,  0, 32,  0,  0
6, 11044, 1,N0CALL,    -0.16, 3,   boost,   -0.48,  99041.00,  191.88,   -0.42,    0.00,  6.2, 3.85, 3.86, 3.86,  -9.88,  -0.12,   0.28,   0.29,   0.21,   0.14,  -0.98,  -0.11,   0.14,   1.14, 3.86, 0.00, 0.00, 0.00, 0.00, 1, 1, 13,  42.6264331, -88.1614974,   237.0, 2024,  2, 11, 20, 19,  7,        0,        0,   0,   0,   1.3,   0.8,   1.0,  0, 31, 38,  0,  0,  0, 35, 32,  0,  0,  0,  0, 31, 23, 37,  0, 16,  0, 34,  0, 36, 30,  0,  0,  0,  0,  0,  0,  0, 32,  0,  0
6, 11044, 1,N0CALL,    -0.15, 3,   boost,   -0.48,  99038.00,  192.14,   -0.17,    0.00,  6.2, 3.85, 3.86, 3.86,  -9.89,  -0.17,   0.27,  -0.01,   0.03,   0.08,  -0.98,  -0.11,   0.14,   1.14, 3.86, 0.00, 0.00, 0.00, 0.00, 1, 1, 13,  42.6264331, -88.1614974,   237.0, 2024,  2, 11, 20, 19,  7,        0,        0,   0,   0,   1.3,   0.8,   1.0,  0, 31, 38,  0,  0,  0, 35, 32,  0,  0,  0,  0, 31, 23, 37,  0, 16,  0, 34,  0, 36, 30,  0,  0,  0,  0,  0,  0,  0, 32,  0,  0
6, 11044, 1,N0CALL,    -0.14, 3,   boost,    0.48,  99038.00,  192.14,   -0.17,    0.02,  6.2, 3.85, 3.86, 3.86,  -9.95,   0.08,   0.29,  -0.13,  -0.03,  -0.04,  -0.98,  -0.11,   0.14,   1.14, 3.86, 0.00, 0.00, 0.00, 0.00, 1, 1, 13,  42.6264331, -88.1614974,   237.0, 2024,  2, 11, 20, 19,  7,        0,        0,   0,   0,   1.3,   0.8,   1.0,  0, 31, 38,  0,  0,  0, 35, 32,  0,  0,  0,  0, 31, 23, 37,  0, 16,  0, 34,  0, 36, 30,  0,  0,  0,  0,  0,  0,  0, 32,  0,  0
6, 11044, 1,N0CALL,    -0.13, 3,   boost,    3.83,  99039.00,  192.05,   -0.25,    0.06,  6.2, 3.85, 3.86, 3.86,  -9.88,   0.01,   0.05,  -0.26,   0.21,   0.08,  -0.98,  -0.11,   0.14,   1.14, 3.86, 0.00, 0.00, 0.00, 0.00, 1, 1, 13,  42.6264331, -88.1614974,   237.0, 2024,  2, 11, 20, 19,  7,        0,        0,   0,   0,   1.3,   0.8,   1.0,  0, 31, 38,  0,  0,  0, 35, 32,  0,  0,  0,  0, 31, 23, 37,  0, 16,  0, 34,  0, 36, 30,  0,  0,  0,  0,  0,  0,  0, 32,  0,  0
6, 11044, 1,N0CALL,    -0.12, 3,   boost,   10.52,  99039.00,  192.05,   -0.25,    0.15,  6.2, 3.85, 3.86, 3.86, -10.67,   0.03,   0.00,  -0.26,   0.27,   0.20,  -0.98,  -0.11,   0.14,   1.14, 3.86, 0.00, 0.00, 0.00, 0.00, 1, 1, 13,  42.6264331, -88.1614974,   237.0, 2024,  2, 11, 20, 19,  7,        0,        0,   0,   0,   1.3,   0.8,   1.0,  0, 31, 38,  0,  0,  0, 35, 32,  0,  0,  0,  0, 31, 23, 37,  0, 16,  0, 34,  0, 36, 30,  0,  0,  0,  0,  0,  0,  0, 32,  0,  0
6, 11044, 1,N0CALL,    -0.11, 3,   boost,   20.09,  99057.00,  190.53,   -1.78,    0.29,  6.2, 3.85, 3.86, 3.86, -22.18,   1.71,  -2.67,   0.48,   0.27,   0.02,  -0.98,  -0.11,   0.14,   1.14, 3.86, 0.00, 0.00, 0.00, 0.00, 1, 1, 13,  42.6264331, -88.1614974,   237.0, 2024,  2, 11, 20, 19,  7,        0,        0,   0,   0,   1.3,   0.8,   1.0,  0, 31, 38,  0,  0,  0, 35, 32,  0,  0,  0,  0, 31, 23, 37,  0, 16,  0, 34,  0, 36, 30,  0,  0,  0,  0,  0,  0,  0, 32,  0,  0
6, 11044, 1,N0CALL,    -0.10, 3,   boost,   25.83,  99057.00,  190.53,   -1.78,    0.50,  6.2, 3.85, 3.86, 3.86, -29.52,  -3.58,   5.10,  -7.76,   1.31,   1.18,  -0.98,  -0.11,   0.14,   1.14, 3.86, 0.00, 0.00, 0.00, 0.00, 1, 1, 13,  42.6264331, -88.1614974,   237.0, 2024,  2, 11, 20, 19,  7,        0,        0,   0,   0,   1.3,   0.8,   1.0,  0, 31, 38,  0,  0,  0, 35, 32,  0,  0,  0,  0, 31, 23, 37,  0, 16,  0, 34,  0, 36, 30,  0,  0,  0,  0,  0,  0,  0, 32,  0,  0
6, 11044, 1,N0CALL,    -0.09, 3,   boost,   29.66,  99032.00,  192.65,    0.34,    0.77,  6.2, 3.85, 3.86, 3.86, -32.20,   0.94,   6.08, -11.24,   0.46,   0.02,  -0.98,  -0.11,   0.14,   1.14, 3.86, 0.00, 0.00, 0.00, 0.00, 1, 1, 13,  42.6264331, -88.1614974,   237.0, 2024,  2, 11, 20, 19,  7,        0,        0,   0,   0,   1.3,   0.8,   1.0,  0, 31, 38,  0,  0,  0, 35, 32,  0,  0,  0,  0, 31, 23, 37,  0, 16,  0, 34,  0, 36, 30,  0,  0,  0,  0,  0,  0,  0, 32,  0,  0
6, 11044, 1,N0CALL,    -0.08, 3,   boost,   38.27,  99032.00,  192.65,    0.34,    1.11,  6.2, 3.85, 3.86, 3.86, -37.65,  -0.35,   3.14,   9.08,  -2.17,   0.38,  -0.98,  -0.11,   0.14,   1.14, 3.86, 0.00, 0.00, 0.00, 0.00, 1, 1, 13,  42.6264331, -88.1614974,   237.0, 2024,  2, 11, 20, 19,  7,        0,        0,   0,   0,   1.3,   0.8,   1.0,  0, 31, 38,  0,  0,  0, 35, 32,  0,  0,  0,  0, 31, 23, 37,  0, 16,  0, 34,  0, 36, 30,  0,  0,  0,  0,  0,  0,  0, 32,  0,  0
6, 11044, 1,N0CALL,    -0.07, 3,   boost,   44.97,  99044.00,  191.63,   -0.68,    1.49,  6.2, 3.85, 3.86, 3.86, -48.64,   0.47,   0.64,  11.28,   1.86,   0.81,  -0.98,  -0.11,   0.14,   1.14, 3.86, 0.00, 0.00, 0.00, 0.00, 1, 1, 13,  42.6264331, -88.1614974,   237.0, 2024,  2, 11, 20, 19,  7,        0,        0,   0,   0,   1.3,   0.8,   1.0,  0, 31, 38,  0,  0,  0, 35, 32,  0,  0,  0,  0, 31, 23, 37,  0, 16,  0, 34,  0, 36, 30,  0,  0,  0,  0,  0,  0,  0, 32,  0,  0
6, 11044, 1,N0CALL,    -0.06, 3,   boost,   44.97,  99044.00,  191.63,   -0.68,    1.91,  6.2, 3.85, 3.86, 3.86, -56.76,  -1.68,  -1.16,   5.12,  -0.40,   0.75,  -0.98,  -0.11,   0.14,   1.14, 3.86, 0.00, 0.00, 0.00, 0.00, 1, 1, 13,  42.6264331, -88.1614974,   237.0, 2024,  2, 11, 20, 19,  7,        0,        0,   0,   0,   1.3,   0.8,   1.0,  0, 31, 38,  0,  0,  0, 35, 32,  0,  0,  0,  0, 31, 23, 37,  0, 16,  0, 34,  0, 36, 30,  0,  0,  0,  0,  0,  0,  0, 32,  0,  0
6, 11044, 1,N0CALL,    -0.05, 3,   boost,   45.92,  99034.00,  192.48,    0.17,    2.36,  6.2, 3.85, 3.86, 3.86, -60.27,   0.41,  -2.03,  -1.29,   3.02,   0.02,  -0.98,  -0.11,   0.14,   1.14, 3.86, 0.00, 0.00, 0.00, 0.00, 1, 1, 13,  42.6264331, -88.1614974,   237.0, 2024,  2, 11, 20, 19,  7,        0,        0,   0,   0,   1.3,   0.8,   1.0,  0, 31, 38,  0,  0,  0, 35, 32,  0,  0,  0,  0, 31, 23, 37,  0, 16,  0, 34,  0, 36, 30,  0,  0,  0,  0,  0,  0,  0, 32,  0,  0
6, 11044, 1,N0CALL,    -0.04, 3,   boost,   48.32,  99034.00,  192.48,    0.17,    2.82,  6.2, 3.85, 3.86, 3.86, -59.44,  -0.46,   0.10,   2.86,   1.74,  -0.53,  -0.98,  -0.11,   0.14,   1.14, 3.86, 0.00, 0.00, 0.00, 0.00, 1, 1, 13,  42.6264331, -88.1614974,   237.0, 2024,  2, 11, 20, 19,  7,        0,        0,   0,   0,   1.3,   0.8,   1.0,  0, 31, 38,  0,  0,  0, 35, 32,  0,  0,  0,  0, 31, 23, 37,  0, 16,  0, 34,  0, 36, 30,  0,  0,  0,  0,  0,  0,  0, 32,  0,  0
6, 11044, 1,N0CALL,    -0.03, 3,   boost,   47.84,  99022.00,  193.50,    1.19,    3.29,  6.2, 3.85, 3.86, 3.86, -59.79,  -0.23,  -5.87,   3.16,   1.98,  -0.53,  -0.98,  -0.11,   0.14,   1.14, 3.86, 0.00, 0.00, 0.00, 0.00, 1, 1, 13,  42.6264331, -88.1614974,   237.0, 2024,  2, 11, 20, 19,  7,        0,        0,   0,   0,   1.3,   0.8,   1.0,  0, 31, 38,  0,  0,  0, 35, 32,  0,  0,  0,  0, 31, 23, 37,  0, 16,  0, 34,  0, 36, 30,  0,  0,  0,  0,  0,  0,  0, 32,  0,  0
6, 11044, 1,N0CALL,    -0.02, 3,   boost,   48.32,  99022.00,  193.50,    1.19,    3.77,  6.2, 3.85, 3.86, 3.86, -60.18,   1.08,   0.63,  10.49,  -1.38,  -0.47,  -0.97,  -0.11,   0.14,   1.14, 3.86, 0.00, 0.00, 0.00, 0.00, 1, 1, 13,  42.6264331, -88.1614974,   237.0, 2024,  2, 11, 20, 19,  7,        0,        0,   0,   0,   1.3,   0.8,   1.0,  0, 31, 38,  0,  0,  0, 35, 32,  0,  0,  0,  0, 31, 23, 37,  0, 16,  0, 34,  0, 36, 30,  0,  0,  0,  0,  0,  0,  0, 32,  0,  0
6, 11044, 1,N0CALL,    -0.01, 3,   boost,   48.79,  99031.00,  192.73,    0.42,    4.26,  6.2, 3.85, 3.86, 3.86, -59.90,   2.26,  -2.28,   5.12,  -2.41,  -0.90,  -0.97,  -0.11,   0.14,   1.14, 3.86, 0.00, 0.00, 0.00, 0.00, 1, 1, 13,  42.6264331, -88.1614974,   237.0, 2024,  2, 11, 20, 19,  7,        0,        0,   0,   0,   1.3,   0.8,   1.0,  0, 31, 38,  0,  0,  0, 35, 32,  0,  0,  0,  0, 31, 23, 37,  0, 16,  0, 34,  0, 36, 30,  0,  0,  0,  0,  0,  0,  0, 32,  0,  0
6, 11044, 1,N0CALL,     0.00, 3,   boost,   50.23,  99031.00,  192.73,    0.42,    4.75,  6.2, 3.85, 3.86, 3.86, -59.98,  -3.07,  -0.52,   7.19,   2.77,  -0.53,  -0.97,  -0.11,   0.14,   1.14, 3.86, 0.00, 0.00, 0.00, 0.00, 1, 1, 13,  42.6264331, -88.1614974,   237.0, 2024,  2, 11, 20, 19,  7,        0,        0,   0,   0,   1.3,   0.8,   1.0,  0, 31, 38,  0,  0,  0, 35, 32,  0,  0,  0,  0, 31, 23, 37,  0, 16,  0, 34,  0, 36, 30,  0,  0,  0,  0,  0,  0,  0, 32,  0,  0
6, 11044, 1,N0CALL,     0.00, 3,   boost,   50.23,  99031.00,  192.73,    0.42,    4.75,  6.2, 3.85, 3.86, 3.86, -59.98,  -3.07,  -0.52,   7.19,   2.77,  -0.53,  -0.97,  -0.11,   0.14,   1.14, 3.86, 0.00, 0.00, 0.00, 0.00, 1, 1, 13,  42.6264331, -88.1614974,   237.0, 2024,  2, 11, 20, 19,  7,        0,        0,   0,   0,   1.3,   0.8,   1.0,  0, 31, 38,  0,  0,  0, 35, 32,  0,  0,  0,  0, 31, 23, 37,  0, 16,  0, 34,  0, 36, 30,  0,  0,  0,  0,  0,  0,  0, 32,  0,  0
6, 11044, 1,N0CALL,     0.00, 3,   boost,   50.23,  99031.00,  192.73,    0.42,    4.75,  6.2, 3.85, 3.86, 3.86, -59.98,  -3.07,  -0.52,   7.19,   2.77,  -0.53,  -0.97,  -0.11,   0.14,   1.14, 3.86, 0.00, 0.00, 0.00, 0.00, 1, 1, 13,  42.6264331, -88.1614974,   237.0, 2024,  2, 11, 20, 19,  7,        0,        0,   0,   0,   1.3,   0.8,   1.0,  0, 31, 38,  0,  0,  0, 35, 32,  0,  0,  0,  0, 31, 23, 37,  0, 16,  0, 34,  0, 36, 30,  0,  0,  0,  0,  0,  0,  0, 32,  0,  0
6, 11044, 1,N0CALL,     0.00, 3,   boost,   50.23,  99031.00,  192.73,    0.42,    4.75,  6.2, 3.85, 3.86, 3.86, -59.98,  -3.07,  -0.52,   7.19,   2.77,  -0.53,  -0.97,  -0.11,   0.14,   1.14, 3.86, 0.00, 0.00, 0.00, 0.00, 1, 1, 13,  42.6264331, -88.1614974,   237.0, 2024,  2, 11, 20, 19,  7,        0,        0,   0,   0,   1.3,   0.8,   1.0,  0, 31, 38,  0,  0,  0, 35, 32,  0,  0,  0,  0, 31, 23, 37,  0, 16,  0, 34,  0, 36, 30,  0,  0,  0,  0,  0,  0,  0, 32,  0,  0
6, 11044, 1,N0CALL,     0.00, 3,   boost,   50.23,  99031.00,  192.73,    0.42,    4.75,  6.2, 3.85, 3.86, 3.86, -59.98,  -3.07,  -0.52,   7.19,   2.77,  -0.53,  -0.97,  -0.11,   0.14,   1.14, 3.86, 0.00, 0.00, 0.00, 0.00, 1, 1, 13,  42.6264331, -88.1614974,   237.0, 2024,  2, 11, 20, 19,  7,        0,        0,   0,   0,   1.3,   0.8,   1.0,  0, 31, 38,  0,  0,  0, 35, 32,  0,  0,  0,  0, 31, 23, 37,  0, 16,  0, 34,  0, 36, 30,  0,  0,  0,  0,  0,  0,  0, 32,  0,  0
6, 11044, 1,N0CALL,     0.00, 3,   boost,   50.23,  99031.00,  192.73,    0.42,    4.75,  6.2, 3.85, 3.86, 3.86, -59.98,  -3.07,  -0.52,   7.19,   2.77,  -0.53,  -0.97,  -0.11,   0.14,   1.14, 3.86, 0.00, 0.00, 0.00, 0.00, 1, 1, 13,  42.6264331, -88.1614974,   237.0, 2024,  2, 11, 20, 19,  7,        0,        0,   0,   0,   1.3,   0.8,   1.0,  0, 31, 38,  0,  0,  0, 35, 32,  0,  0,  0,  0, 31, 23, 37,  0, 16,  0, 34,  0, 36, 30,  0,  0,  0,  0,  0,  0,  0, 32,  0,  0
6, 11044, 1,N0CALL,     0.00, 3,   boost,   50.23,  99031.00,  192.73,    0.42,    4.75,  6.2, 3.85, 3.86, 3.86, -59.98,  -3.07,  -0.52,   7.19,   2.77,  -0.53,  -0.97,  -0.11,   0.14,   1.14, 3.86, 0.00, 0.00, 0.00, 0.00, 1, 1, 13,  42.6264331, -88.1614974,   237.0, 2024,  2, 11, 20, 19,  7,        0,        0,   0,   0,   1.3,   0.8,   1.0,  0, 31, 38,  0,  0,  0, 35, 32,  0,  0,  0,  0, 31, 23, 37,  0, 16,  0, 34,  0, 36, 30,  0,  0,  0,  0,  0,  0,  0, 32,  0,  0
6, 11044, 1,N0CALL,     0.00, 3,   boost,   50.23,  99031.00,  192.73,    0.42,    4.75,  6.2, 3.85, 3.86, 3.86, -59.98,  -3.07,  -0.52,   7.19,   2.77,  -0.53,  -0.97,  -0.11,   0.14,   1.14, 3.86, 0.00, 0.00, 0.00, 0.00, 1, 1, 13,  42.6264331, -88.1614974,   237.0, 2024,  2, 11, 20, 19,  7,        0,        0,   0,   0,   1.3,   0.8,   1.0,  0, 31, 38,  0,  0,  0, 35, 32,  0,  0,  0,  0, 31, 23, 37,  0, 16,  0, 34,  0, 36, 30,  0,  0,  0,  0,  0,  0,  0, 32,  0,  0
6, 11044, 1,N0CALL,     0.00, 3,   boost,   50.23,  99031.00,  192.73,    0.42,    4.75,  6.2, 3.85, 3.86, 3.86, -59.98,  -3.07,  -0.52,   7.19,   2.77,  -0.53,  -0.97,  -0.11,   0.14,   1.14, 3.86, 0.00, 0.00, 0.00, 0.00, 1, 1, 13,  42.6264331, -88.1614974,   237.0, 2024,  2, 11, 20, 19,  7,        0,        0,   0,   0,   1.3,   0.8,   1.0,  0, 31, 38,  0,  0,  0, 35, 32,  0,  0,  0,  0, 31, 23, 37,  0, 16,  0, 34,  0, 36, 30,  0,  0,  0,  0,  0,  0,  0, 32,  0,  0
6, 11044, 1,N0CALL,     0.00, 3,   boost,   50.23,  99031.00,  192.73,    0.42,    4.75,  6.2, 3.85, 3.86, 3.86, -59.98,  -3.07,  -0.52,   7.19,   2.77,  -0.53,  -0.97,  -0.11,   0.14,   1.14, 3.86, 0.00, 0.00, 0.00, 0.00, 1, 1, 13,  42.6264331, -88.1614974,   237.0, 2024,  2, 11, 20, 19,  7,        0,        0,   0,   0,   1.3,   0.8,   1.0,  0, 31, 38,  0,  0,  0, 35, 32,  0,  0,  0,  0, 31, 23, 37,  0, 16,  0, 34,  0, 36, 30,  0,  0,  0,  0,  0,  0,  0, 32,  0,  0
6, 11044, 1,N0CALL,     0.00, 3,   boost,   50.23,  99031.00,  192.73,    0.42,    4.75,  6.2, 3.85, 3.86, 3.86, -59.98,  -3.07,  -0.52,   7.19,   2.77,  -0.53,  -0.97,  -0.11,   0.14,   1.14, 3.86, 0.00, 0.00, 0.00, 0.00, 1, 1, 13,  42.6264331, -88.1614974,   237.0, 2024,  2, 11, 20, 19,  7,        0,        0,   0,   0,   1.3,   0.8,   1.0,  0, 31, 38,  0,  0,  0, 35, 32,  0,  0,  0,  0, 31, 23, 37,  0, 16,  0, 34,  0, 36, 30,  0,  0,  0,  0,  0,  0,  0, 32,  0,  0
6, 11044, 1,N0CALL,     0.00, 3,   boost,   50.23,  99031.00,  192.73,    0.42,    4.75,  6.2, 3.85, 3.86, 3.86, -59.98,  -3.07,  -0.52,   7.19,   2.77,  -0.53,  -0.97,  -0.11,   0.14,   1.14, 3.86, 0.00, 0.00, 0.00, 0.00, 1, 1, 13,  42.6264331, -88.1614974,   237.0, 2024,  2, 11, 20, 19,  7,        0,        0,   0,   0,   1.3,   0.8,   1.0,  0, 31, 38,  0,  0,  0, 35, 32,  0,  0,  0,  0, 31, 23, 37,  0, 16,  0, 34,  0, 36, 30,  0,  0,  0,  0,  0,  0,  0, 32,  0,  0
6, 11044, 1,N0CALL,     0.00, 3,   boost,   50.23,  99031.00,  192.73,    0.42,    4.75,  6.2, 3.85, 3.86, 3.86, -59.98,  -3.07,  -0.52,   7.19,   2.77,  -0.53,  -0.97,  -0.11,   0.14,   1.13, 3.86, 0.00, 0.00, 0.00, 0.00, 1, 1, 13,  42.6264331, -88.1614974,   237.0, 2024,  2, 11, 20, 19,  7,        0,        0,   0,   0,   1.3,   0.8,   1.0,  0, 31, 38,  0,  0,  0, 35, 32,  0,  0,  0,  0, 31, 23, 37,  0, 16,  0, 34,  0, 36, 30,  0,  0,  0,  0,  0,  0,  0, 32,  0,  0
6, 11044, 1,N0CALL,     0.00, 3,   boost,   50.23,  99031.00,  192.73,    0.42,    4.75,  6.2, 3.85, 3.86, 3.86, -59.98,  -3.07,  -0.52,   7.19,   2.77,  -0.53,  -0.97,  -0.11,   0.14,   1.13, 3.86, 0.00, 0.00, 0.00, 0.00, 1, 1, 13,  42.6264331, -88.1614974,   237.0, 2024,  2, 11, 20, 19,  7,        0,        0,   0,   0,   1.3,   0.8,   1.0,  0, 31, 38,  0,  0,  0, 35, 32,  0,  0,  0,  0, 31, 23, 37,  0, 16,  0, 34,  0, 36, 30,  0,  0,  0,  0,  0,  0,  0, 32,  0,  0
6, 11044, 1,N0CALL,     0.00, 3,   boost,   50.23,  99031.00,  192.73,    0.42,    4.75,  6.2, 3.85, 3.86, 3.86, -59.98,  -3.07,  -0.52,   7.19,   2.77,  -0.53,  -0.97,  -0.11,   0.14,   1.13, 3.86, 0.00, 0.00, 0.00, 0.00, 1, 1, 13,  42.6264331, -88.1614974,   237.0, 2024,  2, 11, 20, 19,  7,        0,        0,   0,   0,   1.3,   0.8,   1.0,  0, 31, 38,  0,  0,  0, 35, 32,  0,  0,  0,  0, 31, 23, 37,  0, 16,  0, 34,  0, 36, 30,  0,  0,  0,  0,  0,  0,  0, 32,  0,  0
6, 11044, 1,N0CALL,     0.00, 3,   boost,   50.23,  99031.00,  192.73,    0.42,    4.75,  6.2, 3.85, 3.86, 3.86, -59.98,  -3.07,  -0.52,   7.19,   2.77,  -0.53,  -0.97,  -0.11,   0.14,   1.13, 3.86, 0.00, 0.00, 0.00, 0.00, 1, 1, 13,  42.6264331, -88.1614974,   237.0, 2024,  2, 11, 20, 19,  7,        0,        0,   0,   0,   1.3,   0.8,   1.0,  0, 31, 38,  0,  0,  0, 35, 32,  0,  0,  0,  0, 31, 23, 37,  0, 16,  0, 34,  0, 36, 30,  0,  0,  0,  0,  0,  0,  0, 32,  0,  0
6, 11044, 1,N0CALL,     0.00, 3,   boost,   50.23,  99031.00,  192.73,    0.42,    4.75,  6.2, 3.85, 3.86, 3.86, -59.98,  -3.07,  -0.52,   7.19,   2.77,  -0.53,  -0.97,  -0.11,   0.14,   1.13, 3.86, 0.00, 0.00, 0.00, 0.00, 1, 1, 13,  42.6264331, -88.1614974,   237.0, 2024,  2, 11, 20, 19,  7,        0,        0,   0,   0,   1.3,   0.8,   1.0,  0, 31, 38,  0,  0,  0, 35, 32,  0,  0,  0,  0, 31, 23, 37,  0, 16,  0, 34,  0, 36, 30,  0,  0,  0,  0,  0,  0,  0, 32,  0,  0
6, 11044, 1,N0CALL,     0.00, 3,   boost,   50.23,  99031.00,  192.73,    0.42,    4.75,  6.2, 3.85, 3.86, 3.86, -59.98,  -3.07,  -0.52,   7.19,   2.77,  -0.53,  -0.97,  -0.11,   0.14,   1.13, 3.86, 0.00, 0.00, 0.00, 0.00, 1, 1, 13,  42.6264331, -88.1614974,   237.0, 2024,  2, 11, 20, 19,  7,        0,        0,   0,   0,   1.3,   0.8,   1.0,  0, 31, 38,  0,  0,  0, 35, 32,  0,  0,  0,  0, 31, 23, 37,  0, 16,  0, 34,  0, 36, 30,  0,  0,  0,  0,  0,  0,  0, 32,  0,  0
6, 11044, 1,N0CALL,     0.00, 3,   boost,   50.23,  99031.00,  192.73,    0.42,    4.75,  6.2, 3.85, 3.86, 3.86, -59.98,  -3.07,  -0.52,   7.19,   2.77,  -0.53,  -0.97,  -0.11,   0.14,   1.13, 3.86, 0.00, 0.00, 0.00, 0.00, 1, 1, 13,  42.6264331, -88.1614974,   237.0, 2024,  2, 11, 20, 19,  7,        0,        0,   0,   0,   1.3,   0.8,   1.0,  0, 31, 38,  0,  0,  0, 35, 32,  0,  0,  0,  0, 31, 23, 37,  0, 16,  0, 34,  0, 36, 30,  0,  0,  0,  0,  0,  0,  0, 32,  0,  0
6, 11044, 1,N0CALL,     0.00, 3,   boost,   50.23,  99031.00,  192.73,    0.42,    4.75,  6.2, 3.85, 3.86, 3.86, -59.98,  -3.07,  -0.52,   7.19,   2.77,  -0.53,  -0.97,  -0.11,   0.14,   1.13, 3.86, 0.00, 0.00, 0.00, 0.00, 1, 1, 13,  42.6264331, -88.1614974,   237.0, 2024,  2, 11, 20, 19,  7,        0,        0,   0,   0,   1.3,   0.8,   1.0,  0, 31, 38,  0,  0,  0, 35, 32,  0,  0,  0,  0, 31, 23, 37,  0, 16,  0, 34,  0, 36, 30,  0,  0,  0,  0,  0,  0,  0, 32,  0,  0
6, 11044, 1,N0CALL,     0.00, 3,   boost,   50.23,  99031.00,  192.73,    0.42,    4.75,  6.2, 3.85, 3.86, 3.86, -59.98,  -3.07,  -0.52,   7.19,   2.77,  -0.53,  -0.97,  -0.11,   0.14,   1.13, 3.86, 0.00, 0.00, 0.00, 0.00, 1, 1, 13,  42.6264331, -88.1614974,   237.0, 2024,  2, 11, 20, 19,  7,        0,        0,   0,   0,   1.3,   0.8,   1.0,  0, 31, 38,  0,  0,  0, 35, 32,  0,  0,  0,  0, 31, 23, 37,  0, 16,  0, 34,  0, 36, 30,  0,  0,  0,  0,  0,  0,  0, 32,  0,  0
6, 11044, 1,N0CALL,     0.00, 3,   boost,   50.23,  99031.00,  192.73,    0.42,    4.75,  6.2, 3.85, 3.86, 3.86, -59.98,  -3.07,  -0.52,   7.19,   2.77,  -0.53,  -0.97,  -0.11,   0.14,   1.14, 3.86, 0.00, 0.00, 0.00, 0.00, 1, 1, 13,  42.6264331, -88.1614974,   237.0, 2024,  2, 11, 20, 19,  7,        0,        0,   0,   0,   1.3,   0.8,   1.0,  0, 31, 38,  0,  0,  0, 35, 32,  0,  0,  0,  0, 31, 23, 37,  0, 16,  0, 34,  0, 36, 30,  0,  0,  0,  0,  0,  0,  0, 32,  0,  0
6, 11044, 1,N0CALL,     0.00, 3,   boost,   50.23,  99031.00,  192.73,    0.42,    4.75,  6.2, 3.85, 3.86, 3.86, -59.98,  -3.07,  -0.52,   7.19,   2.77,  -0.53,  -0.97,  -0.11,   0.14,   1.14, 3.86, 0.00, 0.00, 0.00, 0.00, 1, 1, 13,  42.6264331, -88.1614974,   237.0, 2024,  2, 11, 20, 19,  7,        0,        0,   0,   0,   1.3,   0.8,   1.0,  0, 31, 38,  0,  0,  0, 35, 32,  0,  0,  0,  0, 31, 23, 37,  0, 16,  0, 34,  0, 36, 30,  0,  0,  0,  0,  0,  0,  0, 32,  0,  0
6, 11044, 1,N0CALL,     0.00, 3,   boost,   50.23,  99031.00,  192.73,    0.42,    4.75,  6.2, 3.85, 3.86, 3.86, -59.98,  -3.07,  -0.52,   7.19,   2.77,  -0.53,  -0.97,  -0.11,   0.14,   1.14, 3.86, 0.00, 0.00, 0.00, 0.00, 1, 1, 13,  42.6264331, -88.1614974,   237.0, 2024,  2, 11, 20, 19,  7,        0,        0,   0,   0,   1.3,   0.8,   1.0,  0, 31, 38,  0,  0,  0, 35, 32,  0,  0,  0,  0, 31, 23, 37,  0, 16,  0, 34,  0, 36, 30,  0,  0,  0,  0,  0,  0,  0, 32,  0,  0
6, 11044, 1,N0CALL,     0.00, 3,   boost,   50.23,  99031.00,  192.73,    0.42,    4.75,  6.2, 3.85, 3.86, 3.86, -59.98,  -3.07,  -0.52,   7.19,   2.77,  -0.53,  -0.97,  -0.11,   0.14,   1.16, 3.86, 0.00, 0.00, 0.00, 0.00, 1, 1, 13,  42.6264331, -88.1614974,   237.0, 2024,  2, 11, 20, 19,  7,        0,        0,   0,   0,   1.3,   0.8,   1.0,  0, 31, 38,  0,  0,  0, 35, 32,  0,  0,  0,  0, 31, 23, 37,  0, 16,  0, 34,  0, 36, 30,  0,  0,  0,  0,  0,  0,  0, 32,  0,  0
6, 11044, 1,N0CALL,     0.00, 3,   boost,   50.23,  99031.00,  192.73,    0.42,    4.75,  6.2, 3.85, 3.86, 3.86, -59.98,  -3.07,  -0.52,   7.19,   2.77,  -0.53,  -0.97,  -0.11,   0.14,   1.16, 3.86, 0.00, 0.00, 0.00, 0.00, 1, 1, 13,  42.6264331, -88.1614974,   237.0, 2024,  2, 11, 20, 19,  7,        0,        0,   0,   0,   1.3,   0.8,   1.0,  0, 31, 38,  0,  0,  0, 35, 32,  0,  0,  0,  0, 31, 23, 37,  0, 16,  0, 34,  0, 36, 30,  0,  0,  0,  0,  0,  0,  0, 32,  0,  0
6, 11044, 1,N0CALL,     0.00, 3,   boost,   50.23,  99031.00,  192.73,    0.42,    4.75,  6.2, 3.85, 3.86, 3.86, -59.98,  -3.07,  -0.52,   7.19,   2.77,  -0.53,  -0.97,  -0.11,   0.14,   1.14, 3.86, 0.00, 0.00, 0.00, 0.00, 1, 1, 13,  42.6264331, -88.1614974,   237.0, 2024,  2, 11, 20, 19,  7,        0,        0,   0,   0,   1.3,   0.8,   1.0,  0, 31, 38,  0,  0,  0, 35, 32,  0,  0,  0,  0, 31, 23, 37,  0, 16,  0, 34,  0, 36, 30,  0,  0,  0,  0,  0,  0,  0, 32,  0,  0
6, 11044, 1,N0CALL,     0.00, 3,   boost,   50.23,  99031.00,  192.73,    0.42,    4.75,  6.2, 3.85, 3.86, 3.86, -59.98,  -3.07,  -0.52,   7.19,   2.77,  -0.53,  -0.97,  -0.11,   0.14,   1.16, 3.86, 0.00, 0.00, 0.00, 0.00, 1, 1, 13,  42.6264331, -88.1614974,   237.0, 2024,  2, 11, 20, 19,  7,        0,        0,   0,   0,   1.3,   0.8,   1.0,  0, 31, 38,  0,  0,  0, 35, 32,  0,  0,  0,  0, 31, 23, 37,  0, 16,  0, 34,  0, 36, 30,  0,  0,  0,  0,  0,  0,  0, 32,  0,  0
6, 11044, 1,N0CALL,     0.00, 3,   boost,   50.23,  99031.00,  192.73,    0.42,    4.75,  6.2, 3.85, 3.86, 3.86, -59.98,  -3.07,  -0.52,   7.19,   2.77,  -0.53,  -0.97,  -0.11,   0.14,   1.16, 3.86, 0.00, 0.00, 0.00, 0.00, 1, 1, 13,  42.6264331, -88.1614974,   237.0, 2024,  2, 11, 20, 19,  7,        0,        0,   0,   0,   1.3,   0.8,   1.0,  0, 31, 38,  0,  0,  0, 35, 32,  0,  0,  0,  0, 31, 23, 37,  0, 16,  0, 34,  0, 36, 30,  0,  0,  0,  0,  0,  0,  0, 32,  0,  0
6, 11044, 1,N0CALL,     0.00, 3,   boost,   50.23,  99031.00,  192.73,    0.42,    4.75,  6.2, 3.85, 3.86, 3.86, -59.98,  -3.07,  -0.52,   7.19,   2.77,  -0.53,  -0.97,  -0.11,   0.14,   1.19, 3.86, 0.00, 0.00, 0.00, 0.00, 1, 1, 13,  42.6264331, -88.1614974,   237.0, 2024,  2, 11, 20, 19,  7,        0,        0,   0,   0,   1.3,   0.8,   1.0,  0, 31, 38,  0,  0,  0, 35, 32,  0,  0,  0,  0, 31, 23, 37,  0, 16,  0, 34,  0, 36, 30,  0,  0,  0,  0,  0,  0,  0, 32,  0,  0
6, 11044, 1,N0CALL,     0.00, 3,   boost,   50.23,  99031.00,  192.73,    0.42,    4.75,  6.2, 3.85, 3.86, 3.86, -59.98,  -3.07,  -0.52,   7.19,   2.77,  -0.53,  -0.97,  -0.11,   0.14,   1.20, 3.86, 0.00, 0.00, 0.00, 0.00, 1, 1, 13,  42.6264331, -88.1614974,   237.0, 2024,  2, 11, 20, 19,  7,        0,        0,   0,   0,   1.3,   0.8,   1.0,  0, 31, 38,  0,  0,  0, 35, 32,  0,  0,  0,  0, 31, 23, 37,  0, 16,  0, 34,  0, 36, 30,  0,  0,  0,  0,  0,  0,  0, 32,  0,  0
6, 11044, 1,N0CALL,     0.00, 3,   boost,   50.23,  99031.00,  192.73,    0.42,    4.75,  6.2, 3.85, 3.86, 3.86, -59.98,  -3.07,  -0.52,   7.19,   2.77,  -0.53,  -0.97,  -0.11,   0.14,   1.22, 3.86, 0.00, 0.00, 0.00, 0.00, 1, 1, 13,  42.6264331, -88.1614974,   237.0, 2024,  2, 11, 20, 19,  7,        0,        0,   0,   0,   1.3,   0.8,   1.0,  0, 31, 38,  0,  0,  0, 35, 32,  0,  0,  0,  0, 31, 23, 37,  0, 16,  0, 34,  0, 36, 30,  0,  0,  0,  0,  0,  0,  0, 32,  0,  0
6, 11044, 1,N0CALL,     0.00, 3,   boost,   50.23,  99031.00,  192.73,    0.42,    4.75,  6.2, 3.85, 3.86, 3.86, -59.98,  -3.07,  -0.52,   7.19,   2.77,  -0.53,  -0.97,  -0.11,   0.14,   1.21, 3.86, 0.00, 0.00, 0.00, 0.00, 1, 1, 13,  42.6264331, -88.1614974,   237.0, 2024,  2, 11, 20, 19,  7,        0,        0,   0,   0,   1.3,   0.8,   1.0,  0, 31, 38,  0,  0,  0, 35, 32,  0,  0,  0,  0, 31, 23, 37,  0, 16,  0, 34,  0, 36, 30,  0,  0,  0,  0,  0,  0,  0, 32,  0,  0
6, 11044, 1,N0CALL,     0.00, 3,   boost,   50.23,  99031.00,  192.73,    0.42,    4.75,  6.2, 3.85, 3.86, 3.86, -59.98,  -3.07,  -0.52,   7.19,   2.77,  -0.53,  -0.97,  -0.11,   0.14,   1.18, 3.86, 0.00, 0.00, 0.00, 0.00, 1, 1, 13,  42.6264331, -88.1614974,   237.0, 2024,  2, 11, 20, 19,  7,        0,        0,   0,   0,   1.3,   0.8,   1.0,  0, 31, 38,  0,  0,  0, 35, 32,  0,  0,  0,  0, 31, 23, 37,  0, 16,  0, 34,  0, 36, 30,  0,  0,  0,  0,  0,  0,  0, 32,  0,  0
6, 11044, 1,N0CALL,     0.00, 3,   boost,   50.23,  99031.00,  192.73,    0.42,    4.75,  6.2, 3.85, 3.86, 3.86, -59.98,  -3.07,  -0.52,   7.19,   2.77,  -0.53,  -0.97,  -0.11,   0.14,   1.20, 3.86, 0.00, 0.00, 0.00, 0.00, 1, 1, 13,  42.6264331, -88.1614974,   237.0, 2024,  2, 11, 20, 19,  7,        0,        0,   0,   0,   1.3,   0.8,   1.0,  0, 31, 38,  0,  0,  0, 35, 32,  0,  0,  0,  0, 31, 23, 37,  0, 16,  0, 34,  0, 36, 30,  0,  0,  0,  0,  0,  0,  0, 32,  0,  0
6, 11044, 1,N0CALL,     0.01, 3,   boost,   46.40,  99037.00,  192.22,   -0.08,    5.23,  6.2, 3.85, 3.86, 3.86, -60.07,  -2.56,   1.49,   9.94,   1.13,  -0.47,  -0.97,  -0.11,   0.14,   1.21, 3.86, 0.00, 0.00, 0.00, 0.00, 1, 1, 13,  42.6264331, -88.1614974,   237.0, 2024,  2, 11, 20, 19,  7,        0,        0,   0,   0,   1.3,   0.8,   1.0,  0, 31, 38,  0,  0,  0, 35, 32,  0,  0,  0,  0, 31, 23, 37,  0, 16,  0, 34,  0, 36, 30,  0,  0,  0,  0,  0,  0,  0, 32,  0,  0
6, 11044, 1,N0CALL,     0.01, 3,   boost,   46.40,  99037.00,  192.22,   -0.08,    5.23,  6.2, 3.85, 3.86, 3.86, -60.07,  -2.56,   1.49,   9.94,   1.13,  -0.47,  -0.97,  -0.11,   0.14,   1.21, 3.86, 0.00, 0.00, 0.00, 0.00, 1, 1, 13,  42.6264331, -88.1614974,   237.0, 2024,  2, 11, 20, 19,  7,        0,        0,   0,   0,   1.3,   0.8,   1.0,  0, 31, 38,  0,  0,  0, 35, 32,  0,  0,  0,  0, 31, 23, 37,  0, 16,  0, 34,  0, 36, 30,  0,  0,  0,  0,  0,  0,  0, 32,  0,  0
6, 11044, 1,N0CALL,     0.02, 3,   boost,   51.66,  99037.00,  192.22,   -0.08,    5.72,  6.2, 3.85, 3.85, 3.85, -60.41,   1.01,   1.54,   6.82,  -0.34,  -1.33,  -0.97,  -0.10,   0.14,   1.20, 3.85, 0.00, 0.00, 0.00, 0.00, 1, 1, 13,  42.6264331, -88.1614974,   237.0, 2024,  2, 11, 20, 19,  7,        0,        0,   0,   0,   1.3,   0.8,   1.0,  0, 31, 38,  0,  0,  0, 35, 32,  0,  0,  0,  0, 31, 23, 37,  0, 16,  0, 34,  0, 36, 30,  0,  0,  0,  0,  0,  0,  0, 32,  0,  0
6, 11044, 1,N0CALL,     0.02, 3,   boost,   51.66,  99037.00,  192.22,   -0.08,    5.72,  6.2, 3.85, 3.85, 3.85, -60.41,   1.01,   1.54,   6.82,  -0.34,  -1.33,  -0.97,  -0.10,   0.14,   1.20, 3.85, 0.00, 0.00, 0.00, 0.00, 1, 1, 13,  42.6264331, -88.1614974,   237.0, 2024,  2, 11, 20, 19,  7,        0,        0,   0,   0,   1.3,   0.8,   1.0,  0, 31, 38,  0,  0,  0, 35, 32,  0,  0,  0,  0, 31, 23, 37,  0, 16,  0, 34,  0, 36, 30,  0,  0,  0,  0,  0,  0,  0, 32,  0,  0
6, 11044, 1,N0CALL,     0.03, 3,   boost,   46.88,  99034.00,  192.48,    0.17,    6.22,  6.2, 3.85, 3.85, 3.85, -61.41,   2.35,   0.42,  16.10,   1.68,  -0.96,  -0.97,  -0.10,   0.14,   1.22, 3.85, 0.00, 0.00, 0.00, 0.00, 1, 1, 13,  42.6264331, -88.1614974,   237.0, 2024,  2, 11, 20, 19,  7,        0,        0,   0,   0,   1.3,   0.8,   1.0,  0, 31, 38,  0,  0,  0, 35, 32,  0,  0,  0,  0, 31, 23, 37,  0, 16,  0, 34,  0, 36, 30,  0,  0,  0,  0,  0,  0,  0, 32,  0,  0
6, 11044, 1,N0CALL,     0.04, 3,   boost,   50.23,  99034.00,  192.48,    0.17,    6.71,  6.2, 3.85, 3.85, 3.85, -61.47,  -0.42,   0.17,  10.73,  -0.95,  -1.02,  -0.97,  -0.10,   0.14,   1.20, 3.85, 0.00, 0.00, 0.00, 0.00, 1, 1, 13,  42.6264331, -88.1614974,   237.0, 2024,  2, 11, 20, 19,  7,        0,        0,   0,   0,   1.3,   0.8,   1.0,  0, 31, 38,  0,  0,  0, 35, 32,  0,  0,  0,  0, 31, 23, 37,  0, 16,  0, 34,  0, 36, 30,  0,  0,  0,  0,  0,  0,  0, 32,  0,  0
6, 11044, 1,N0CALL,     0.05, 3,   boost,   50.23,  99042.00,  191.80,   -0.51,    7.22,  6.2, 3.85, 3.85, 3.85, -61.91,  -2.61,  -0.34,   5.48,  -0.28,  -1.20,  -0.97,  -0.11,   0.14,   1.20, 3.85, 0.00, 0.00, 0.00, 0.00, 1, 1, 13,  42.6264331, -88.1614974,   237.0, 2024,  2, 11, 20, 19,  7,        0,        0,   0,   0,   1.3,   0.8,   1.0,  0, 31, 38,  0,  0,  0, 35, 32,  0,  0,  0,  0, 31, 23, 37,  0, 16,  0, 34,  0, 36, 30,  0,  0,  0,  0,  0,  0,  0, 32,  0,  0
6, 11044, 1,N0CALL,     0.06, 3,   boost,   52.62,  99042.00,  191.80,   -0.51,    7.72,  6.2, 3.85, 3.85, 3.85, -62.07,  -1.81,   2.23,   8.05,  -1.01,  -0.84,  -0.97,  -0.11,   0.14,   1.18, 3.85, 0.00, 0.00, 0.00, 0.00, 1, 1, 13,  42.6264331, -88.1614974,   237.0, 2024,  2, 11, 20, 19,  7,        0,        0,   0,   0,   1.3,   0.8,   1.0,  0, 31, 38,  0,  0,  0, 35, 32,  0,  0,  0,  0, 31, 23, 37,  0, 16,  0, 34,  0, 36, 30,  0,  0,  0,  0,  0,  0,  0, 32,  0,  0
6, 11044, 1,N0CALL,     0.07, 3,   boost,   50.71,  99030.00,  192.82,    0.51,    8.23,  6.2, 3.85, 3.85, 3.85, -62.39,   1.68,   2.53,  -0.26,  -0.15,  -0.96,  -0.97,  -0.11,   0.14,   1.18, 3.85, 0.00, 0.00, 0.00, 0.00, 1, 1, 13,  42.6264331, -88.1614974,   237.0, 2024,  2, 11, 20, 19,  7,        0,        0,   0,   0,   1.3,   0.8,   1.0,  0, 31, 38,  0,  0,  0, 35, 32,  0,  0,  0,  0, 31, 23, 37,  0, 16,  0, 34,  0, 36, 30,  0,  0,  0,  0,  0,  0,  0, 32,  0,  0
6, 11044, 1,N0CALL,     0.08, 3,   boost,   50.71,  99030.00,  192.82,    0.51,    8.75,  6.2, 3.85, 3.85, 3.85, -63.31,   0.93,  -0.70,  -3.61,  -1.86,  -0.53,  -0.97,  -0.11,   0.14,   1.16, 3.85, 0.00, 0.00, 0.00, 0.00, 1, 1, 13,  42.6264331, -88.1614974,   237.0, 2024,  2, 11, 20, 19,  7,        0,        0,   0,   0,   1.3,   0.8,   1.0,  0, 31, 38,  0,  0,  0, 35, 32,  0,  0,  0,  0, 31, 23, 37,  0, 16,  0, 34,  0, 36, 30,  0,  0,  0,  0,  0,  0,  0, 32,  0,  0
6, 11044, 1,N0CALL,     0.09, 3,   boost,   52.62,  99029.00,  192.90,    0.59,    9.26,  6.2, 3.85, 3.85, 3.85, -63.72,   1.80,  -3.14,  -6.54,  -0.15,  -0.53,  -0.97,  -0.11,   0.14,   1.16, 3.85, 0.00, 0.00, 0.00, 0.00, 1, 1, 13,  42.6264331, -88.1614974,   237.0, 2024,  2, 11, 20, 19,  7,        0,        0,   0,   0,   1.3,   0.8,   1.0,  0, 31, 38,  0,  0,  0, 35, 32,  0,  0,  0,  0, 31, 23, 37,  0, 16,  0, 34,  0, 36, 30,  0,  0,  0,  0,  0,  0,  0, 32,  0,  0
6, 11044, 1,N0CALL,     0.10, 3,   boost,   53.10,  99029.00,  192.90,    0.59,    9.78,  6.2, 3.85, 3.85, 3.85, -64.11,   0.45,  -0.65, -13.68,  -0.15,   0.81,  -0.97,  -0.11,   0.14,   1.16, 3.85, 0.00, 0.00, 0.00, 0.00, 1, 1, 13,  42.6264331, -88.1614974,   237.0, 2024,  2, 11, 20, 19,  7,        0,        0,   0,   0,   1.3,   0.8,   1.0,  0, 31, 38,  0,  0,  0, 35, 32,  0,  0,  0,  0, 31, 23, 37,  0, 16,  0, 34,  0, 36, 30,  0,  0,  0,  0,  0,  0,  0, 32,  0,  0
6, 11044, 1,N0CALL,     0.11, 3,   boost,   52.14,  99016.00,  194.00,    1.70,   10.30,  6.2, 3.85, 3.85, 3.85, -63.87,  -3.78,   3.50, -18.63,  -0.22,   1.18,  -0.97,  -0.11,   0.14,   1.16, 3.85, 0.00, 0.00, 0.00, 0.00, 1, 1, 13,  42.6264331, -88.1614974,   237.0, 2024,  2, 11, 20, 19,  7,        0,        0,   0,   0,   1.3,   0.8,   1.0,  0, 31, 38,  0,  0,  0, 35, 32,  0,  0,  0,  0, 31, 23, 37,  0, 16,  0, 34,  0, 36, 30,  0,  0,  0,  0,  0,  0,  0, 32,  0,  0
6, 11044, 1,N0CALL,     0.12, 3,   boost,   50.23,  99016.00,  194.00,    1.70,   10.83,  6.2, 3.85, 3.85, 3.85, -64.33,  -0.63,  -2.37, -21.86,  -1.07,   0.63,  -0.97,  -0.11,   0.14,   1.15, 3.85, 0.00, 0.00, 0.00, 0.00, 1, 1, 13,  42.6264331, -88.1614974,   237.0, 2024,  2, 11, 20, 19,  7,        0,        0,   0,   0,   1.3,   0.8,   1.0,  0, 31, 38,  0,  0,  0, 35, 32,  0,  0,  0,  0, 31, 23, 37,  0, 16,  0, 34,  0, 36, 30,  0,  0,  0,  0,  0,  0,  0, 32,  0,  0
6, 11044, 1,N0CALL,     0.13, 3,   boost,   52.14,  99030.00,  192.82,    0.51,   11.35,  6.2, 3.85, 3.85, 3.85, -64.41,   0.96,  -3.86, -30.83,   1.68,   1.60,  -0.96,  -0.11,   0.14,   1.17, 3.85, 0.00, 0.00, 0.00, 0.00, 1, 1, 13,  42.6264331, -88.1614974,   237.0, 2024,  2, 11, 20, 19,  7,        0,        0,   0,   0,   1.3,   0.8,   1.0,  0, 31, 38,  0,  0,  0, 35, 32,  0,  0,  0,  0, 31, 23, 37,  0, 16,  0, 34,  0, 36, 30,  0,  0,  0,  0,  0,  0,  0, 32,  0,  0
6, 11044, 1,N0CALL,     0.14, 3,   boost,   54.53,  99030.00,  192.82,    0.51,   11.88,  6.2, 3.85, 3.85, 3.85, -65.11,  -1.59,   2.59, -24.85,   1.74,   2.28,  -0.96,  -0.11,   0.14,   1.20, 3.85, 0.00, 0.00, 0.00, 0.00, 1, 1, 13,  42.6264331, -88.1614974,   237.0, 2024,  2, 11, 20, 19,  7,        0,        0,   0,   0,   1.3,   0.8,   1.0,  0, 31, 38,  0,  0,  0, 35, 32,  0,  0,  0,  0, 31, 23, 37,  0, 16,  0, 34,  0, 36, 30,  0,  0,  0,  0,  0,  0,  0, 32,  0,  0
6, 11044, 1,N0CALL,     0.15, 3,   boost,   53.58,  99020.00,  193.67,    1.36,   12.41,  6.2, 3.85, 3.85, 3.85, -65.57,  -3.78,   3.75, -29.43,   0.58,   2.34,  -0.97,  -0.11,   0.14,   1.21, 3.85, 0.00, 0.00, 0.00, 0.00, 1, 1, 13,  42.6264331, -88.1614974,   237.0, 2024,  2, 11, 20, 19,  7,        0,        0,   0,   0,   1.3,   0.8,   1.0,  0, 31, 38,  0,  0,  0, 35, 32,  0,  0,  0,  0, 31, 23, 37,  0, 16,  0, 34,  0, 36, 30,  0,  0,  0,  0,  0,  0,  0, 32,  0,  0
6, 11044, 1,N0CALL,     0.16, 3,   boost,   55.01,  99020.00,  193.67,    1.36,   12.95,  6.2, 3.85, 3.85, 3.85, -65.87,   0.29,  -2.47, -28.58,  -0.22,   1.73,  -0.97,  -0.11,   0.14,   1.22, 3.85, 0.00, 0.00, 0.00, 0.00, 1, 1, 13,  42.6264331, -88.1614974,   237.0, 2024,  2, 11, 20, 19,  7,        0,        0,   0,   0,   1.3,   0.8,   1.0,  0, 31, 38,  0,  0,  0, 35, 32,  0,  0,  0,  0, 31, 23, 37,  0, 16,  0, 34,  0, 36, 30,  0,  0,  0,  0,  0,  0,  0, 32,  0,  0
6, 11044, 1,N0CALL,     0.17, 3,   boost,   52.14,  99028.00,  192.99,    0.68,   13.49,  6.2, 3.85, 3.85, 3.85, -65.26,   0.05,  -6.14, -25.89,  -0.34,   0.81,  -0.97,  -0.11,   0.14,   1.22, 3.85, 0.00, 0.00, 0.00, 0.00, 1, 1, 13,  42.6264331, -88.1614974,   237.0, 2024,  2, 11, 20, 19,  7,        0,        0,   0,   0,   1.3,   0.8,   1.0,  0, 31, 38,  0,  0,  0, 35, 32,  0,  0,  0,  0, 31, 23, 37,  0, 16,  0, 34,  0, 36, 30,  0,  0,  0,  0,  0,  0,  0, 32,  0,  0
6, 11044, 1,N0CALL,     0.18, 3,   boost,   53.58,  99028.00,  192.99,    0.68,   14.04,  6.2, 3.85, 3.85, 3.85, -64.24,   1.93,   3.76,  -3.43,  -0.15,   0.51,  -0.97,  -0.11,   0.14,   1.22, 3.85, 0.00, 0.00, 0.00, 0.00, 1, 1, 13,  42.6264331, -88.1614974,   237.0, 2024,  2, 11, 20, 19,  7,        0,        0,   0,   0,   1.3,   0.8,   1.0,  0, 31, 38,  0,  0,  0, 35, 32,  0,  0,  0,  0, 31, 23, 37,  0, 16,  0, 34,  0, 36, 30,  0,  0,  0,  0,  0,  0,  0, 32,  0,  0
6, 11044, 1,N0CALL,     0.19, 3,   boost,   58.36,  99009.00,  194.60,    2.29,   14.59,  6.2, 3.85, 3.85, 3.85, -66.02,   2.98, -11.38,  15.74,  -3.33,  -2.91,  -0.97,  -0.11,   0.14,   1.18, 3.85, 0.00, 0.00, 0.00, 0.00, 1, 1, 13,  42.6264331, -88.1614974,   237.0, 2024,  2, 11, 20, 19,  7,        0,        0,   0,   0,   1.3,   0.8,   1.0,  0, 31, 38,  0,  0,  0, 35, 32,  0,  0,  0,  0, 31, 23, 37,  0, 16,  0, 34,  0, 36, 30,  0,  0,  0,  0,  0,  0,  0, 32,  0,  0
6, 11044, 1,N0CALL,     0.19, 3,   boost,   58.36,  99009.00,  194.60,    2.29,   14.59,  6.2, 3.85, 3.85, 3.85, -66.02,   2.98, -11.38,  15.74,  -3.33,  -2.91,  -0.97,  -0.11,   0.14,   1.18, 3.85, 0.00, 0.00, 0.00, 0.00, 1, 1, 13,  42.6264331, -88.1614974,   237.0, 2024,  2, 11, 20, 19,  7,        0,        0,   0,   0,   1.3,   0.8,   1.0,  0, 31, 38,  0,  0,  0, 35, 32,  0,  0,  0,  0, 31, 23, 37,  0, 16,  0, 34,  0, 36, 30,  0,  0,  0,  0,  0,  0,  0, 32,  0,  0
6, 11044, 1,N0CALL,     0.19, 3,   boost,   58.36,  99009.00,  194.60,    2.29,   14.59,  6.2, 3.85, 3.85, 3.85, -66.02,   2.98, -11.38,  15.74,  -3.33,  -2.91,  -0.97,  -0.11,   0.14,   1.18, 3.85, 0.00, 0.00, 0.00, 0.00, 1, 1, 13,  42.6264331, -88.1614974,   237.0, 2024,  2, 11, 20, 19,  7,        0,        0,   0,   0,   1.3,   0.8,   1.0,  0, 31, 38,  0,  0,  0, 35, 32,  0,  0,  0,  0, 31, 23, 37,  0, 16,  0, 34,  0, 36, 30,  0,  0,  0,  0,  0,  0,  0, 32,  0,  0
6, 11044, 1,N0CALL,     0.20, 3,   boost,   54.53,  99009.00,  194.60,    2.29,   15.14,  6.2, 3.85, 3.85, 3.85, -67.00,   5.06, -12.16,  23.55,  -4.00,  -2.73,  -0.97,  -0.11,   0.14,   1.13, 3.85, 0.00, 0.00, 0.00, 0.00, 1, 1, 13,  42.6264269, -88.1614791,   241.0, 2024,  2, 11, 20, 19,  8,        2,        4, 115,  68,   1.3,   0.8,   1.0,  0, 34, 32,  0,  0,  0, 35, 33,  0,  0,  0,  0, 26, 22, 30,  0, 18,  0, 31,  0, 36, 23,  0,  0,  0,  0,  0,  0,  0, 32,  0,  0
6, 11044, 1,N0CALL,     0.21, 3,   boost,   57.88,  99007.00,  194.77,    2.46,   15.71,  6.2, 3.85, 3.85, 3.85, -67.91,  -0.46,   8.74,  29.41,  -1.56,   1.05,  -0.97,  -0.11,   0.14,   1.12, 3.85, 0.00, 0.00, 0.00, 0.00, 1, 1, 13,  42.6264269, -88.1614791,   241.0, 2024,  2, 11, 20, 19,  8,        2,        4, 115,  68,   1.3,   0.8,   1.0,  0, 34, 32,  0,  0,  0, 35, 33,  0,  0,  0,  0, 26, 22, 30,  0, 18,  0, 31,  0, 36, 23,  0,  0,  0,  0,  0,  0,  0, 32,  0,  0
6, 11044, 1,N0CALL,     0.22, 3,   boost,   56.45,  99007.00,  194.77,    2.46,   16.27,  6.2, 3.85, 3.85, 3.85, -66.66,  -6.05,   0.72,  39.36,  -2.17,   0.08,  -0.97,  -0.11,   0.14,   1.10, 3.85, 0.00, 0.00, 0.00, 0.00, 1, 1, 13,  42.6264269, -88.1614791,   241.0, 2024,  2, 11, 20, 19,  8,        2,        4, 115,  68,   1.3,   0.8,   1.0,  0, 34, 32,  0,  0,  0, 35, 33,  0,  0,  0,  0, 26, 22, 30,  0, 18,  0, 31,  0, 36, 23,  0,  0,  0,  0,  0,  0,  0, 32,  0,  0
6, 11044, 1,N0CALL,     0.23, 3,   boost,   57.40,  99004.00,  195.02,    2.71,   16.84,  6.2, 3.85, 3.85, 3.85, -67.32,  -8.28,  -0.42,  52.24,  -6.01,  -2.79,  -0.97,  -0.11,   0.14,   1.03, 3.85, 0.00, 0.00, 0.00, 0.00, 1, 1, 13,  42.6264269, -88.1614791,   241.0, 2024,  2, 11, 20, 19,  8,        2,        4, 115,  68,   1.3,   0.8,   1.0,  0, 34, 32,  0,  0,  0, 35, 33,  0,  0,  0,  0, 26, 22, 30,  0, 18,  0, 31,  0, 36, 23,  0,  0,  0,  0,  0,  0,  0, 32,  0,  0
6, 11044, 1,N0CALL,     0.24, 3,   boost,   57.40,  99004.00,  195.02,    2.71,   17.41,  6.2, 3.85, 3.85, 3.85, -68.78,  -1.80,   1.50,  46.25,  -4.06,  -2.67,  -0.96,  -0.10,   0.14,   0.98, 3.85, 0.00, 0.00, 0.00, 0.00, 1, 1, 13,  42.6264269, -88.1614791,   241.0, 2024,  2, 11, 20, 19,  8,        2,        4, 115,  68,   1.3,   0.8,   1.0,  0, 34, 32,  0,  0,  0, 35, 33,  0,  0,  0,  0, 26, 22, 30,  0, 18,  0, 31,  0, 36, 23,  0,  0,  0,  0,  0,  0,  0, 32,  0,  0
6, 11044, 1,N0CALL,     0.25, 3,   boost,   54.06,  99009.00,  194.60,    2.29,   17.98,  6.2, 3.85, 3.85, 3.85, -69.21,   1.30,   0.58,  43.02,  -4.06,  -1.94,  -0.96,  -0.10,   0.14,   0.94, 3.85, 0.00, 0.00, 0.00, 0.00, 1, 1, 13,  42.6264269, -88.1614791,   241.0, 2024,  2, 11, 20, 19,  8,        2,        4, 115,  68,   1.3,   0.8,   1.0,  0, 34, 32,  0,  0,  0, 35, 33,  0,  0,  0,  0, 26, 22, 30,  0, 18,  0, 31,  0, 36, 23,  0,  0,  0,  0,  0,  0,  0, 32,  0,  0
6, 11044, 1,N0CALL,     0.26, 3,   boost,   59.32,  99009.00,  194.60,    2.29,   18.55,  6.2, 3.85, 3.85, 3.85, -68.09,  -1.69,  -1.77,  44.36,  -4.00,  -1.14,  -0.96,  -0.10,   0.14,   0.90, 3.85, 0.00, 0.00, 0.00, 0.00, 1, 1, 13,  42.6264269, -88.1614791,   241.0, 2024,  2, 11, 20, 19,  8,        2,        4, 115,  68,   1.3,   0.8,   1.0,  0, 34, 32,  0,  0,  0, 35, 33,  0,  0,  0,  0, 26, 22, 30,  0, 18,  0, 31,  0, 36, 23,  0,  0,  0,  0,  0,  0,  0, 32,  0,  0
6, 11044, 1,N0CALL,     0.27, 3,   boost,   58.36,  99008.00,  194.68,    2.37,   19.13,  6.2, 3.85, 3.85, 3.85, -70.54,  -2.68,  -2.16,  45.15,  -2.29,  -1.14,  -0.96,  -0.10,   0.14,   0.87, 3.85, 0.00, 0.00, 0.00, 0.00, 1, 1, 13,  42.6264269, -88.1614791,   241.0, 2024,  2, 11, 20, 19,  8,        2,        4, 115,  68,   1.3,   0.8,   1.0,  0, 34, 32,  0,  0,  0, 35, 33,  0,  0,  0,  0, 26, 22, 30,  0, 18,  0, 31,  0, 36, 23,  0,  0,  0,  0,  0,  0,  0, 32,  0,  0
6, 11044, 1,N0CALL,     0.28, 3,   boost,   57.88,  99008.00,  194.68,    2.37,   19.71,  6.2, 3.85, 3.85, 3.85, -69.61,  -1.06,   0.85,  45.83,  -1.19,  -1.20,  -0.96,  -0.10,   0.14,   0.86, 3.85, 0.00, 0.00, 0.00, 0.00, 1, 1, 13,  42.6264269, -88.1614791,   241.0, 2024,  2, 11, 20, 19,  8,        2,        4, 115,  68,   1.3,   0.8,   1.0,  0, 34, 32,  0,  0,  0, 35, 33,  0,  0,  0,  0, 26, 22, 30,  0, 18,  0, 31,  0, 36, 23,  0,  0,  0,  0,  0,  0,  0, 32,  0,  0
6, 11044, 1,N0CALL,     0.29, 3,   boost,   57.40,  98990.00,  196.21,    3.90,   20.28,  6.2, 3.85, 3.85, 3.85, -69.67,  -0.15,   2.69,  45.09,  -1.44,  -1.14,  -0.96,  -0.10,   0.15,   0.84, 3.85, 0.00, 0.00, 0.00, 0.00, 1, 1, 13,  42.6264269, -88.1614791,   241.0, 2024,  2, 11, 20, 19,  8,        2,        4, 115,  68,   1.3,   0.8,   1.0,  0, 34, 32,  0,  0,  0, 35, 33,  0,  0,  0,  0, 26, 22, 30,  0, 18,  0, 31,  0, 36, 23,  0,  0,  0,  0,  0,  0,  0, 32,  0,  0
6, 11044, 1,N0CALL,     0.30, 3,   boost,   58.36,  98990.00,  196.21,    3.90,   20.86,  6.2, 3.85, 3.85, 3.85, -69.74,   0.25,  -0.02,  44.67,  -0.52,  -0.35,  -0.96,  -0.10,   0.15,   0.83, 3.85, 0.00, 0.00, 0.00, 0.00, 1, 1, 13,  42.6264269, -88.1614791,   241.0, 2024,  2, 11, 20, 19,  8,        2,        4, 115,  68,   1.3,   0.8,   1.0,  0, 34, 32,  0,  0,  0, 35, 33,  0,  0,  0,  0, 26, 22, 30,  0, 18,  0, 31,  0, 36, 23,  0,  0,  0,  0,  0,  0,  0, 32,  0,  0
6, 11044, 1,N0CALL,     0.31, 3,   boost,   56.93,  98989.00,  196.29,    3.99,   21.44,  6.2, 3.85, 3.85, 3.85, -70.08,  -1.57,  -0.75,  46.13,  -0.03,  -0.04,  -0.96,  -0.10,   0.15,   0.83, 3.85, 0.00, 0.00, 0.00, 0.00, 1, 1, 13,  42.6264269, -88.1614791,   241.0, 2024,  2, 11, 20, 19,  8,        2,        4, 115,  68,   1.3,   0.8,   1.0,  0, 34, 32,  0,  0,  0, 35, 33,  0,  0,  0,  0, 26, 22, 30,  0, 18,  0, 31,  0, 36, 23,  0,  0,  0,  0,  0,  0,  0, 32,  0,  0
6, 11044, 1,N0CALL,     0.32, 3,   boost,   58.84,  98989.00,  196.29,    3.99,   22.03,  6.2, 3.85, 3.85, 3.85, -70.31,  -1.98,   1.26,  46.31,   0.03,   0.57,  -0.96,  -0.10,   0.15,   0.84, 3.85, 0.00, 0.00, 0.00, 0.00, 1, 1, 13,  42.6264269, -88.1614791,   241.0, 2024,  2, 11, 20, 19,  8,        2,        4, 115,  68,   1.3,   0.8,   1.0,  0, 34, 32,  0,  0,  0, 35, 33,  0,  0,  0,  0, 26, 22, 30,  0, 18,  0, 31,  0, 36, 23,  0,  0,  0,  0,  0,  0,  0, 32,  0,  0
6, 11044, 1,N0CALL,     0.33, 3,   boost,   58.84,  98983.00,  196.80,    4.50,   22.61,  6.2, 3.85, 3.85, 3.85, -70.49,  -1.47,   2.10,  46.68,   0.58,   0.75,  -0.96,  -0.10,   0.15,   0.84, 3.85, 0.00, 0.00, 0.00, 0.00, 1, 1, 13,  42.6264269, -88.1614791,   241.0, 2024,  2, 11, 20, 19,  8,        2,        4, 115,  68,   1.3,   0.8,   1.0,  0, 34, 32,  0,  0,  0, 35, 33,  0,  0,  0,  0, 26, 22, 30,  0, 18,  0, 31,  0, 36, 23,  0,  0,  0,  0,  0,  0,  0, 32,  0,  0
6, 11044, 1,N0CALL,     0.34, 3,   boost,   59.80,  98983.00,  196.80,    4.50,   23.20,  6.2, 3.84, 3.83, 3.84, -70.71,  -0.45,   0.73,  47.05,   1.13,   0.93,  -0.96,  -0.10,   0.15,   0.86, 3.85, 0.00, 0.00, 0.00, 0.00, 1, 1, 13,  42.6264269, -88.1614791,   241.0, 2024,  2, 11, 20, 19,  8,        2,        4, 115,  68,   1.3,   0.8,   1.0,  0, 34, 32,  0,  0,  0, 35, 33,  0,  0,  0,  0, 26, 22, 30,  0, 18,  0, 31,  0, 36, 23,  0,  0,  0,  0,  0,  0,  0, 32,  0,  0
6, 11044, 1,N0CALL,     0.34, 3,   boost,   59.80,  98983.00,  196.80,    4.50,   23.20,  6.2, 3.84, 3.83, 3.84, -70.71,  -0.45,   0.73,  47.05,   1.13,   0.93,  -0.96,  -0.10,   0.15,   0.86, 3.85, 0.00, 0.00, 0.00, 0.00, 1, 1, 13,  42.6264269, -88.1614791,   241.0, 2024,  2, 11, 20, 19,  8,        2,        4, 115,  68,   1.3,   0.8,   1.0,  0, 34, 32,  0,  0,  0, 35, 33,  0,  0,  0,  0, 26, 22, 30,  0, 18,  0, 31,  0, 36, 23,  0,  0,  0,  0,  0,  0,  0, 32,  0,  0
6, 11044, 1,N0CALL,     0.35, 3,   boost,   58.36,  98985.00,  196.63,    4.33,   23.79,  6.2, 3.84, 3.83, 3.84, -70.80,  -0.98,  -0.79,  47.54,   1.68,   1.79,  -0.96,  -0.09,   0.15,   0.88, 3.85, 0.00, 0.00, 0.00, 0.00, 1, 1, 13,  42.6264269, -88.1614791,   241.0, 2024,  2, 11, 20, 19,  8,        2,        4, 115,  68,   1.3,   0.8,   1.0,  0, 34, 32,  0,  0,  0, 35, 33,  0,  0,  0,  0, 26, 22, 30,  0, 18,  0, 31,  0, 36, 23,  0,  0,  0,  0,  0,  0,  0, 32,  0,  0
6, 11044, 1,N0CALL,     0.36, 3,   boost,   58.36,  98985.00,  196.63,    4.33,   24.38,  6.2, 3.84, 3.83, 3.84, -71.04,  -2.31,  -0.11,  47.47,   2.59,   2.09,  -0.96,  -0.09,   0.15,   0.91, 3.85, 0.00, 0.00, 0.00, 0.00, 1, 1, 13,  42.6264269, -88.1614791,   241.0, 2024,  2, 11, 20, 19,  8,        2,        4, 115,  68,   1.3,   0.8,   1.0,  0, 34, 32,  0,  0,  0, 35, 33,  0,  0,  0,  0, 26, 22, 30,  0, 18,  0, 31,  0, 36, 23,  0,  0,  0,  0,  0,  0,  0, 32,  0,  0
6, 11044, 1,N0CALL,     0.37, 3,   boost,   60.75,  98963.00,  198.50,    6.19,   24.98,  6.1, 3.84, 3.83, 3.84, -71.15,  -1.59,   1.89,  47.29,   2.47,   2.64,  -0.96,  -0.09,   0.16,   0.95, 3.85, 0.00, 0.00, 0.00, 0.00, 1, 1, 13,  42.6264269, -88.1614791,   241.0, 2024,  2, 11, 20, 19,  8,        2,        4, 115,  68,   1.3,   0.8,   1.0,  0, 34, 32,  0,  0,  0, 35, 33,  0,  0,  0,  0, 26, 22, 30,  0, 18,  0, 31,  0, 36, 23,  0,  0,  0,  0,  0,  0,  0, 32,  0,  0
6, 11044, 1,N0CALL,     0.38, 3,   boost,   60.28,  98963.00,  198.50,    6.19,   25.58,  6.1, 3.84, 3.83, 3.84, -71.38,  -1.29,   2.12,  47.23,   3.08,   3.37,  -0.96,  -0.09,   0.16,   0.99, 3.85, 0.00, 0.00, 0.00, 0.00, 1, 1, 13,  42.6264269, -88.1614791,   241.0, 2024,  2, 11, 20, 19,  8,        2,        4, 115,  68,   1.3,   0.8,   1.0,  0, 34, 32,  0,  0,  0, 35, 33,  0,  0,  0,  0, 26, 22, 30,  0, 18,  0, 31,  0, 36, 23,  0,  0,  0,  0,  0,  0,  0, 32,  0,  0
6, 11044, 1,N0CALL,     0.39, 3,   boost,   61.23,  98971.00,  197.82,    5.51,   26.19,  6.2, 3.84, 3.83, 3.84, -71.54,  -0.59,   1.14,  46.50,   3.08,   3.80,  -0.96,  -0.09,   0.16,   1.04, 3.85, 0.00, 0.00, 0.00, 0.00, 1, 1, 13,  42.6264269, -88.1614791,   241.0, 2024,  2, 11, 20, 19,  8,        2,        4, 115,  68,   1.3,   0.8,   1.0,  0, 34, 32,  0,  0,  0, 35, 33,  0,  0,  0,  0, 26, 22, 30,  0, 18,  0, 31,  0, 36, 23,  0,  0,  0,  0,  0,  0,  0, 32,  0,  0
6, 11044, 1,N0CALL,     0.40, 3,   boost,   61.71,  98971.00,  197.82,    5.51,   26.79,  6.2, 3.84, 3.83, 3.84, -71.89,  -1.22,   1.58,  46.50,   3.39,   4.53,  -0.96,  -0.08,   0.16,   1.09, 3.85, 0.00, 0.00, 0.00, 0.00, 1, 1, 13,  42.6264269, -88.1614791,   241.0, 2024,  2, 11, 20, 19,  8,        2,        4, 115,  68,   1.3,   0.8,   1.0,  0, 34, 32,  0,  0,  0, 35, 33,  0,  0,  0,  0, 26, 22, 30,  0, 18,  0, 31,  0, 36, 23,  0,  0,  0,  0,  0,  0,  0, 32,  0,  0
6, 11044, 1,N0CALL,     0.41, 3,   boost,   59.80,  98971.00,  197.82,    5.51,   27.40,  6.2, 3.84, 3.83, 3.84, -71.89,  -1.65,   1.93,  46.25,   3.81,   5.02,  -0.96,  -0.08,   0.16,   1.16, 3.85, 0.00, 0.00, 0.00, 0.00, 1, 1, 13,  42.6264269, -88.1614791,   241.0, 2024,  2, 11, 20, 19,  8,        2,        4, 115,  68,   1.3,   0.8,   1.0,  0, 34, 32,  0,  0,  0, 35, 33,  0,  0,  0,  0, 26, 22, 30,  0, 18,  0, 31,  0, 36, 23,  0,  0,  0,  0,  0,  0,  0, 32,  0,  0
6, 11044, 1,N0CALL,     0.42, 3,   boost,   60.28,  98971.00,  197.82,    5.51,   28.01,  6.2, 3.84, 3.83, 3.84, -72.20,  -1.57,   2.44,  46.31,   4.48,   4.90,  -0.96,  -0.08,   0.17,   1.22, 3.85, 0.00, 0.00, 0.00, 0.00, 1, 1, 13,  42.6264269, -88.1614791,   241.0, 2024,  2, 11, 20, 19,  8,        2,        4, 115,  68,   1.3,   0.8,   1.0,  0, 34, 32,  0,  0,  0, 35, 33,  0,  0,  0,  0, 26, 22, 30,  0, 18,  0, 31,  0, 36, 23,  0,  0,  0,  0,  0,  0,  0, 32,  0,  0
6, 11044, 1,N0CALL,     0.43, 3,   boost,   61.23,  98944.00,  200.11,    7.80,   28.61,  6.2, 3.84, 3.83, 3.84, -72.25,  -0.20,   2.13,  45.70,   4.73,   5.51,  -0.96,  -0.08,   0.17,   1.29, 3.85, 0.00, 0.00, 0.00, 0.00, 1, 1, 13,  42.6264269, -88.1614791,   241.0, 2024,  2, 11, 20, 19,  8,        2,        4, 115,  68,   1.3,   0.8,   1.0,  0, 34, 32,  0,  0,  0, 35, 33,  0,  0,  0,  0, 26, 22, 30,  0, 18,  0, 31,  0, 36, 23,  0,  0,  0,  0,  0,  0,  0, 32,  0,  0
6, 11044, 1,N0CALL,     0.44, 3,   boost,   59.80,  98944.00,  200.11,    7.80,   29.22,  6.2, 3.84, 3.83, 3.84, -72.60,  -0.77,   1.66,  45.83,   5.34,   6.00,  -0.96,  -0.08,   0.17,   1.37, 3.85, 0.00, 0.00, 0.00, 0.00, 1, 1, 13,  42.6264269, -88.1614791,   241.0, 2024,  2, 11, 20, 19,  8,        2,        4, 115,  68,   1.3,   0.8,   1.0,  0, 34, 32,  0,  0,  0, 35, 33,  0,  0,  0,  0, 26, 22, 30,  0, 18,  0, 31,  0, 36, 23,  0,  0,  0,  0,  0,  0,  0, 32,  0,  0
6, 11044, 1,N0CALL,     0.45, 3,   boost,   61.23,  98938.00,  200.62,    8.31,   29.83,  6.2, 3.84, 3.83, 3.84, -72.90,  -1.93,   1.21,  45.89,   5.28,   6.24,  -0.96,  -0.08,   0.17,   1.45, 3.85, 0.00, 0.00, 0.00, 0.00, 1, 1, 13,  42.6264269, -88.1614791,   241.0, 2024,  2, 11, 20, 19,  8,        2,        4, 115,  68,   1.3,   0.8,   1.0,  0, 34, 32,  0,  0,  0, 35, 33,  0,  0,  0,  0, 26, 22, 30,  0, 18,  0, 31,  0, 36, 23,  0,  0,  0,  0,  0,  0,  0, 32,  0,  0
6, 11044, 1,N0CALL,     0.46, 3,   boost,   62.67,  98938.00,  200.62,    8.31,   30.44,  6.2, 3.84, 3.83, 3.84, -73.05,  -1.28,   1.62,  45.95,   6.25,   6.36,  -0.96,  -0.07,   0.17,   1.54, 3.85, 0.00, 0.00, 0.00, 0.00, 1, 1, 13,  42.6264269, -88.1614791,   241.0, 2024,  2, 11, 20, 19,  8,        2,        4, 115,  68,   1.3,   0.8,   1.0,  0, 34, 32,  0,  0,  0, 35, 33,  0,  0,  0,  0, 26, 22, 30,  0, 18,  0, 31,  0, 36, 23,  0,  0,  0,  0,  0,  0,  0, 32,  0,  0
6, 11044, 1,N0CALL,     0.47, 3,   boost,   60.75,  98937.00,  200.71,    8.40,   31.05,  6.2, 3.84, 3.83, 3.84, -73.41,  -0.70,   2.11,  46.07,   6.38,   6.67,  -0.96,  -0.07,   0.17,   1.63, 3.85, 0.00, 0.00, 0.00, 0.00, 1, 1, 13,  42.6264269, -88.1614791,   241.0, 2024,  2, 11, 20, 19,  8,        2,        4, 115,  68,   1.3,   0.8,   1.0,  0, 34, 32,  0,  0,  0, 35, 33,  0,  0,  0,  0, 26, 22, 30,  0, 18,  0, 31,  0, 36, 23,  0,  0,  0,  0,  0,  0,  0, 32,  0,  0
6, 11044, 1,N0CALL,     0.48, 3,   boost,   58.84,  98937.00,  200.71,    8.40,   31.66,  6.2, 3.84, 3.83, 3.84, -73.43,  -0.60,   1.62,  45.46,   6.80,   6.97,  -0.96,  -0.07,   0.17,   1.73, 3.85, 0.00, 0.00, 0.00, 0.00, 1, 1, 13,  42.6264269, -88.1614791,   241.0, 2024,  2, 11, 20, 19,  8,        2,        4, 115,  68,   1.3,   0.8,   1.0,  0, 34, 32,  0,  0,  0, 35, 33,  0,  0,  0,  0, 26, 22, 30,  0, 18,  0, 31,  0, 36, 23,  0,  0,  0,  0,  0,  0,  0, 32,  0,  0
6, 11044, 1,N0CALL,     0.49, 3,   boost,   61.71,  98926.00,  201.64,    9.33,   32.26,  6.2, 3.84, 3.83, 3.84, -73.76,  -1.53,   1.54,  45.03,   7.54,   7.34,  -0.96,  -0.07,   0.18,   1.84, 3.85, 0.00, 0.00, 0.00, 0.00, 1, 1, 13,  42.6264269, -88.1614791,   241.0, 2024,  2, 11, 20, 19,  8,        2,        4, 115,  68,   1.3,   0.8,   1.0,  0, 34, 32,  0,  0,  0, 35, 33,  0,  0,  0,  0, 26, 22, 30,  0, 18,  0, 31,  0, 36, 23,  0,  0,  0,  0,  0,  0,  0, 32,  0,  0
6, 11044, 1,N0CALL,     0.50, 3,   boost,   61.23,  98926.00,  201.64,    9.33,   32.87,  6.2, 3.84, 3.83, 3.84, -73.72,  -1.42,   1.91,  45.09,   7.66,   7.89,  -0.96,  -0.07,   0.18,   1.95, 3.85, 0.00, 0.00, 0.00, 0.00, 1, 1, 13,  42.6264269, -88.1614791,   241.0, 2024,  2, 11, 20, 19,  8,        2,        4, 115,  68,   1.3,   0.8,   1.0,  0, 34, 32,  0,  0,  0, 35, 33,  0,  0,  0,  0, 26, 22, 30,  0, 18,  0, 31,  0, 36, 23,  0,  0,  0,  0,  0,  0,  0, 32,  0,  0
6, 11044, 1,N0CALL,     0.51, 3,   boost,   60.75,  98926.00,  201.64,    9.33,   33.49,  6.2, 3.84, 3.83, 3.84, -73.90,  -1.29,   2.33,  45.40,   8.45,   7.89,  -0.96,  -0.07,   0.18,   2.06, 3.85, 0.00, 0.00, 0.00, 0.00, 1, 1, 13,  42.6264269, -88.1614791,   241.0, 2024,  2, 11, 20, 19,  8,        2,        4, 115,  68,   1.3,   0.8,   1.0,  0, 34, 32,  0,  0,  0, 35, 33,  0,  0,  0,  0, 26, 22, 30,  0, 18,  0, 31,  0, 36, 23,  0,  0,  0,  0,  0,  0,  0, 32,  0,  0
6, 11044, 1,N0CALL,     0.52, 3,   boost,   61.23,  98926.00,  201.64,    9.33,   34.10,  6.2, 3.84, 3.83, 3.84, -74.03,  -0.89,   2.05,  46.19,   8.70,   8.44,  -0.96,  -0.07,   0.18,   2.18, 3.85, 0.00, 0.00, 0.00, 0.00, 1, 1, 13,  42.6264269, -88.1614791,   241.0, 2024,  2, 11, 20, 19,  8,        2,        4, 115,  68,   1.3,   0.8,   1.0,  0, 34, 32,  0,  0,  0, 35, 33,  0,  0,  0,  0, 26, 22, 30,  0, 18,  0, 31,  0, 36, 23,  0,  0,  0,  0,  0,  0,  0, 32,  0,  0
6, 11044, 1,N0CALL,     0.53, 3,   boost,   63.15,  98918.00,  202.32,   10.01,   34.72,  6.2, 3.84, 3.83, 3.84, -74.56,  -1.12,   1.37,  45.70,   9.18,   8.74,  -0.96,  -0.06,   0.18,   2.31, 3.85, 0.00, 0.00, 0.00, 0.00, 1, 1, 13,  42.6264269, -88.1614791,   241.0, 2024,  2, 11, 20, 19,  8,        2,        4, 115,  68,   1.3,   0.8,   1.0,  0, 34, 32,  0,  0,  0, 35, 33,  0,  0,  0,  0, 26, 22, 30,  0, 18,  0, 31,  0, 36, 23,  0,  0,  0,  0,  0,  0,  0, 32,  0,  0
6, 11044, 1,N0CALL,     0.54, 3,   boost,   62.19,  98918.00,  202.32,   10.01,   35.34,  6.2, 3.84, 3.83, 3.84, -74.25,  -1.25,   0.83,  45.64,   9.55,   8.93,  -0.96,  -0.06,   0.18,   2.44, 3.85, 0.00, 0.00, 0.00, 0.00, 1, 1, 13,  42.6264269, -88.1614791,   241.0, 2024,  2, 11, 20, 19,  8,        2,        4, 115,  68,   1.3,   0.8,   1.0,  0, 34, 32,  0,  0,  0, 35, 33,  0,  0,  0,  0, 26, 22, 30,  0, 18,  0, 31,  0, 36, 23,  0,  0,  0,  0,  0,  0,  0, 32,  0,  0
6, 11044, 1,N0CALL,     0.55, 3,   boost,   63.62,  98909.00,  203.08,   10.77,   35.96,  6.2, 3.84, 3.83, 3.84, -74.40,  -1.14,   1.55,  45.70,  10.04,   9.54,  -0.96,  -0.06,   0.18,   2.58, 3.85, 0.00, 0.00, 0.00, 0.00, 1, 1, 13,  42.6264269, -88.1614791,   241.0, 2024,  2, 11, 20, 19,  8,        2,        4, 115,  68,   1.3,   0.8,   1.0,  0, 34, 32,  0,  0,  0, 35, 33,  0,  0,  0,  0, 26, 22, 30,  0, 18,  0, 31,  0, 36, 23,  0,  0,  0,  0,  0,  0,  0, 32,  0,  0
