#version,serial,flight,call,time,state,state_name,acceleration,pressure,altitude,height,speed,temperature,drogue_voltage,main_voltage,battery_voltage,accel_x,accel_y,accel_z,gyro_roll,gyro_pitch,gyro_yaw,mag_x,mag_y,mag_z,tilt,pyro,igniter_a,igniter_b,igniter_c,igniter_d,connected,locked,nsat,latitude,longitude,altitude,year,month,day,hour,minute,second,pad_dist,pad_range,pad_az,pad_el,pdop,hdop,vdop,sat01,sat02,sat03,sat04,sat05,sat06,sat07,sat08,sat09,sat10,sat11,sat12,sat13,sat14,sat15,sat16,sat17,sat18,sat19,sat20,sat21,sat22,sat23,sat24,sat25,sat26,sat27,sat28,sat29,sat30,sat31,sat32
6, 11044, 3,N0CALL,    -0.30, 3,   boost,   -0.48,  99921.00,  117.53,   -2.10,    0.00, 18.5, 4.10, 4.12, 4.11,  -9.92,   0.14,  -0.32,   0.07,  -0.01,   0.16,  -1.01,  -0.21,  -0.17,   1.62, 4.11, 0.01, 0.00, 0.00, 0.00, 1, 1, 12,  41.7771469, -86.5779835,   198.0, 2024,  3,  2, 16,  4, 41,        0,        0, 154,   0,   1.5,   0.7,   1.3,  0, 34,  0, 39,  0,  0, 16, 30, 32,  0,  0,  0,  0, 29,  0, 28,  0,  0,  0,  0, 32,  0,  0,  0,  0,  0, 27,  0,  0, 21,  0,  0
6, 11044, 3,N0CALL,    -0.29, 3,   boost,   -0.00,  99919.00,  117.70,   -1.94,    0.00, 18.5, 4.10, 4.12, 4.11,  -9.84,   0.21,  -0.27,  -0.11,  -0.13,   0.10,  -1.01,  -0.21,  -0.17,   1.62, 4.11, 0.01, 0.00, 0.00, 0.00, 1, 1, 12,  41.7771469, -86.5779835,   198.0, 2024,  3,  2, 16,  4, 41,        0,        0, 154,   0,   1.5,   0.7,   1.3,  0, 34,  0, 39,  0,  0, 16, 30, 32,  0,  0,  0,  0, 29,  0, 28,  0,  0,  0,  0, 32,  0,  0,  0,  0,  0, 27,  0,  0, 21,  0,  0
6, 11044, 3,N0CALL,    -0.28, 3,   boost,   -0.96,  99919.00,  117.70,   -1.94,    0.00, 18.5, 4.10, 4.12, 4.11,  -9.88,   0.07,  -0.28,   0.01,   0.23,   0.04,  -1.01,  -0.21,  -0.17,   1.62, 4.11, 0.01, 0.00, 0.00, 0.00, 1, 1, 12,  41.7771469, -86.5779835,   198.0, 2024,  3,  2, 16,  4, 41,        0,        0, 154,   0,   1.5,   0.7,   1.3,  0, 34,  0, 39,  0,  0, 16, 30, 32,  0,  0,  0,  0, 29,  0, 28,  0,  0,  0,  0, 32,  0,  0,  0,  0,  0, 27,  0,  0, 21,  0,  0
6, 11044, 3,N0CALL,    -0.27, 3,   boost,   -1.44,  99929.00,  116.86,   -2.78,    0.00, 18.5, 4.10, 4.12, 4.11,  -9.88,   0.20,  -0.19,   0.26,  -0.01,   0.22,  -1.01,  -0.21,  -0.17,   1.62, 4.11, 0.01, 0.00, 0.00, 0.00, 1, 1, 12,  41.7771469, -86.5779835,   198.0, 2024,  3,  2, 16,  4, 41,        0,        0, 154,   0,   1.5,   0.7,   1.3,  0, 34,  0, 39,  0,  0, 16, 30, 32,  0,  0,  0,  0, 29,  0, 28,  0,  0,  0,  0, 32,  0,  0,  0,  0,  0, 27,  0,  0, 21,  0,  0
6, 11044, 3,N0CALL,    -0.26, 3,   boost,    0.48,  99929.00,  116.86,   -2.78,    0.00, 18.5, 4.10, 4.12, 4.11,  -9.83,   0.18,  -0.23,   0.14,   0.29,   0.16,  -1.01,  -0.21,  -0.17,   1.62, 4.11, 0.01, 0.00, 0.00, 0.00, 1, 1, 12,  41.7771469, -86.5779835,   198.0, 2024,  3,  2, 16,  4, 41,        0,        0, 154,   0,   1.5,   0.7,   1.3,  0, 34,  0, 39,  0,  0, 16, 30, 32,  0,  0,  0,  0, 29,  0, 28,  0,  0,  0,  0, 32,  0,  0,  0,  0,  0, 27,  0,  0, 21,  0,  0
6, 11044, 3,N0CALL,    -0.25, 3,   boost,   -1.44,  99920.00,  117.62,   -2.02,    0.00, 18.5, 4.10, 4.12, 4.11,  -9.86,   0.17,  -0.31,   0.20,   0.17,   0.04,  -1.01,  -0.21,  -0.17,   1.62, 4.11, 0.01, 0.00, 0.00, 0.00, 1, 1, 12,  41.7771469, -86.5779835,   198.0, 2024,  3,  2, 16,  4, 41,        0,        0, 154,   0,   1.5,   0.7,   1.3,  0, 34,  0, 39,  0,  0, 16, 30, 32,  0,  0,  0,  0, 29,  0, 28,  0,  0,  0,  0, 32,  0,  0,  0,  0,  0, 27,  0,  0, 21,  0,  0
6, 11044, 3,N0CALL,    -0.24, 3,   boost,   -0.48,  99920.00,  117.62,   -2.02,    0.00, 18.5, 4.10, 4.12, 4.11,  -9.97,   0.17,  -0.15,  -0.29,   0.05,  -0.08,  -1.01,  -0.21,  -0.17,   1.62, 4.11, 0.01, 0.00, 0.00, 0.00, 1, 1, 12,  41.7771469, -86.5779835,   198.0, 2024,  3,  2, 16,  4, 41,        0,        0, 154,   0,   1.5,   0.7,   1.3,  0, 34,  0, 39,  0,  0, 16, 30, 32,  0,  0,  0,  0, 29,  0, 28,  0,  0,  0,  0, 32,  0,  0,  0,  0,  0, 27,  0,  0, 21,  0,  0
6, 11044, 3,N0CALL,    -0.23, 3,   boost,    0.96,  99909.00,  118.54,   -1.09,    0.00, 18.5, 4.10, 4.12, 4.11,  -9.86,   0.06,  -0.18,   0.20,   0.23,   0.16,  -1.01,  -0.21,  -0.17,   1.62, 4.11, 0.01, 0.00, 0.00, 0.00, 1, 1, 12,  41.7771469, -86.5779835,   198.0, 2024,  3,  2, 16,  4, 41,        0,        0, 154,   0,   1.5,   0.7,   1.3,  0, 34,  0, 39,  0,  0, 16, 30, 32,  0,  0,  0,  0, 29,  0, 28,  0,  0,  0,  0, 32,  0,  0,  0,  0,  0, 27,  0,  0, 21,  0,  0
6, 11044, 3,N0CALL,    -0.22, 3,   boost,   -0.00,  99909.00,  118.54,   -1.09,    0.00, 18.5, 4.10, 4.12, 4.11,  -9.84,   0.19,  -0.34,  -0.05,   0.29,   0.22,  -1.01,  -0.21,  -0.17,   1.62, 4.11, 0.01, 0.00, 0.00, 0.00, 1, 1, 12,  41.7771469, -86.5779835,   198.0, 2024,  3,  2, 16,  4, 41,        0,        0, 154,   0,   1.5,   0.7,   1.3,  0, 34,  0, 39,  0,  0, 16, 30, 32,  0,  0,  0,  0, 29,  0, 28,  0,  0,  0,  0, 32,  0,  0,  0,  0,  0, 27,  0,  0, 21,  0,  0
6, 11044, 3,N0CALL,    -0.21, 3,   boost,   -1.44,  99920.00,  117.62,   -2.02,    0.00, 18.5, 4.10, 4.12, 4.11,  -9.84,   0.09,  -0.19,  -0.11,  -0.19,   0.29,  -1.01,  -0.21,  -0.17,   1.62, 4.11, 0.01, 0.00, 0.00, 0.00, 1, 1, 12,  41.7771469, -86.5779835,   198.0, 2024,  3,  2, 16,  4, 41,        0,        0, 154,   0,   1.5,   0.7,   1.3,  0, 34,  0, 39,  0,  0, 16, 30, 32,  0,  0,  0,  0, 29,  0, 28,  0,  0,  0,  0, 32,  0,  0,  0,  0,  0, 27,  0,  0, 21,  0,  0
6, 11044, 3,N0CALL,    -0.20, 3,   boost,    0.48,  99920.00,  117.62,   -2.02,    0.00, 18.5, 4.10, 4.12, 4.11,  -9.86,   0.09,  -0.22,   0.14,   0.11,  -0.02,  -1.01,  -0.21,  -0.17,   1.62, 4.11, 0.01, 0.00, 0.00, 0.00, 1, 1, 12,  41.7771469, -86.5779835,   198.0, 2024,  3,  2, 16,  4, 41,        0,        0, 154,   0,   1.5,   0.7,   1.3,  0, 34,  0, 39,  0,  0, 16, 30, 32,  0,  0,  0,  0, 29,  0, 28,  0,  0,  0,  0, 32,  0,  0,  0,  0,  0, 27,  0,  0, 21,  0,  0
6, 11044, 3,N0CALL,    -0.19, 3,   boost,   -0.48,  99911.00,  118.38,   -1.26,    0.00, 18.5, 4.10, 4.12, 4.11,  -9.91,   0.20,  -0.22,  -0.35,   0.05,   0.22,  -1.01,  -0.21,  -0.17,   1.62, 4.11, 0.01, 0.00, 0.00, 0.00, 1, 1, 12,  41.7771469, -86.5779835,   198.0, 2024,  3,  2, 16,  4, 41,        0,        0, 154,   0,   1.5,   0.7,   1.3,  0, 34,  0, 39,  0,  0, 16, 30, 32,  0,  0,  0,  0, 29,  0, 28,  0,  0,  0,  0, 32,  0,  0,  0,  0,  0, 27,  0,  0, 21,  0,  0
6, 11044, 3,N0CALL,    -0.18, 3,   boost,    0.48,  99911.00,  118.38,   -1.26,    0.01, 18.5, 4.10, 4.12, 4.11,  -9.88,   0.05,  -0.19,  -0.17,   0.11,  -0.08,  -1.01,  -0.21,  -0.17,   1.62, 4.11, 0.01, 0.00, 0.00, 0.00, 1, 1, 12,  41.7771469, -86.5779835,   198.0, 2024,  3,  2, 16,  4, 41,        0,        0, 154,   0,   1.5,   0.7,   1.3,  0, 34,  0, 39,  0,  0, 16, 30, 32,  0,  0,  0,  0, 29,  0, 28,  0,  0,  0,  0, 32,  0,  0,  0,  0,  0, 27,  0,  0, 21,  0,  0
6, 11044, 3,N0CALL,    -0.17, 3,   boost,    0.96,  99920.00,  117.62,   -2.02,    0.04, 18.5, 4.10, 4.12, 4.11,  -9.87,   0.22,  -0.14,  -0.11,   0.05,   0.10,  -1.01,  -0.21,  -0.17,   1.62, 4.11, 0.01, 0.00, 0.00, 0.00, 1, 1, 12,  41.7771469, -86.5779835,   198.0, 2024,  3,  2, 16,  4, 41,        0,        0, 154,   0,   1.5,   0.7,   1.3,  0, 34,  0, 39,  0,  0, 16, 30, 32,  0,  0,  0,  0, 29,  0, 28,  0,  0,  0,  0, 32,  0,  0,  0,  0,  0, 27,  0,  0, 21,  0,  0
6, 11044, 3,N0CALL,    -0.16, 3,   boost,    1.91,  99920.00,  117.62,   -2.02,    0.09, 18.5, 4.10, 4.12, 4.11,  -9.89,   0.10,  -0.13,   0.01,   0.29,   0.10,  -1.01,  -0.21,  -0.17,   1.62, 4.11, 0.01, 0.00, 0.00, 0.00, 1, 1, 12,  41.7771469, -86.5779835,   198.0, 2024,  3,  2, 16,  4, 41,        0,        0, 154,   0,   1.5,   0.7,   1.3,  0, 34,  0, 39,  0,  0, 16, 30, 32,  0,  0,  0,  0, 29,  0, 28,  0,  0,  0,  0, 32,  0,  0,  0,  0,  0, 27,  0,  0, 21,  0,  0
6, 11044, 3,N0CALL,    -0.15, 3,   boost,   18.18,  99925.00,  117.20,   -2.44,    0.19, 18.5, 4.10, 4.12, 4.11, -12.05,   0.21,  -0.02,   1.23,   0.48,  -0.20,  -1.00,  -0.21,  -0.17,   1.62, 4.11, 0.01, 0.00, 0.00, 0.00, 1, 1, 12,  41.7771469, -86.5779835,   198.0, 2024,  3,  2, 16,  4, 41,        0,        0, 154,   0,   1.5,   0.7,   1.3,  0, 34,  0, 39,  0,  0, 16, 30, 32,  0,  0,  0,  0, 29,  0, 28,  0,  0,  0,  0, 32,  0,  0,  0,  0,  0, 27,  0,  0, 21,  0,  0
6, 11044, 3,N0CALL,    -0.14, 3,   boost,   19.61,  99925.00,  117.20,   -2.44,    0.32, 18.5, 4.10, 4.12, 4.11, -12.74,  -3.99,  -1.97,  32.73,  11.40,  -0.14,  -1.00,  -0.21,  -0.17,   1.62, 4.11, 0.01, 0.00, 0.00, 0.00, 1, 1, 12,  41.7771469, -86.5779835,   198.0, 2024,  3,  2, 16,  4, 41,        0,        0, 154,   0,   1.5,   0.7,   1.3,  0, 34,  0, 39,  0,  0, 16, 30, 32,  0,  0,  0,  0, 29,  0, 28,  0,  0,  0,  0, 32,  0,  0,  0,  0,  0, 27,  0,  0, 21,  0,  0
6, 11044, 3,N0CALL,    -0.13, 3,   boost,   20.09,  99917.00,  117.87,   -1.77,    0.50, 18.5, 4.10, 4.12, 4.11, -23.05,  -5.00,  -1.93,  43.47,   1.21,   1.45,  -1.01,  -0.21,  -0.17,   1.62, 4.11, 0.01, 0.00, 0.00, 0.00, 1, 1, 12,  41.7771469, -86.5779835,   198.0, 2024,  3,  2, 16,  4, 41,        0,        0, 154,   0,   1.5,   0.7,   1.3,  0, 34,  0, 39,  0,  0, 16, 30, 32,  0,  0,  0,  0, 29,  0, 28,  0,  0,  0,  0, 32,  0,  0,  0,  0,  0, 27,  0,  0, 21,  0,  0
6, 11044, 3,N0CALL,    -0.12, 3,   boost,   21.05,  99917.00,  117.87,   -1.77,    0.72, 18.5, 4.10, 4.12, 4.11, -28.94,  -2.39,  -4.07,  19.30,  -1.35,   1.99,  -1.01,  -0.21,  -0.17,   1.62, 4.11, 0.01, 0.00, 0.00, 0.00, 1, 1, 12,  41.7771469, -86.5779835,   198.0, 2024,  3,  2, 16,  4, 41,        0,        0, 154,   0,   1.5,   0.7,   1.3,  0, 34,  0, 39,  0,  0, 16, 30, 32,  0,  0,  0,  0, 29,  0, 28,  0,  0,  0,  0, 32,  0,  0,  0,  0,  0, 27,  0,  0, 21,  0,  0
6, 11044, 3,N0CALL,    -0.11, 3,   boost,   26.31,  99908.00,  118.63,   -1.01,    0.96, 18.5, 4.10, 4.12, 4.11, -30.90,  -3.02,   0.41,  19.97,  -2.70,   1.57,  -1.01,  -0.21,  -0.17,   1.62, 4.11, 0.01, 0.00, 0.00, 0.00, 1, 1, 12,  41.7771481, -86.5779843,   198.0, 2024,  3,  2, 16,  4, 42,        0,        0,   0,   0,   1.5,   0.7,   1.3,  0, 34,  0, 39,  0,  0, 17, 30, 32,  0,  0,  0,  0, 29,  0, 27,  0,  0,  0,  0, 32,  0,  0,  0,  0,  0, 26,  0,  0, 20,  0,  0
6, 11044, 3,N0CALL,    -0.10, 3,   boost,   30.62,  99908.00,  118.63,   -1.01,    1.24, 18.5, 4.10, 4.12, 4.11, -34.80,   2.36,  -0.91,  39.32,  -0.07,  -0.69,  -1.01,  -0.21,  -0.17,   1.62, 4.11, 0.01, 0.00, 0.00, 0.00, 1, 1, 12,  41.7771481, -86.5779843,   198.0, 2024,  3,  2, 16,  4, 42,        0,        0,   0,   0,   1.5,   0.7,   1.3,  0, 34,  0, 39,  0,  0, 17, 30, 32,  0,  0,  0,  0, 29,  0, 27,  0,  0,  0,  0, 32,  0,  0,  0,  0,  0, 26,  0,  0, 20,  0,  0
6, 11044, 3,N0CALL,    -0.09, 3,   boost,   27.75,  99919.00,  117.70,   -1.94,    1.54, 18.5, 4.10, 4.12, 4.11, -38.92,   2.11,   0.28,  46.46,   0.54,  -1.12,  -1.01,  -0.22,  -0.17,   1.62, 4.11, 0.01, 0.00, 0.00, 0.00, 1, 1, 12,  41.7771481, -86.5779843,   198.0, 2024,  3,  2, 16,  4, 42,        0,        0,   0,   0,   1.5,   0.7,   1.3,  0, 34,  0, 39,  0,  0, 17, 30, 32,  0,  0,  0,  0, 29,  0, 27,  0,  0,  0,  0, 32,  0,  0,  0,  0,  0, 26,  0,  0, 20,  0,  0
6, 11044, 3,N0CALL,    -0.08, 3,   boost,   39.23,  99919.00,  117.70,   -1.94,    1.88, 18.5, 4.10, 4.12, 4.11, -43.75,   4.59,  -0.14,  38.22,  -6.18,  -0.51,  -1.00,  -0.22,  -0.16,   1.62, 4.11, 0.01, 0.00, 0.00, 0.00, 1, 1, 12,  41.7771481, -86.5779843,   198.0, 2024,  3,  2, 16,  4, 42,        0,        0,   0,   0,   1.5,   0.7,   1.3,  0, 34,  0, 39,  0,  0, 17, 30, 32,  0,  0,  0,  0, 29,  0, 27,  0,  0,  0,  0, 32,  0,  0,  0,  0,  0, 26,  0,  0, 20,  0,  0
6, 11044, 3,N0CALL,    -0.07, 3,   boost,   40.66,  99909.00,  118.54,   -1.09,    2.26, 18.5, 4.10, 4.12, 4.11, -48.03,   2.46,   3.00,  50.49,  -0.50,  -1.67,  -1.00,  -0.22,  -0.16,   1.62, 4.11, 0.01, 0.00, 0.00, 0.00, 1, 1, 12,  41.7771481, -86.5779843,   198.0, 2024,  3,  2, 16,  4, 42,        0,        0,   0,   0,   1.5,   0.7,   1.3,  0, 34,  0, 39,  0,  0, 17, 30, 32,  0,  0,  0,  0, 29,  0, 27,  0,  0,  0,  0, 32,  0,  0,  0,  0,  0, 26,  0,  0, 20,  0,  0
6, 11044, 3,N0CALL,    -0.06, 3,   boost,   41.14,  99909.00,  118.54,   -1.09,    2.65, 18.5, 4.10, 4.12, 4.11, -50.48,  -0.27,  -2.20,  40.17,   1.27,  -3.19,  -1.01,  -0.22,  -0.16,   1.62, 4.11, 0.01, 0.00, 0.00, 0.00, 1, 1, 12,  41.7771481, -86.5779843,   198.0, 2024,  3,  2, 16,  4, 42,        0,        0,   0,   0,   1.5,   0.7,   1.3,  0, 34,  0, 39,  0,  0, 17, 30, 32,  0,  0,  0,  0, 29,  0, 27,  0,  0,  0,  0, 32,  0,  0,  0,  0,  0, 26,  0,  0, 20,  0,  0
6, 11044, 3,N0CALL,    -0.05, 3,   boost,   43.53,  99903.00,  119.05,   -0.59,    3.07, 18.5, 4.10, 4.12, 4.11, -52.29,  -0.41,   0.04,  24.85,   1.70,  -3.56,  -1.00,  -0.22,  -0.16,   1.62, 4.11, 0.01, 0.00, 0.00, 0.00, 1, 1, 12,  41.7771481, -86.5779843,   198.0, 2024,  3,  2, 16,  4, 42,        0,        0,   0,   0,   1.5,   0.7,   1.3,  0, 34,  0, 39,  0,  0, 17, 30, 32,  0,  0,  0,  0, 29,  0, 27,  0,  0,  0,  0, 32,  0,  0,  0,  0,  0, 26,  0,  0, 20,  0,  0
6, 11044, 3,N0CALL,    -0.04, 3,   boost,   44.01,  99903.00,  119.05,   -0.59,    3.50, 18.5, 4.10, 4.12, 4.11, -54.05,  -2.62,   0.44,  17.04,   3.10,  -4.35,  -1.01,  -0.22,  -0.16,   1.62, 4.11, 0.01, 0.00, 0.00, 0.00, 1, 1, 12,  41.7771481, -86.5779843,   198.0, 2024,  3,  2, 16,  4, 42,        0,        0,   0,   0,   1.5,   0.7,   1.3,  0, 34,  0, 39,  0,  0, 17, 30, 32,  0,  0,  0,  0, 29,  0, 27,  0,  0,  0,  0, 32,  0,  0,  0,  0,  0, 26,  0,  0, 20,  0,  0
6, 11044, 3,N0CALL,    -0.03, 3,   boost,   44.49,  99911.00,  118.38,   -1.26,    3.94, 18.5, 4.10, 4.12, 4.11, -55.35,  -0.77,  -2.35,   3.74,   1.51,  -4.41,  -1.00,  -0.22,  -0.16,   1.62, 4.11, 0.01, 0.00, 0.00, 0.00, 1, 1, 12,  41.7771481, -86.5779843,   198.0, 2024,  3,  2, 16,  4, 42,        0,        0,   0,   0,   1.5,   0.7,   1.3,  0, 34,  0, 39,  0,  0, 17, 30, 32,  0,  0,  0,  0, 29,  0, 27,  0,  0,  0,  0, 32,  0,  0,  0,  0,  0, 26,  0,  0, 20,  0,  0
6, 11044, 3,N0CALL,    -0.02, 3,   boost,   44.97,  99911.00,  118.38,   -1.26,    4.38, 18.5, 4.10, 4.12, 4.11, -55.13,   2.31,   2.54,  23.39,   2.92,  -5.82,  -1.00,  -0.22,  -0.16,   1.62, 4.11, 0.01, 0.00, 0.00, 0.00, 1, 1, 12,  41.7771481, -86.5779843,   198.0, 2024,  3,  2, 16,  4, 42,        0,        0,   0,   0,   1.5,   0.7,   1.3,  0, 34,  0, 39,  0,  0, 17, 30, 32,  0,  0,  0,  0, 29,  0, 27,  0,  0,  0,  0, 32,  0,  0,  0,  0,  0, 26,  0,  0, 20,  0,  0
6, 11044, 3,N0CALL,    -0.01, 3,   boost,   44.97,  99918.00,  117.79,   -1.85,    4.84, 18.5, 4.10, 4.12, 4.11, -56.10,  -6.71,   4.63,  32.91,   4.57,  -2.28,  -1.00,  -0.22,  -0.16,   1.62, 4.11, 0.01, 0.00, 0.00, 0.00, 1, 1, 12,  41.7771481, -86.5779843,   198.0, 2024,  3,  2, 16,  4, 42,        0,        0,   0,   0,   1.5,   0.7,   1.3,  0, 34,  0, 39,  0,  0, 17, 30, 32,  0,  0,  0,  0, 29,  0, 27,  0,  0,  0,  0, 32,  0,  0,  0,  0,  0, 26,  0,  0, 20,  0,  0
6, 11044, 3,N0CALL,     0.00, 3,   boost,   46.40,  99918.00,  117.79,   -1.85,    5.29, 18.5, 4.10, 4.12, 4.11, -57.27,   4.23,  -1.74,  -1.09,   0.96,  -5.39,  -1.00,  -0.22,  -0.16,   1.62, 4.11, 0.01, 0.00, 0.00, 0.00, 1, 1, 12,  41.7771481, -86.5779843,   198.0, 2024,  3,  2, 16,  4, 42,        0,        0,   0,   0,   1.5,   0.7,   1.3,  0, 34,  0, 39,  0,  0, 17, 30, 32,  0,  0,  0,  0, 29,  0, 27,  0,  0,  0,  0, 32,  0,  0,  0,  0,  0, 26,  0,  0, 20,  0,  0
6, 11044, 3,N0CALL,     0.00, 3,   boost,   46.40,  99918.00,  117.79,   -1.85,    5.29, 18.5, 4.10, 4.12, 4.11, -57.27,   4.23,  -1.74,  -1.09,   0.96,  -5.39,  -1.00,  -0.22,  -0.16,   1.62, 4.11, 0.01, 0.00, 0.00, 0.00, 1, 1, 12,  41.7771481, -86.5779843,   198.0, 2024,  3,  2, 16,  4, 42,        0,        0,   0,   0,   1.5,   0.7,   1.3,  0, 34,  0, 39,  0,  0, 17, 30, 32,  0,  0,  0,  0, 29,  0, 27,  0,  0,  0,  0, 32,  0,  0,  0,  0,  0, 26,  0,  0, 20,  0,  0
6, 11044, 3,N0CALL,     0.00, 3,   boost,   46.40,  99918.00,  117.79,   -1.85,    5.29, 18.5, 4.10, 4.12, 4.11, -57.27,   4.23,  -1.74,  -1.09,   0.96,  -5.39,  -1.00,  -0.22,  -0.16,   1.62, 4.11, 0.01, 0.00, 0.00, 0.00, 1, 1, 12,  41.7771481, -86.5779843,   198.0, 2024,  3,  2, 16,  4, 42,        0,        0,   0,   0,   1.5,   0.7,   1.3,  0, 34,  0, 39,  0,  0, 17, 30, 32,  0,  0,  0,  0, 29,  0, 27,  0,  0,  0,  0, 32,  0,  0,  0,  0,  0, 26,  0,  0, 20,  0,  0
6, 11044, 3,N0CALL,     0.00, 3,   boost,   46.40,  99918.00,  117.79,   -1.85,    5.29, 18.5, 4.10, 4.12, 4.11, -57.27,   4.23,  -1.74,  -1.09,   0.96,  -5.39,  -1.00,  -0.22,  -0.16,   1.62, 4.11, 0.01, 0.00, 0.00, 0.00, 1, 1, 12,  41.7771481, -86.5779843,   198.0, 2024,  3,  2, 16,  4, 42,        0,        0,   0,   0,   1.5,   0.7,   1.3,  0, 34,  0, 39,  0,  0, 17, 30, 32,  0,  0,  0,  0, 29,  0, 27,  0,  0,  0,  0, 32,  0,  0,  0,  0,  0, 26,  0,  0, 20,  0,  0
6, 11044, 3,N0CALL,     0.00, 3,   boost,   46.40,  99918.00,  117.79,   -1.85,    5.29, 18.5, 4.10, 4.12, 4.11, -57.27,   4.23,  -1.74,  -1.09,   0.96,  -5.39,  -1.00,  -0.22,  -0.16,   1.62, 4.11, 0.01, 0.00, 0.00, 0.00, 1, 1, 12,  41.7771481, -86.5779843,   198.0, 2024,  3,  2, 16,  4, 42,        0,        0,   0,   0,   1.5,   0.7,   1.3,  0, 34,  0, 39,  0,  0, 17, 30, 32,  0,  0,  0,  0, 29,  0, 27,  0,  0,  0,  0, 32,  0,  0,  0,  0,  0, 26,  0,  0, 20,  0,  0
6, 11044, 3,N0CALL,     0.00, 3,   boost,   46.40,  99918.00,  117.79,   -1.85,    5.29, 18.5, 4.10, 4.12, 4.11, -57.27,   4.23,  -1.74,  -1.09,   0.96,  -5.39,  -1.00,  -0.22,  -0.16,   1.62, 4.11, 0.01, 0.00, 0.00, 0.00, 1, 1, 12,  41.7771481, -86.5779843,   198.0, 2024,  3,  2, 16,  4, 42,        0,        0,   0,   0,   1.5,   0.7,   1.3,  0, 34,  0, 39,  0,  0, 17, 30, 32,  0,  0,  0,  0, 29,  0, 27,  0,  0,  0,  0, 32,  0,  0,  0,  0,  0, 26,  0,  0, 20,  0,  0
6, 11044, 3,N0CALL,     0.00, 3,   boost,   46.40,  99918.00,  117.79,   -1.85,    5.29, 18.5, 4.10, 4.12, 4.11, -57.27,   4.23,  -1.74,  -1.09,   0.96,  -5.39,  -1.00,  -0.22,  -0.16,   1.61, 4.11, 0.01, 0.00, 0.00, 0.00, 1, 1, 12,  41.7771481, -86.5779843,   198.0, 2024,  3,  2, 16,  4, 42,        0,        0,   0,   0,   1.5,   0.7,   1.3,  0, 34,  0, 39,  0,  0, 17, 30, 32,  0,  0,  0,  0, 29,  0, 27,  0,  0,  0,  0, 32,  0,  0,  0,  0,  0, 26,  0,  0, 20,  0,  0
6, 11044, 3,N0CALL,     0.00, 3,   boost,   46.40,  99918.00,  117.79,   -1.85,    5.29, 18.5, 4.10, 4.12, 4.11, -57.27,   4.23,  -1.74,  -1.09,   0.96,  -5.39,  -1.00,  -0.22,  -0.16,   1.61, 4.11, 0.01, 0.00, 0.00, 0.00, 1, 1, 12,  41.7771481, -86.5779843,   198.0, 2024,  3,  2, 16,  4, 42,        0,        0,   0,   0,   1.5,   0.7,   1.3,  0, 34,  0, 39,  0,  0, 17, 30, 32,  0,  0,  0,  0, 29,  0, 27,  0,  0,  0,  0, 32,  0,  0,  0,  0,  0, 26,  0,  0, 20,  0,  0
6, 11044, 3,N0CALL,     0.00, 3,   boost,   46.40,  99918.00,  117.79,   -1.85,    5.29, 18.5, 4.10, 4.12, 4.11, -57.27,   4.23,  -1.74,  -1.09,   0.96,  -5.39,  -1.00,  -0.22,  -0.16,   1.61, 4.11, 0.01, 0.00, 0.00, 0.00, 1, 1, 12,  41.7771481, -86.5779843,   198.0, 2024,  3,  2, 16,  4, 42,        0,        0,   0,   0,   1.5,   0.7,   1.3,  0, 34,  0, 39,  0,  0, 17, 30, 32,  0,  0,  0,  0, 29,  0, 27,  0,  0,  0,  0, 32,  0,  0,  0,  0,  0, 26,  0,  0, 20,  0,  0
6, 11044, 3,N0CALL,     0.00, 3,   boost,   46.40,  99918.00,  117.79,   -1.85,    5.29, 18.5, 4.10, 4.12, 4.11, -57.27,   4.23,  -1.74,  -1.09,   0.96,  -5.39,  -1.00,  -0.22,  -0.16,   1.61, 4.11, 0.01, 0.00, 0.00, 0.00, 1, 1, 12,  41.7771481, -86.5779843,   198.0, 2024,  3,  2, 16,  4, 42,        0,        0,   0,   0,   1.5,   0.7,   1.3,  0, 34,  0, 39,  0,  0, 17, 30, 32,  0,  0,  0,  0, 29,  0, 27,  0,  0,  0,  0, 32,  0,  0,  0,  0,  0, 26,  0,  0, 20,  0,  0
6, 11044, 3,N0CALL,     0.00, 3,   boost,   46.40,  99918.00,  117.79,   -1.85,    5.29, 18.5, 4.10, 4.12, 4.11, -57.27,   4.23,  -1.74,  -1.09,   0.96,  -5.39,  -1.00,  -0.22,  -0.16,   1.61, 4.11, 0.01, 0.00, 0.00, 0.00, 1, 1, 12,  41.7771481, -86.5779843,   198.0, 2024,  3,  2, 16,  4, 42,        0,        0,   0,   0,   1.5,   0.7,   1.3,  0, 34,  0, 39,  0,  0, 17, 30, 32,  0,  0,  0,  0, 29,  0, 27,  0,  0,  0,  0, 32,  0,  0,  0,  0,  0, 26,  0,  0, 20,  0,  0
6, 11044, 3,N0CALL,     0.00, 3,   boost,   46.40,  99918.00,  117.79,   -1.85,    5.29, 18.5, 4.10, 4.12, 4.11, -57.27,   4.23,  -1.74,  -1.09,   0.96,  -5.39,  -1.00,  -0.22,  -0.16,   1.60, 4.11, 0.01, 0.00, 0.00, 0.00, 1, 1, 12,  41.7771481, -86.5779843,   198.0, 2024,  3,  2, 16,  4, 42,        0,        0,   0,   0,   1.5,   0.7,   1.3,  0, 34,  0, 39,  0,  0, 17, 30, 32,  0,  0,  0,  0, 29,  0, 27,  0,  0,  0,  0, 32,  0,  0,  0,  0,  0, 26,  0,  0, 20,  0,  0
6, 11044, 3,N0CALL,     0.00, 3,   boost,   46.40,  99918.00,  117.79,   -1.85,    5.29, 18.5, 4.10, 4.12, 4.11, -57.27,   4.23,  -1.74,  -1.09,   0.96,  -5.39,  -1.00,  -0.22,  -0.16,   1.60, 4.11, 0.01, 0.00, 0.00, 0.00, 1, 1, 12,  41.7771481, -86.5779843,   198.0, 2024,  3,  2, 16,  4, 42,        0,        0,   0,   0,   1.5,   0.7,   1.3,  0, 34,  0, 39,  0,  0, 17, 30, 32,  0,  0,  0,  0, 29,  0, 27,  0,  0,  0,  0, 32,  0,  0,  0,  0,  0, 26,  0,  0, 20,  0,  0
6, 11044, 3,N0CALL,     0.00, 3,   boost,   46.40,  99918.00,  117.79,   -1.85,    5.29, 18.5, 4.10, 4.12, 4.11, -57.27,   4.23,  -1.74,  -1.09,   0.96,  -5.39,  -1.00,  -0.22,  -0.16,   1.60, 4.11, 0.01, 0.00, 0.00, 0.00, 1, 1, 12,  41.7771481, -86.5779843,   198.0, 2024,  3,  2, 16,  4, 42,        0,        0,   0,   0,   1.5,   0.7,   1.3,  0, 34,  0, 39,  0,  0, 17, 30, 32,  0,  0,  0,  0, 29,  0, 27,  0,  0,  0,  0, 32,  0,  0,  0,  0,  0, 26,  0,  0, 20,  0,  0
6, 11044, 3,N0CALL,     0.00, 3,   boost,   46.40,  99918.00,  117.79,   -1.85,    5.29, 18.5, 4.10, 4.12, 4.11, -57.27,   4.23,  -1.74,  -1.09,   0.96,  -5.39,  -1.00,  -0.22,  -0.16,   1.60, 4.11, 0.01, 0.00, 0.00, 0.00, 1, 1, 12,  41.7771481, -86.5779843,   198.0, 2024,  3,  2, 16,  4, 42,        0,        0,   0,   0,   1.5,   0.7,   1.3,  0, 34,  0, 39,  0,  0, 17, 30, 32,  0,  0,  0,  0, 29,  0, 27,  0,  0,  0,  0, 32,  0,  0,  0,  0,  0, 26,  0,  0, 20,  0,  0
6, 11044, 3,N0CALL,     0.00, 3,   boost,   46.40,  99918.00,  117.79,   -1.85,    5.29, 18.5, 4.10, 4.12, 4.11, -57.27,   4.23,  -1.74,  -1.09,   0.96,  -5.39,  -1.00,  -0.22,  -0.16,   1.60, 4.11, 0.01, 0.00, 0.00, 0.00, 1, 1, 12,  41.7771481, -86.5779843,   198.0, 2024,  3,  2, 16,  4, 42,        0,        0,   0,   0,   1.5,   0.7,   1.3,  0, 34,  0, 39,  0,  0, 17, 30, 32,  0,  0,  0,  0, 29,  0, 27,  0,  0,  0,  0, 32,  0,  0,  0,  0,  0, 26,  0,  0, 20,  0,  0
6, 11044, 3,N0CALL,     0.00, 3,   boost,   46.40,  99918.00,  117.79,   -1.85,    5.29, 18.5, 4.10, 4.12, 4.11, -57.27,   4.23,  -1.74,  -1.09,   0.96,  -5.39,  -1.00,  -0.22,  -0.16,   1.60, 4.11, 0.01, 0.00, 0.00, 0.00, 1, 1, 12,  41.7771481, -86.5779843,   198.0, 2024,  3,  2, 16,  4, 42,        0,        0,   0,   0,   1.5,   0.7,   1.3,  0, 34,  0, 39,  0,  0, 17, 30, 32,  0,  0,  0,  0, 29,  0, 27,  0,  0,  0,  0, 32,  0,  0,  0,  0,  0, 26,  0,  0, 20,  0,  0
6, 11044, 3,N0CALL,     0.00, 3,   boost,   46.40,  99918.00,  117.79,   -1.85,    5.29, 18.5, 4.10, 4.12, 4.11, -57.27,   4.23,  -1.74,  -1.09,   0.96,  -5.39,  -1.00,  -0.22,  -0.16,   1.60, 4.11, 0.01, 0.00, 0.00, 0.00, 1, 1, 12,  41.7771481, -86.5779843,   198.0, 2024,  3,  2, 16,  4, 42,        0,        0,   0,   0,   1.5,   0.7,   1.3,  0, 34,  0, 39,  0,  0, 17, 30, 32,  0,  0,  0,  0, 29,  0, 27,  0,  0,  0,  0, 32,  0,  0,  0,  0,  0, 26,  0,  0, 20,  0,  0
6, 11044, 3,N0CALL,     0.00, 3,   boost,   46.40,  99918.00,  117.79,   -1.85,    5.29, 18.5, 4.10, 4.12, 4.11, -57.27,   4.23,  -1.74,  -1.09,   0.96,  -5.39,  -1.00,  -0.22,  -0.16,   1.59, 4.11, 0.01, 0.00, 0.00, 0.00, 1, 1, 12,  41.7771481, -86.5779843,   198.0, 2024,  3,  2, 16,  4, 42,        0,        0,   0,   0,   1.5,   0.7,   1.3,  0, 34,  0, 39,  0,  0, 17, 30, 32,  0,  0,  0,  0, 29,  0, 27,  0,  0,  0,  0, 32,  0,  0,  0,  0,  0, 26,  0,  0, 20,  0,  0
6, 11044, 3,N0CALL,     0.00, 3,   boost,   46.40,  99918.00,  117.79,   -1.85,    5.29, 18.5, 4.10, 4.12, 4.11, -57.27,   4.23,  -1.74,  -1.09,   0.96,  -5.39,  -1.00,  -0.22,  -0.16,   1.59, 4.11, 0.01, 0.00, 0.00, 0.00, 1, 1, 12,  41.7771481, -86.5779843,   198.0, 2024,  3,  2, 16,  4, 42,        0,        0,   0,   0,   1.5,   0.7,   1.3,  0, 34,  0, 39,  0,  0, 17, 30, 32,  0,  0,  0,  0, 29,  0, 27,  0,  0,  0,  0, 32,  0,  0,  0,  0,  0, 26,  0,  0, 20,  0,  0
6, 11044, 3,N0CALL,     0.00, 3,   boost,   46.40,  99918.00,  117.79,   -1.85,    5.29, 18.5, 4.10, 4.12, 4.11, -57.27,   4.23,  -1.74,  -1.09,   0.96,  -5.39,  -1.00,  -0.22,  -0.16,   1.50, 4.11, 0.01, 0.00, 0.00, 0.00, 1, 1, 12,  41.7771481, -86.5779843,   198.0, 2024,  3,  2, 16,  4, 42,        0,        0,   0,   0,   1.5,   0.7,   1.3,  0, 34,  0, 39,  0,  0, 17, 30, 32,  0,  0,  0,  0, 29,  0, 27,  0,  0,  0,  0, 32,  0,  0,  0,  0,  0, 26,  0,  0, 20,  0,  0
6, 11044, 3,N0CALL,     0.00, 3,   boost,   46.40,  99918.00,  117.79,   -1.85,    5.29, 18.5, 4.10, 4.12, 4.11, -57.27,   4.23,  -1.74,  -1.09,   0.96,  -5.39,  -1.00,  -0.22,  -0.16,   1.48, 4.11, 0.01, 0.00, 0.00, 0.00, 1, 1, 12,  41.7771481, -86.5779843,   198.0, 2024,  3,  2, 16,  4, 42,        0,        0,   0,   0,   1.5,   0.7,   1.3,  0, 34,  0, 39,  0,  0, 17, 30, 32,  0,  0,  0,  0, 29,  0, 27,  0,  0,  0,  0, 32,  0,  0,  0,  0,  0, 26,  0,  0, 20,  0,  0
6, 11044, 3,N0CALL,     0.00, 3,   boost,   46.40,  99918.00,  117.79,   -1.85,    5.29, 18.5, 4.10, 4.12, 4.11, -57.27,   4.23,  -1.74,  -1.09,   0.96,  -5.39,  -1.00,  -0.22,  -0.16,   1.48, 4.11, 0.01, 0.00, 0.00, 0.00, 1, 1, 12,  41.7771481, -86.5779843,   198.0, 2024,  3,  2, 16,  4, 42,        0,        0,   0,   0,   1.5,   0.7,   1.3,  0, 34,  0, 39,  0,  0, 17, 30, 32,  0,  0,  0,  0, 29,  0, 27,  0,  0,  0,  0, 32,  0,  0,  0,  0,  0, 26,  0,  0, 20,  0,  0
6, 11044, 3,N0CALL,     0.00, 3,   boost,   46.40,  99918.00,  117.79,   -1.85,    5.29, 18.5, 4.10, 4.12, 4.11, -57.27,   4.23,  -1.74,  -1.09,   0.96,  -5.39,  -1.00,  -0.22,  -0.16,   1.48, 4.11, 0.01, 0.00, 0.00, 0.00, 1, 1, 12,  41.7771481, -86.5779843,   198.0, 2024,  3,  2, 16,  4, 42,        0,        0,   0,   0,   1.5,   0.7,   1.3,  0, 34,  0, 39,  0,  0, 17, 30, 32,  0,  0,  0,  0, 29,  0, 27,  0,  0,  0,  0, 32,  0,  0,  0,  0,  0, 26,  0,  0, 20,  0,  0
6, 11044, 3,N0CALL,     0.00, 3,   boost,   46.40,  99918.00,  117.79,   -1.85,    5.29, 18.5, 4.10, 4.12, 4.11, -57.27,   4.23,  -1.74,  -1.09,   0.96,  -5.39,  -1.00,  -0.22,  -0.16,   1.48, 4.11, 0.01, 0.00, 0.00, 0.00, 1, 1, 12,  41.7771481, -86.5779843,   198.0, 2024,  3,  2, 16,  4, 42,        0,        0,   0,   0,   1.5,   0.7,   1.3,  0, 34,  0, 39,  0,  0, 17, 30, 32,  0,  0,  0,  0, 29,  0, 27,  0,  0,  0,  0, 32,  0,  0,  0,  0,  0, 26,  0,  0, 20,  0,  0
6, 11044, 3,N0CALL,     0.00, 3,   boost,   46.40,  99918.00,  117.79,   -1.85,    5.29, 18.5, 4.10, 4.12, 4.11, -57.27,   4.23,  -1.74,  -1.09,   0.96,  -5.39,  -1.00,  -0.22,  -0.16,   1.49, 4.11, 0.01, 0.00, 0.00, 0.00, 1, 1, 12,  41.7771481, -86.5779843,   198.0, 2024,  3,  2, 16,  4, 42,        0,        0,   0,   0,   1.5,   0.7,   1.3,  0, 34,  0, 39,  0,  0, 17, 30, 32,  0,  0,  0,  0, 29,  0, 27,  0,  0,  0,  0, 32,  0,  0,  0,  0,  0, 26,  0,  0, 20,  0,  0
6, 11044, 3,N0CALL,     0.00, 3,   boost,   46.40,  99918.00,  117.79,   -1.85,    5.29, 18.5, 4.10, 4.12, 4.11, -57.27,   4.23,  -1.74,  -1.09,   0.96,  -5.39,  -1.00,  -0.22,  -0.16,   1.50, 4.11, 0.01, 0.00, 0.00, 0.00, 1, 1, 12,  41.7771481, -86.5779843,   198.0, 2024,  3,  2, 16,  4, 42,        0,        0,   0,   0,   1.5,   0.7,   1.3,  0, 34,  0, 39,  0,  0, 17, 30, 32,  0,  0,  0,  0, 29,  0, 27,  0,  0,  0,  0, 32,  0,  0,  0,  0,  0, 26,  0,  0, 20,  0,  0
6, 11044, 3,N0CALL,     0.00, 3,   boost,   46.40,  99918.00,  117.79,   -1.85,    5.29, 18.5, 4.10, 4.12, 4.11, -57.27,   4.23,  -1.74,  -1.09,   0.96,  -5.39,  -1.00,  -0.22,  -0.16,   1.50, 4.11, 0.01, 0.00, 0.00, 0.00, 1, 1, 12,  41.7771481, -86.5779843,   198.0, 2024,  3,  2, 16,  4, 42,        0,        0,   0,   0,   1.5,   0.7,   1.3,  0, 34,  0, 39,  0,  0, 17, 30, 32,  0,  0,  0,  0, 29,  0, 27,  0,  0,  0,  0, 32,  0,  0,  0,  0,  0, 26,  0,  0, 20,  0,  0
6, 11044, 3,N0CALL,     0.00, 3,   boost,   46.40,  99918.00,  117.79,   -1.85,    5.29, 18.5, 4.10, 4.12, 4.11, -57.27,   4.23,  -1.74,  -1.09,   0.96,  -5.39,  -1.00,  -0.22,  -0.16,   1.55, 4.11, 0.01, 0.00, 0.00, 0.00, 1, 1, 12,  41.7771481, -86.5779843,   198.0, 2024,  3,  2, 16,  4, 42,        0,        0,   0,   0,   1.5,   0.7,   1.3,  0, 34,  0, 39,  0,  0, 17, 30, 32,  0,  0,  0,  0, 29,  0, 27,  0,  0,  0,  0, 32,  0,  0,  0,  0,  0, 26,  0,  0, 20,  0,  0
6, 11044, 3,N0CALL,     0.00, 3,   boost,   46.40,  99918.00,  117.79,   -1.85,    5.29, 18.5, 4.10, 4.12, 4.11, -57.27,   4.23,  -1.74,  -1.09,   0.96,  -5.39,  -1.00,  -0.22,  -0.16,   1.57, 4.11, 0.01, 0.00, 0.00, 0.00, 1, 1, 12,  41.7771481, -86.5779843,   198.0, 2024,  3,  2, 16,  4, 42,        0,        0,   0,   0,   1.5,   0.7,   1.3,  0, 34,  0, 39,  0,  0, 17, 30, 32,  0,  0,  0,  0, 29,  0, 27,  0,  0,  0,  0, 32,  0,  0,  0,  0,  0, 26,  0,  0, 20,  0,  0
6, 11044, 3,N0CALL,     0.00, 3,   boost,   46.40,  99918.00,  117.79,   -1.85,    5.29, 18.5, 4.10, 4.12, 4.11, -57.27,   4.23,  -1.74,  -1.09,   0.96,  -5.39,  -1.00,  -0.22,  -0.16,   1.58, 4.11, 0.01, 0.00, 0.00, 0.00, 1, 1, 12,  41.7771481, -86.5779843,   198.0, 2024,  3,  2, 16,  4, 42,        0,        0,   0,   0,   1.5,   0.7,   1.3,  0, 34,  0, 39,  0,  0, 17, 30, 32,  0,  0,  0,  0, 29,  0, 27,  0,  0,  0,  0, 32,  0,  0,  0,  0,  0, 26,  0,  0, 20,  0,  0
6, 11044, 3,N0CALL,     0.00, 3,   boost,   46.40,  99918.00,  117.79,   -1.85,    5.29, 18.5, 4.10, 4.12, 4.11, -57.27,   4.23,  -1.74,  -1.09,   0.96,  -5.39,  -1.00,  -0.22,  -0.16,   1.59, 4.11, 0.01, 0.00, 0.00, 0.00, 1, 1, 12,  41.7771481, -86.5779843,   198.0, 2024,  3,  2, 16,  4, 42,        0,        0,   0,   0,   1.5,   0.7,   1.3,  0, 34,  0, 39,  0,  0, 17, 30, 32,  0,  0,  0,  0, 29,  0, 27,  0,  0,  0,  0, 32,  0,  0,  0,  0,  0, 26,  0,  0, 20,  0,  0
6, 11044, 3,N0CALL,     0.00, 3,   boost,   46.40,  99918.00,  117.79,   -1.85,    5.29, 18.5, 4.10, 4.12, 4.11, -57.27,   4.23,  -1.74,  -1.09,   0.96,  -5.39,  -1.00,  -0.22,  -0.16,   1.59, 4.11, 0.01, 0.00, 0.00, 0.00, 1, 1, 12,  41.7771481, -86.5779843,   198.0, 2024,  3,  2, 16,  4, 42,        0,        0,   0,   0,   1.5,   0.7,   1.3,  0, 34,  0, 39,  0,  0, 17, 30, 32,  0,  0,  0,  0, 29,  0, 27,  0,  0,  0,  0, 32,  0,  0,  0,  0,  0, 26,  0,  0, 20,  0,  0
6, 11044, 3,N0CALL,     0.00, 3,   boost,   46.40,  99918.00,  117.79,   -1.85,    5.29, 18.5, 4.10, 4.12, 4.11, -57.27,   4.23,  -1.74,  -1.09,   0.96,  -5.39,  -1.00,  -0.22,  -0.16,   1.61, 4.11, 0.01, 0.00, 0.00, 0.00, 1, 1, 12,  41.7771481, -86.5779843,   198.0, 2024,  3,  2, 16,  4, 42,        0,        0,   0,   0,   1.5,   0.7,   1.3,  0, 34,  0, 39,  0,  0, 17, 30, 32,  0,  0,  0,  0, 29,  0, 27,  0,  0,  0,  0, 32,  0,  0,  0,  0,  0, 26,  0,  0, 20,  0,  0
6, 11044, 3,N0CALL,     0.00, 3,   boost,   46.40,  99918.00,  117.79,   -1.85,    5.29, 18.5, 4.10, 4.12, 4.11, -57.27,   4.23,  -1.74,  -1.09,   0.96,  -5.39,  -1.00,  -0.22,  -0.16,   1.63, 4.11, 0.01, 0.00, 0.00, 0.00, 1, 1, 12,  41.7771481, -86.5779843,   198.0, 2024,  3,  2, 16,  4, 42,        0,        0,   0,   0,   1.5,   0.7,   1.3,  0, 34,  0, 39,  0,  0, 17, 30, 32,  0,  0,  0,  0, 29,  0, 27,  0,  0,  0,  0, 32,  0,  0,  0,  0,  0, 26,  0,  0, 20,  0,  0
6, 11044, 3,N0CALL,     0.00, 3,   boost,   46.40,  99918.00,  117.79,   -1.85,    5.29, 18.5, 4.10, 4.12, 4.11, -57.27,   4.23,  -1.74,  -1.09,   0.96,  -5.39,  -1.00,  -0.22,  -0.16,   1.62, 4.11, 0.01, 0.00, 0.00, 0.00, 1, 1, 12,  41.7771481, -86.5779843,   198.0, 2024,  3,  2, 16,  4, 42,        0,        0,   0,   0,   1.5,   0.7,   1.3,  0, 34,  0, 39,  0,  0, 17, 30, 32,  0,  0,  0,  0, 29,  0, 27,  0,  0,  0,  0, 32,  0,  0,  0,  0,  0, 26,  0,  0, 20,  0,  0
6, 11044, 3,N0CALL,     0.00, 3,   boost,   46.40,  99918.00,  117.79,   -1.85,    5.29, 18.5, 4.10, 4.12, 4.11, -57.27,   4.23,  -1.74,  -1.09,   0.96,  -5.39,  -1.00,  -0.22,  -0.16,   1.65, 4.11, 0.01, 0.00, 0.00, 0.00, 1, 1, 12,  41.7771481, -86.5779843,   198.0, 2024,  3,  2, 16,  4, 42,        0,        0,   0,   0,   1.5,   0.7,   1.3,  0, 34,  0, 39,  0,  0, 17, 30, 32,  0,  0,  0,  0, 29,  0, 27,  0,  0,  0,  0, 32,  0,  0,  0,  0,  0, 26,  0,  0, 20,  0,  0
6, 11044, 3,N0CALL,     0.01, 3,   boost,   46.40,  99883.00,  120.73,    1.09,    5.76, 18.5, 4.10, 4.12, 4.11, -57.01, -11.83,  -6.86,  16.55,   2.31,  -1.24,  -1.00,  -0.22,  -0.16,   1.65, 4.11, 0.01, 0.00, 0.00, 0.00, 1, 1, 12,  41.7771481, -86.5779843,   198.0, 2024,  3,  2, 16,  4, 42,        0,        0,   0,   0,   1.5,   0.7,   1.3,  0, 34,  0, 39,  0,  0, 17, 30, 32,  0,  0,  0,  0, 29,  0, 27,  0,  0,  0,  0, 32,  0,  0,  0,  0,  0, 26,  0,  0, 20,  0,  0
6, 11044, 3,N0CALL,     0.01, 3,   boost,   46.40,  99883.00,  120.73,    1.09,    5.76, 18.5, 4.10, 4.12, 4.11, -57.01, -11.83,  -6.86,  16.55,   2.31,  -1.24,  -1.00,  -0.22,  -0.16,   1.65, 4.11, 0.01, 0.00, 0.00, 0.00, 1, 1, 12,  41.7771481, -86.5779843,   198.0, 2024,  3,  2, 16,  4, 42,        0,        0,   0,   0,   1.5,   0.7,   1.3,  0, 34,  0, 39,  0,  0, 17, 30, 32,  0,  0,  0,  0, 29,  0, 27,  0,  0,  0,  0, 32,  0,  0,  0,  0,  0, 26,  0,  0, 20,  0,  0
6, 11044, 3,N0CALL,     0.02, 3,   boost,   47.84,  99883.00,  120.73,    1.09,    6.23, 18.5, 4.11, 4.11, 4.11, -57.76,   3.69,  -7.20,  -6.21,   1.21,  -4.60,  -1.00,  -0.23,  -0.16,   1.68, 4.13, 0.00, 0.01, 0.00, 0.00, 1, 1, 12,  41.7771481, -86.5779843,   198.0, 2024,  3,  2, 16,  4, 42,        0,        0,   0,   0,   1.5,   0.7,   1.3,  0, 34,  0, 39,  0,  0, 17, 30, 32,  0,  0,  0,  0, 29,  0, 27,  0,  0,  0,  0, 32,  0,  0,  0,  0,  0, 26,  0,  0, 20,  0,  0
6, 11044, 3,N0CALL,     0.02, 3,   boost,   47.84,  99883.00,  120.73,    1.09,    6.23, 18.5, 4.11, 4.11, 4.11, -57.76,   3.69,  -7.20,  -6.21,   1.21,  -4.60,  -1.00,  -0.23,  -0.16,   1.68, 4.13, 0.00, 0.01, 0.00, 0.00, 1, 1, 12,  41.7771481, -86.5779843,   198.0, 2024,  3,  2, 16,  4, 42,        0,        0,   0,   0,   1.5,   0.7,   1.3,  0, 34,  0, 39,  0,  0, 17, 30, 32,  0,  0,  0,  0, 29,  0, 27,  0,  0,  0,  0, 32,  0,  0,  0,  0,  0, 26,  0,  0, 20,  0,  0
6, 11044, 3,N0CALL,     0.03, 3,   boost,   49.27,  99892.00,  119.97,    0.34,    6.70, 18.5, 4.11, 4.11, 4.11, -58.13,  -0.24,   1.26, -15.73,   1.76,  -2.46,  -1.01,  -0.23,  -0.16,   1.69, 4.13, 0.00, 0.01, 0.00, 0.00, 1, 1, 12,  41.7771481, -86.5779843,   198.0, 2024,  3,  2, 16,  4, 42,        0,        0,   0,   0,   1.5,   0.7,   1.3,  0, 34,  0, 39,  0,  0, 17, 30, 32,  0,  0,  0,  0, 29,  0, 27,  0,  0,  0,  0, 32,  0,  0,  0,  0,  0, 26,  0,  0, 20,  0,  0
6, 11044, 3,N0CALL,     0.04, 3,   boost,   46.88,  99892.00,  119.97,    0.34,    7.18, 18.5, 4.11, 4.11, 4.11, -58.24,  -2.42,   2.91, -17.44,   1.94,  -4.90,  -1.01,  -0.23,  -0.16,   1.71, 4.13, 0.00, 0.01, 0.00, 0.00, 1, 1, 12,  41.7771481, -86.5779843,   198.0, 2024,  3,  2, 16,  4, 42,        0,        0,   0,   0,   1.5,   0.7,   1.3,  0, 34,  0, 39,  0,  0, 17, 30, 32,  0,  0,  0,  0, 29,  0, 27,  0,  0,  0,  0, 32,  0,  0,  0,  0,  0, 26,  0,  0, 20,  0,  0
6, 11044, 3,N0CALL,     0.05, 3,   boost,   46.40,  99873.00,  121.58,    1.94,    7.66, 18.5, 4.11, 4.11, 4.11, -58.99,  -0.35,   1.02, -10.67,  -0.32,  -3.86,  -1.01,  -0.23,  -0.16,   1.75, 4.13, 0.00, 0.01, 0.00, 0.00, 1, 1, 12,  41.7771481, -86.5779843,   198.0, 2024,  3,  2, 16,  4, 42,        0,        0,   0,   0,   1.5,   0.7,   1.3,  0, 34,  0, 39,  0,  0, 17, 30, 32,  0,  0,  0,  0, 29,  0, 27,  0,  0,  0,  0, 32,  0,  0,  0,  0,  0, 26,  0,  0, 20,  0,  0
6, 11044, 3,N0CALL,     0.06, 3,   boost,   49.27,  99873.00,  121.58,    1.94,    8.14, 18.5, 4.11, 4.11, 4.11, -59.08,  -3.05,  -5.53,  -6.09,   0.48,  -3.50,  -1.01,  -0.23,  -0.16,   1.77, 4.13, 0.00, 0.01, 0.00, 0.00, 1, 1, 12,  41.7771481, -86.5779843,   198.0, 2024,  3,  2, 16,  4, 42,        0,        0,   0,   0,   1.5,   0.7,   1.3,  0, 34,  0, 39,  0,  0, 17, 30, 32,  0,  0,  0,  0, 29,  0, 27,  0,  0,  0,  0, 32,  0,  0,  0,  0,  0, 26,  0,  0, 20,  0,  0
6, 11044, 3,N0CALL,     0.07, 3,   boost,   49.75,  99895.00,  119.72,    0.08,    8.62, 18.5, 4.11, 4.11, 4.11, -59.98,   0.62,  -1.43,  -3.53,   1.76,  -5.39,  -1.01,  -0.23,  -0.16,   1.81, 4.13, 0.00, 0.01, 0.00, 0.00, 1, 1, 12,  41.7771481, -86.5779843,   198.0, 2024,  3,  2, 16,  4, 42,        0,        0,   0,   0,   1.5,   0.7,   1.3,  0, 34,  0, 39,  0,  0, 17, 30, 32,  0,  0,  0,  0, 29,  0, 27,  0,  0,  0,  0, 32,  0,  0,  0,  0,  0, 26,  0,  0, 20,  0,  0
6, 11044, 3,N0CALL,     0.08, 3,   boost,   47.84,  99895.00,  119.72,    0.08,    9.11, 18.5, 4.11, 4.11, 4.11, -60.06,   1.05,  -5.29,   7.95,   0.66,  -4.72,  -1.01,  -0.23,  -0.16,   1.85, 4.13, 0.00, 0.01, 0.00, 0.00, 1, 1, 12,  41.7771481, -86.5779843,   198.0, 2024,  3,  2, 16,  4, 42,        0,        0,   0,   0,   1.5,   0.7,   1.3,  0, 34,  0, 39,  0,  0, 17, 30, 32,  0,  0,  0,  0, 29,  0, 27,  0,  0,  0,  0, 32,  0,  0,  0,  0,  0, 26,  0,  0, 20,  0,  0
6, 11044, 3,N0CALL,     0.09, 3,   boost,   49.75,  99871.00,  121.74,    2.11,    9.61, 18.5, 4.11, 4.11, 4.11, -60.18,  -0.93,  -3.20,  -2.12,   2.06,  -5.57,  -1.01,  -0.23,  -0.16,   1.88, 4.13, 0.00, 0.01, 0.00, 0.00, 1, 1, 12,  41.7771481, -86.5779843,   198.0, 2024,  3,  2, 16,  4, 42,        0,        0,   0,   0,   1.5,   0.7,   1.3,  0, 34,  0, 39,  0,  0, 17, 30, 32,  0,  0,  0,  0, 29,  0, 27,  0,  0,  0,  0, 32,  0,  0,  0,  0,  0, 26,  0,  0, 20,  0,  0
6, 11044, 3,N0CALL,     0.10, 3,   boost,   50.23,  99871.00,  121.74,    2.11,   10.10, 18.5, 4.11, 4.11, 4.11, -61.05,   1.17,  -1.33,  -4.69,   0.48,  -3.56,  -1.01,  -0.23,  -0.16,   1.91, 4.13, 0.00, 0.01, 0.00, 0.00, 1, 1, 12,  41.7771481, -86.5779843,   198.0, 2024,  3,  2, 16,  4, 42,        0,        0,   0,   0,   1.5,   0.7,   1.3,  0, 34,  0, 39,  0,  0, 17, 30, 32,  0,  0,  0,  0, 29,  0, 27,  0,  0,  0,  0, 32,  0,  0,  0,  0,  0, 26,  0,  0, 20,  0,  0
6, 11044, 3,N0CALL,     0.11, 3,   boost,   49.27,  99871.00,  121.74,    2.11,   10.60, 18.5, 4.11, 4.11, 4.11, -61.28,  -5.43,  -7.85, -18.60,   2.00,  -5.76,  -1.01,  -0.23,  -0.16,   1.95, 4.13, 0.00, 0.01, 0.00, 0.00, 1, 1, 12,  41.7771481, -86.5779843,   198.0, 2024,  3,  2, 16,  4, 42,        0,        0,   0,   0,   1.5,   0.7,   1.3,  0, 34,  0, 39,  0,  0, 17, 30, 32,  0,  0,  0,  0, 29,  0, 27,  0,  0,  0,  0, 32,  0,  0,  0,  0,  0, 26,  0,  0, 20,  0,  0
6, 11044, 3,N0CALL,     0.12, 3,   boost,   51.66,  99871.00,  121.74,    2.11,   11.11, 18.5, 4.11, 4.11, 4.11, -61.84,  -1.19,   0.85, -27.51,   1.45,  -5.51,  -1.01,  -0.23,  -0.16,   1.99, 4.13, 0.00, 0.01, 0.00, 0.00, 1, 1, 12,  41.7771481, -86.5779843,   198.0, 2024,  3,  2, 16,  4, 42,        0,        0,   0,   0,   1.5,   0.7,   1.3,  0, 34,  0, 39,  0,  0, 17, 30, 32,  0,  0,  0,  0, 29,  0, 27,  0,  0,  0,  0, 32,  0,  0,  0,  0,  0, 26,  0,  0, 20,  0,  0
6, 11044, 3,N0CALL,     0.13, 3,   boost,   51.19,  99880.00,  120.99,    1.35,   11.63, 18.5, 4.11, 4.11, 4.11, -62.35,  -1.46,   1.87, -33.86,   1.88,  -5.82,  -1.01,  -0.23,  -0.16,   2.04, 4.13, 0.00, 0.01, 0.00, 0.00, 1, 1, 12,  41.7771481, -86.5779843,   198.0, 2024,  3,  2, 16,  4, 42,        0,        0,   0,   0,   1.5,   0.7,   1.3,  0, 34,  0, 39,  0,  0, 17, 30, 32,  0,  0,  0,  0, 29,  0, 27,  0,  0,  0,  0, 32,  0,  0,  0,  0,  0, 26,  0,  0, 20,  0,  0
6, 11044, 3,N0CALL,     0.14, 3,   boost,   54.53,  99880.00,  120.99,    1.35,   12.14, 18.5, 4.11, 4.11, 4.11, -63.41,  -2.31,  -0.54, -32.15,   1.09,  -5.21,  -1.01,  -0.23,  -0.16,   2.08, 4.13, 0.00, 0.01, 0.00, 0.00, 1, 1, 12,  41.7771481, -86.5779843,   198.0, 2024,  3,  2, 16,  4, 42,        0,        0,   0,   0,   1.5,   0.7,   1.3,  0, 34,  0, 39,  0,  0, 17, 30, 32,  0,  0,  0,  0, 29,  0, 27,  0,  0,  0,  0, 32,  0,  0,  0,  0,  0, 26,  0,  0, 20,  0,  0
6, 11044, 3,N0CALL,     0.15, 3,   boost,   50.71,  99901.00,  119.22,   -0.42,   12.66, 18.5, 4.11, 4.11, 4.11, -63.88,   0.00,  -0.92, -17.38,   1.76,  -5.70,  -1.01,  -0.23,  -0.16,   2.12, 4.13, 0.00, 0.01, 0.00, 0.00, 1, 1, 12,  41.7771481, -86.5779843,   198.0, 2024,  3,  2, 16,  4, 42,        0,        0,   0,   0,   1.5,   0.7,   1.3,  0, 34,  0, 39,  0,  0, 17, 30, 32,  0,  0,  0,  0, 29,  0, 27,  0,  0,  0,  0, 32,  0,  0,  0,  0,  0, 26,  0,  0, 20,  0,  0
6, 11044, 3,N0CALL,     0.16, 3,   boost,   52.62,  99901.00,  119.22,   -0.42,   13.19, 18.5, 4.11, 4.11, 4.11, -64.44,   0.25,  -0.83,  -9.87,   1.09,  -5.70,  -1.01,  -0.23,  -0.16,   2.17, 4.13, 0.00, 0.01, 0.00, 0.00, 1, 1, 12,  41.7771481, -86.5779843,   198.0, 2024,  3,  2, 16,  4, 42,        0,        0,   0,   0,   1.5,   0.7,   1.3,  0, 34,  0, 39,  0,  0, 17, 30, 32,  0,  0,  0,  0, 29,  0, 27,  0,  0,  0,  0, 32,  0,  0,  0,  0,  0, 26,  0,  0, 20,  0,  0
6, 11044, 3,N0CALL,     0.17, 3,   boost,   51.66,  99889.00,  120.23,    0.59,   13.71, 18.5, 4.11, 4.11, 4.11, -64.15,  -0.48,  -4.41,  -7.31,   1.58,  -5.63,  -1.00,  -0.23,  -0.16,   2.22, 4.13, 0.00, 0.01, 0.00, 0.00, 1, 1, 12,  41.7771481, -86.5779843,   198.0, 2024,  3,  2, 16,  4, 42,        0,        0,   0,   0,   1.5,   0.7,   1.3,  0, 34,  0, 39,  0,  0, 17, 30, 32,  0,  0,  0,  0, 29,  0, 27,  0,  0,  0,  0, 32,  0,  0,  0,  0,  0, 26,  0,  0, 20,  0,  0
6, 11044, 3,N0CALL,     0.18, 3,   boost,   53.58,  99889.00,  120.23,    0.59,   14.24, 18.5, 4.11, 4.11, 4.11, -64.62,  -1.26,  -0.14, -14.82,   1.94,  -5.57,  -1.01,  -0.23,  -0.16,   2.26, 4.13, 0.00, 0.01, 0.00, 0.00, 1, 1, 12,  41.7771481, -86.5779843,   198.0, 2024,  3,  2, 16,  4, 42,        0,        0,   0,   0,   1.5,   0.7,   1.3,  0, 34,  0, 39,  0,  0, 17, 30, 32,  0,  0,  0,  0, 29,  0, 27,  0,  0,  0,  0, 32,  0,  0,  0,  0,  0, 26,  0,  0, 20,  0,  0
6, 11044, 3,N0CALL,     0.19, 3,   boost,   54.53,  99856.00,  123.01,    3.37,   14.78, 18.5, 4.11, 4.11, 4.11, -64.61,  -1.63,   5.45, -17.44,   2.80,  -6.06,  -1.01,  -0.23,  -0.16,   2.31, 4.13, 0.00, 0.01, 0.00, 0.00, 1, 1, 12,  41.7771481, -86.5779843,   198.0, 2024,  3,  2, 16,  4, 42,        0,        0,   0,   0,   1.5,   0.7,   1.3,  0, 34,  0, 39,  0,  0, 17, 30, 32,  0,  0,  0,  0, 29,  0, 27,  0,  0,  0,  0, 32,  0,  0,  0,  0,  0, 26,  0,  0, 20,  0,  0
6, 11044, 3,N0CALL,     0.20, 3,   boost,   54.06,  99856.00,  123.01,    3.37,   15.32, 18.5, 4.11, 4.11, 4.11, -65.11,   2.08,  -0.38,  -8.04,   0.90,  -6.12,  -1.01,  -0.23,  -0.16,   2.36, 4.13, 0.00, 0.01, 0.00, 0.00, 1, 1, 12,  41.7771481, -86.5779843,   198.0, 2024,  3,  2, 16,  4, 42,        0,        0,   0,   0,   1.5,   0.7,   1.3,  0, 34,  0, 39,  0,  0, 17, 30, 32,  0,  0,  0,  0, 29,  0, 27,  0,  0,  0,  0, 32,  0,  0,  0,  0,  0, 26,  0,  0, 20,  0,  0
6, 11044, 3,N0CALL,     0.21, 3,   boost,   55.01,  99854.00,  123.18,    3.54,   15.86, 18.5, 4.11, 4.11, 4.11, -65.71,   0.61,   1.47,  -4.99,   1.58,  -5.27,  -1.01,  -0.23,  -0.16,   2.40, 4.13, 0.00, 0.01, 0.00, 0.00, 1, 1, 12,  41.7771481, -86.5779843,   198.0, 2024,  3,  2, 16,  4, 42,        0,        0,   0,   0,   1.5,   0.7,   1.3,  0, 34,  0, 39,  0,  0, 17, 30, 32,  0,  0,  0,  0, 29,  0, 27,  0,  0,  0,  0, 32,  0,  0,  0,  0,  0, 26,  0,  0, 20,  0,  0
6, 11044, 3,N0CALL,     0.22, 3,   boost,   53.10,  99854.00,  123.18,    3.54,   16.40, 18.5, 4.11, 4.11, 4.11, -65.74,  -2.35,   0.49,  -3.53,   2.73,  -5.09,  -1.01,  -0.23,  -0.16,   2.44, 4.13, 0.00, 0.01, 0.00, 0.00, 1, 1, 12,  41.7771481, -86.5779843,   198.0, 2024,  3,  2, 16,  4, 42,        0,        0,   0,   0,   1.5,   0.7,   1.3,  0, 34,  0, 39,  0,  0, 17, 30, 32,  0,  0,  0,  0, 29,  0, 27,  0,  0,  0,  0, 32,  0,  0,  0,  0,  0, 26,  0,  0, 20,  0,  0
6, 11044, 3,N0CALL,     0.23, 3,   boost,   55.49,  99853.00,  123.26,    3.62,   16.95, 18.5, 4.11, 4.11, 4.11, -65.72,  -0.35,   1.96,  -0.96,   2.06,  -4.72,  -1.01,  -0.23,  -0.16,   2.48, 4.13, 0.00, 0.01, 0.00, 0.00, 1, 1, 12,  41.7771481, -86.5779843,   198.0, 2024,  3,  2, 16,  4, 42,        0,        0,   0,   0,   1.5,   0.7,   1.3,  0, 34,  0, 39,  0,  0, 17, 30, 32,  0,  0,  0,  0, 29,  0, 27,  0,  0,  0,  0, 32,  0,  0,  0,  0,  0, 26,  0,  0, 20,  0,  0
6, 11044, 3,N0CALL,     0.24, 3,   boost,   56.45,  99853.00,  123.26,    3.62,   17.50, 18.5, 4.11, 4.11, 4.11, -66.07,   0.13,   2.65,  -5.17,   0.90,  -6.00,  -1.00,  -0.23,  -0.16,   2.53, 4.13, 0.00, 0.01, 0.00, 0.00, 1, 1, 12,  41.7771481, -86.5779843,   198.0, 2024,  3,  2, 16,  4, 42,        0,        0,   0,   0,   1.5,   0.7,   1.3,  0, 34,  0, 39,  0,  0, 17, 30, 32,  0,  0,  0,  0, 29,  0, 27,  0,  0,  0,  0, 32,  0,  0,  0,  0,  0, 26,  0,  0, 20,  0,  0
6, 11044, 3,N0CALL,     0.25, 3,   boost,   55.01,  99862.00,  122.50,    2.86,   18.05, 18.5, 4.11, 4.11, 4.11, -66.42,   3.43,  -0.24, -11.16,  -0.19,  -6.06,  -1.00,  -0.23,  -0.16,   2.59, 4.13, 0.00, 0.01, 0.00, 0.00, 1, 1, 12,  41.7771481, -86.5779843,   198.0, 2024,  3,  2, 16,  4, 42,        0,        0,   0,   0,   1.5,   0.7,   1.3,  0, 34,  0, 39,  0,  0, 17, 30, 32,  0,  0,  0,  0, 29,  0, 27,  0,  0,  0,  0, 32,  0,  0,  0,  0,  0, 26,  0,  0, 20,  0,  0
6, 11044, 3,N0CALL,     0.26, 3,   boost,   54.06,  99862.00,  122.50,    2.86,   18.60, 18.5, 4.11, 4.11, 4.11, -67.25,   0.11,  -1.34, -12.38,   0.78,  -6.31,  -1.00,  -0.23,  -0.16,   2.65, 4.13, 0.00, 0.01, 0.00, 0.00, 1, 1, 12,  41.7771481, -86.5779843,   198.0, 2024,  3,  2, 16,  4, 42,        0,        0,   0,   0,   1.5,   0.7,   1.3,  0, 34,  0, 39,  0,  0, 17, 30, 32,  0,  0,  0,  0, 29,  0, 27,  0,  0,  0,  0, 32,  0,  0,  0,  0,  0, 26,  0,  0, 20,  0,  0
6, 11044, 3,N0CALL,     0.27, 3,   boost,   55.01,  99851.00,  123.43,    3.79,   19.16, 18.5, 4.11, 4.11, 4.11, -67.44,   0.94,  -0.14, -12.32,   0.42,  -7.22,  -1.00,  -0.23,  -0.16,   2.72, 4.13, 0.00, 0.01, 0.00, 0.00, 1, 1, 12,  41.7771481, -86.5779843,   198.0, 2024,  3,  2, 16,  4, 42,        0,        0,   0,   0,   1.5,   0.7,   1.3,  0, 34,  0, 39,  0,  0, 17, 30, 32,  0,  0,  0,  0, 29,  0, 27,  0,  0,  0,  0, 32,  0,  0,  0,  0,  0, 26,  0,  0, 20,  0,  0
6, 11044, 3,N0CALL,     0.28, 3,   boost,   57.40,  99851.00,  123.43,    3.79,   19.71, 18.5, 4.11, 4.11, 4.11, -67.69,   0.20,   1.91, -11.64,  -0.19,  -7.34,  -1.01,  -0.23,  -0.16,   2.79, 4.13, 0.00, 0.01, 0.00, 0.00, 1, 1, 12,  41.7771481, -86.5779843,   198.0, 2024,  3,  2, 16,  4, 42,        0,        0,   0,   0,   1.5,   0.7,   1.3,  0, 34,  0, 39,  0,  0, 17, 30, 32,  0,  0,  0,  0, 29,  0, 27,  0,  0,  0,  0, 32,  0,  0,  0,  0,  0, 26,  0,  0, 20,  0,  0
6, 11044, 3,N0CALL,     0.29, 3,   boost,   55.97,  99865.00,  122.25,    2.61,   20.28, 18.5, 4.11, 4.11, 4.11, -67.75,  -0.79,  -0.14, -11.95,  -1.17,  -7.83,  -1.01,  -0.23,  -0.16,   2.87, 4.13, 0.00, 0.01, 0.00, 0.00, 1, 1, 12,  41.7771481, -86.5779843,   198.0, 2024,  3,  2, 16,  4, 42,        0,        0,   0,   0,   1.5,   0.7,   1.3,  0, 34,  0, 39,  0,  0, 17, 30, 32,  0,  0,  0,  0, 29,  0, 27,  0,  0,  0,  0, 32,  0,  0,  0,  0,  0, 26,  0,  0, 20,  0,  0
6, 11044, 3,N0CALL,     0.30, 3,   boost,   57.40,  99865.00,  122.25,    2.61,   20.84, 18.5, 4.11, 4.11, 4.11, -67.58,   0.02,  -1.57, -11.83,  -0.81,  -8.14,  -1.00,  -0.23,  -0.16,   2.95, 4.13, 0.00, 0.01, 0.00, 0.00, 1, 1, 12,  41.7771481, -86.5779843,   198.0, 2024,  3,  2, 16,  4, 42,        0,        0,   0,   0,   1.5,   0.7,   1.3,  0, 34,  0, 39,  0,  0, 17, 30, 32,  0,  0,  0,  0, 29,  0, 27,  0,  0,  0,  0, 32,  0,  0,  0,  0,  0, 26,  0,  0, 20,  0,  0
6, 11044, 3,N0CALL,     0.31, 3,   boost,   57.40,  99863.00,  122.42,    2.78,   21.41, 18.5, 4.11, 4.11, 4.11, -68.11,   0.50,  -1.09, -11.83,  -1.05,  -8.50,  -1.01,  -0.23,  -0.16,   3.03, 4.13, 0.00, 0.01, 0.00, 0.00, 1, 1, 12,  41.7771481, -86.5779843,   198.0, 2024,  3,  2, 16,  4, 42,        0,        0,   0,   0,   1.5,   0.7,   1.3,  0, 34,  0, 39,  0,  0, 17, 30, 32,  0,  0,  0,  0, 29,  0, 27,  0,  0,  0,  0, 32,  0,  0,  0,  0,  0, 26,  0,  0, 20,  0,  0
6, 11044, 3,N0CALL,     0.32, 3,   boost,   56.45,  99863.00,  122.42,    2.78,   21.98, 18.5, 4.11, 4.11, 4.11, -68.17,   0.09,   0.61, -11.03,  -0.87,  -8.87,  -1.01,  -0.23,  -0.16,   3.12, 4.13, 0.00, 0.01, 0.00, 0.00, 1, 1, 12,  41.7771481, -86.5779843,   198.0, 2024,  3,  2, 16,  4, 42,        0,        0,   0,   0,   1.5,   0.7,   1.3,  0, 34,  0, 39,  0,  0, 17, 30, 32,  0,  0,  0,  0, 29,  0, 27,  0,  0,  0,  0, 32,  0,  0,  0,  0,  0, 26,  0,  0, 20,  0,  0
6, 11044, 3,N0CALL,     0.33, 3,   boost,   57.88,  99836.00,  124.69,    5.05,   22.55, 18.5, 4.11, 4.11, 4.11, -68.57,  -0.79,   0.78,  -9.94,  -1.60,  -8.93,  -1.01,  -0.24,  -0.16,   3.21, 4.13, 0.00, 0.01, 0.00, 0.00, 1, 1, 12,  41.7771481, -86.5779843,   198.0, 2024,  3,  2, 16,  4, 42,        0,        0,   0,   0,   1.5,   0.7,   1.3,  0, 34,  0, 39,  0,  0, 17, 30, 32,  0,  0,  0,  0, 29,  0, 27,  0,  0,  0,  0, 32,  0,  0,  0,  0,  0, 26,  0,  0, 20,  0,  0
6, 11044, 3,N0CALL,     0.34, 3,   boost,   55.49,  99836.00,  124.69,    5.05,   23.12, 18.5, 4.06, 4.07, 4.07, -68.85,  -0.80,  -0.42,  -9.69,  -2.21,  -9.60,  -1.01,  -0.24,  -0.16,   3.31, 4.06, 0.00, 0.00, 0.00, 0.00, 1, 1, 12,  41.7771481, -86.5779843,   198.0, 2024,  3,  2, 16,  4, 42,        0,        0,   0,   0,   1.5,   0.7,   1.3,  0, 34,  0, 39,  0,  0, 17, 30, 32,  0,  0,  0,  0, 29,  0, 27,  0,  0,  0,  0, 32,  0,  0,  0,  0,  0, 26,  0,  0, 20,  0,  0
6, 11044, 3,N0CALL,     0.34, 3,   boost,   55.49,  99836.00,  124.69,    5.05,   23.12, 18.5, 4.06, 4.07, 4.07, -68.85,  -0.80,  -0.42,  -9.69,  -2.21,  -9.60,  -1.01,  -0.24,  -0.16,   3.31, 4.06, 0.00, 0.00, 0.00, 0.00, 1, 1, 12,  41.7771481, -86.5779843,   198.0, 2024,  3,  2, 16,  4, 42,        0,        0,   0,   0,   1.5,   0.7,   1.3,  0, 34,  0, 39,  0,  0, 17, 30, 32,  0,  0,  0,  0, 29,  0, 27,  0,  0,  0,  0, 32,  0,  0,  0,  0,  0, 26,  0,  0, 20,  0,  0
6, 11044, 3,N0CALL,     0.35, 3,   boost,   57.40,  99826.00,  125.53,    5.90,   23.69, 18.5, 4.06, 4.07, 4.07, -68.93,   0.02,  -1.21,  -8.96,  -2.45,  -9.79,  -1.00,  -0.23,  -0.17,   3.41, 4.06, 0.00, 0.00, 0.00, 0.00, 1, 1, 12,  41.7771481, -86.5779843,   198.0, 2024,  3,  2, 16,  4, 42,        0,        0,   0,   0,   1.5,   0.7,   1.3,  0, 34,  0, 39,  0,  0, 17, 30, 32,  0,  0,  0,  0, 29,  0, 27,  0,  0,  0,  0, 32,  0,  0,  0,  0,  0, 26,  0,  0, 20,  0,  0
6, 11044, 3,N0CALL,     0.36, 3,   boost,   58.36,  99826.00,  125.53,    5.90,   24.26, 18.5, 4.06, 4.07, 4.07, -69.11,  -0.11,  -0.65,  -8.96,  -2.70, -10.09,  -1.00,  -0.23,  -0.17,   3.52, 4.06, 0.00, 0.00, 0.00, 0.00, 1, 1, 12,  41.7771481, -86.5779843,   198.0, 2024,  3,  2, 16,  4, 42,        0,        0,   0,   0,   1.5,   0.7,   1.3,  0, 34,  0, 39,  0,  0, 17, 30, 32,  0,  0,  0,  0, 29,  0, 27,  0,  0,  0,  0, 32,  0,  0,  0,  0,  0, 26,  0,  0, 20,  0,  0
6, 11044, 3,N0CALL,     0.37, 3,   boost,   56.93,  99837.00,  124.61,    4.97,   24.84, 18.5, 4.06, 4.07, 4.07, -69.52,  -0.73,   0.60,  -8.84,  -2.70,  -9.79,  -1.00,  -0.23,  -0.17,   3.62, 4.06, 0.00, 0.00, 0.00, 0.00, 1, 1, 12,  41.7771481, -86.5779843,   198.0, 2024,  3,  2, 16,  4, 42,        0,        0,   0,   0,   1.5,   0.7,   1.3,  0, 34,  0, 39,  0,  0, 17, 30, 32,  0,  0,  0,  0, 29,  0, 27,  0,  0,  0,  0, 32,  0,  0,  0,  0,  0, 26,  0,  0, 20,  0,  0
6, 11044, 3,N0CALL,     0.38, 3,   boost,   61.23,  99837.00,  124.61,    4.97,   25.43, 18.5, 4.06, 4.07, 4.07, -69.47,  -0.71,   0.45,  -8.78,  -3.43, -10.46,  -1.00,  -0.23,  -0.17,   3.73, 4.06, 0.00, 0.00, 0.00, 0.00, 1, 1, 12,  41.7771481, -86.5779843,   198.0, 2024,  3,  2, 16,  4, 42,        0,        0,   0,   0,   1.5,   0.7,   1.3,  0, 34,  0, 39,  0,  0, 17, 30, 32,  0,  0,  0,  0, 29,  0, 27,  0,  0,  0,  0, 32,  0,  0,  0,  0,  0, 26,  0,  0, 20,  0,  0
6, 11044, 3,N0CALL,     0.39, 3,   boost,   57.88,  99837.00,  124.61,    4.97,   26.01, 18.5, 4.06, 4.07, 4.07, -69.97,  -0.36,  -0.38, -10.24,  -3.67, -10.64,  -1.00,  -0.24,  -0.17,   3.84, 4.06, 0.00, 0.00, 0.00, 0.00, 1, 1, 12,  41.7771481, -86.5779843,   198.0, 2024,  3,  2, 16,  4, 42,        0,        0,   0,   0,   1.5,   0.7,   1.3,  0, 34,  0, 39,  0,  0, 17, 30, 32,  0,  0,  0,  0, 29,  0, 27,  0,  0,  0,  0, 32,  0,  0,  0,  0,  0, 26,  0,  0, 20,  0,  0
6, 11044, 3,N0CALL,     0.40, 3,   boost,   58.36,  99837.00,  124.61,    4.97,   26.60, 18.5, 4.06, 4.07, 4.07, -70.39,  -0.24,  -1.08, -11.89,  -3.98, -10.88,  -1.00,  -0.24,  -0.17,   3.95, 4.06, 0.00, 0.00, 0.00, 0.00, 1, 1, 12,  41.7771481, -86.5779843,   198.0, 2024,  3,  2, 16,  4, 42,        0,        0,   0,   0,   1.5,   0.7,   1.3,  0, 34,  0, 39,  0,  0, 17, 30, 32,  0,  0,  0,  0, 29,  0, 27,  0,  0,  0,  0, 32,  0,  0,  0,  0,  0, 26,  0,  0, 20,  0,  0
6, 11044, 3,N0CALL,     0.41, 3,   boost,   59.32,  99807.00,  127.14,    7.50,   27.18, 18.5, 4.06, 4.07, 4.07, -70.08,  -0.49,  -0.50, -13.54,  -4.41, -11.07,  -1.00,  -0.24,  -0.17,   4.07, 4.06, 0.00, 0.00, 0.00, 0.00, 1, 1, 12,  41.7771481, -86.5779843,   198.0, 2024,  3,  2, 16,  4, 42,        0,        0,   0,   0,   1.5,   0.7,   1.3,  0, 34,  0, 39,  0,  0, 17, 30, 32,  0,  0,  0,  0, 29,  0, 27,  0,  0,  0,  0, 32,  0,  0,  0,  0,  0, 26,  0,  0, 20,  0,  0
6, 11044, 3,N0CALL,     0.42, 3,   boost,   58.84,  99807.00,  127.14,    7.50,   27.76, 18.5, 4.06, 4.07, 4.07, -70.39,  -0.72,   0.40, -14.57,  -5.14, -11.37,  -1.00,  -0.24,  -0.17,   4.20, 4.06, 0.00, 0.00, 0.00, 0.00, 1, 1, 12,  41.7771481, -86.5779843,   198.0, 2024,  3,  2, 16,  4, 42,        0,        0,   0,   0,   1.5,   0.7,   1.3,  0, 34,  0, 39,  0,  0, 17, 30, 32,  0,  0,  0,  0, 29,  0, 27,  0,  0,  0,  0, 32,  0,  0,  0,  0,  0, 26,  0,  0, 20,  0,  0
6, 11044, 3,N0CALL,     0.43, 3,   boost,   56.93,  99815.00,  126.46,    6.82,   28.34, 18.5, 4.06, 4.07, 4.07, -70.69,  -0.46,  -0.04, -15.12,  -5.44, -11.74,  -1.00,  -0.24,  -0.17,   4.33, 4.06, 0.00, 0.00, 0.00, 0.00, 1, 1, 12,  41.7771481, -86.5779843,   198.0, 2024,  3,  2, 16,  4, 42,        0,        0,   0,   0,   1.5,   0.7,   1.3,  0, 34,  0, 39,  0,  0, 17, 30, 32,  0,  0,  0,  0, 29,  0, 27,  0,  0,  0,  0, 32,  0,  0,  0,  0,  0, 26,  0,  0, 20,  0,  0
6, 11044, 3,N0CALL,     0.44, 3,   boost,   57.88,  99815.00,  126.46,    6.82,   28.93, 18.5, 4.06, 4.07, 4.07, -71.07,   0.04,  -0.59, -16.04,  -5.93, -12.17,  -1.00,  -0.24,  -0.17,   4.46, 4.06, 0.00, 0.00, 0.00, 0.00, 1, 1, 12,  41.7771481, -86.5779843,   198.0, 2024,  3,  2, 16,  4, 42,        0,        0,   0,   0,   1.5,   0.7,   1.3,  0, 34,  0, 39,  0,  0, 17, 30, 32,  0,  0,  0,  0, 29,  0, 27,  0,  0,  0,  0, 32,  0,  0,  0,  0,  0, 26,  0,  0, 20,  0,  0
6, 11044, 3,N0CALL,     0.45, 3,   boost,   58.36,  99791.00,  128.48,    8.85,   29.51, 18.5, 4.06, 4.07, 4.07, -70.94,  -0.37,  -0.55, -16.34,  -5.87, -12.41,  -1.00,  -0.24,  -0.17,   4.60, 4.06, 0.00, 0.00, 0.00, 0.00, 1, 1, 12,  41.7771481, -86.5779843,   198.0, 2024,  3,  2, 16,  4, 42,        0,        0,   0,   0,   1.5,   0.7,   1.3,  0, 34,  0, 39,  0,  0, 17, 30, 32,  0,  0,  0,  0, 29,  0, 27,  0,  0,  0,  0, 32,  0,  0,  0,  0,  0, 26,  0,  0, 20,  0,  0
6, 11044, 3,N0CALL,     0.46, 3,   boost,   59.80,  99791.00,  128.48,    8.85,   30.09, 18.5, 4.06, 4.07, 4.07, -71.13,  -0.76,  -0.03, -16.89,  -6.48, -12.53,  -1.00,  -0.24,  -0.17,   4.74, 4.06, 0.00, 0.00, 0.00, 0.00, 1, 1, 12,  41.7771481, -86.5779843,   198.0, 2024,  3,  2, 16,  4, 42,        0,        0,   0,   0,   1.5,   0.7,   1.3,  0, 34,  0, 39,  0,  0, 17, 30, 32,  0,  0,  0,  0, 29,  0, 27,  0,  0,  0,  0, 32,  0,  0,  0,  0,  0, 26,  0,  0, 20,  0,  0
6, 11044, 3,N0CALL,     0.47, 3,   boost,   59.80,  99814.00,  126.55,    6.91,   30.68, 18.5, 4.06, 4.07, 4.07, -71.49,  -0.65,   0.33, -17.63,  -7.40, -12.84,  -1.00,  -0.24,  -0.18,   4.88, 4.06, 0.00, 0.00, 0.00, 0.00, 1, 1, 12,  41.7771481, -86.5779843,   198.0, 2024,  3,  2, 16,  4, 42,        0,        0,   0,   0,   1.5,   0.7,   1.3,  0, 34,  0, 39,  0,  0, 17, 30, 32,  0,  0,  0,  0, 29,  0, 27,  0,  0,  0,  0, 32,  0,  0,  0,  0,  0, 26,  0,  0, 20,  0,  0
6, 11044, 3,N0CALL,     0.48, 3,   boost,   58.36,  99814.00,  126.55,    6.91,   31.27, 18.5, 4.06, 4.07, 4.07, -71.59,  -0.26,  -0.01, -17.32,  -7.58, -13.51,  -1.00,  -0.24,  -0.18,   5.03, 4.06, 0.00, 0.00, 0.00, 0.00, 1, 1, 12,  41.7771481, -86.5779843,   198.0, 2024,  3,  2, 16,  4, 42,        0,        0,   0,   0,   1.5,   0.7,   1.3,  0, 34,  0, 39,  0,  0, 17, 30, 32,  0,  0,  0,  0, 29,  0, 27,  0,  0,  0,  0, 32,  0,  0,  0,  0,  0, 26,  0,  0, 20,  0,  0
6, 11044, 3,N0CALL,     0.49, 3,   boost,   60.28,  99784.00,  129.07,    9.44,   31.87, 18.5, 4.06, 4.07, 4.07, -71.92,  -0.22,  -0.47, -18.72,  -8.19, -13.45,  -1.00,  -0.24,  -0.18,   5.19, 4.06, 0.00, 0.00, 0.00, 0.00, 1, 1, 12,  41.7771481, -86.5779843,   198.0, 2024,  3,  2, 16,  4, 42,        0,        0,   0,   0,   1.5,   0.7,   1.3,  0, 34,  0, 39,  0,  0, 17, 30, 32,  0,  0,  0,  0, 29,  0, 27,  0,  0,  0,  0, 32,  0,  0,  0,  0,  0, 26,  0,  0, 20,  0,  0
6, 11044, 3,N0CALL,     0.50, 3,   boost,   59.80,  99784.00,  129.07,    9.44,   32.47, 18.5, 4.06, 4.07, 4.07, -72.04,  -0.78,  -0.23, -19.33,  -8.19, -13.81,  -1.00,  -0.25,  -0.18,   5.35, 4.06, 0.00, 0.00, 0.00, 0.00, 1, 1, 12,  41.7771481, -86.5779843,   198.0, 2024,  3,  2, 16,  4, 42,        0,        0,   0,   0,   1.5,   0.7,   1.3,  0, 34,  0, 39,  0,  0, 17, 30, 32,  0,  0,  0,  0, 29,  0, 27,  0,  0,  0,  0, 32,  0,  0,  0,  0,  0, 26,  0,  0, 20,  0,  0
6, 11044, 3,N0CALL,     0.51, 3,   boost,   63.15,  99788.00,  128.74,    9.10,   33.08, 18.5, 4.06, 4.07, 4.07, -72.18,  -0.90,   0.36, -20.01,  -8.74, -14.00,  -1.00,  -0.25,  -0.18,   5.51, 4.06, 0.00, 0.00, 0.00, 0.00, 1, 1, 12,  41.7771481, -86.5779843,   198.0, 2024,  3,  2, 16,  4, 42,        0,        0,   0,   0,   1.5,   0.7,   1.3,  0, 34,  0, 39,  0,  0, 17, 30, 32,  0,  0,  0,  0, 29,  0, 27,  0,  0,  0,  0, 32,  0,  0,  0,  0,  0, 26,  0,  0, 20,  0,  0
6, 11044, 3,N0CALL,     0.52, 3,   boost,   60.75,  99788.00,  128.74,    9.10,   33.68, 18.5, 4.06, 4.07, 4.07, -72.48,  -0.54,   0.37, -20.31,  -8.86, -14.42,  -0.99,  -0.24,  -0.18,   5.67, 4.06, 0.00, 0.00, 0.00, 0.00, 1, 1, 12,  41.7771481, -86.5779843,   198.0, 2024,  3,  2, 16,  4, 42,        0,        0,   0,   0,   1.5,   0.7,   1.3,  0, 34,  0, 39,  0,  0, 17, 30, 32,  0,  0,  0,  0, 29,  0, 27,  0,  0,  0,  0, 32,  0,  0,  0,  0,  0, 26,  0,  0, 20,  0,  0
6, 11044, 3,N0CALL,     0.53, 3,   boost,   62.19,  99781.00,  129.33,    9.69,   34.29, 18.5, 4.06, 4.07, 4.07, -73.00,  -0.42,  -0.02, -20.62,  -9.23, -14.55,  -0.99,  -0.24,  -0.18,   5.84, 4.06, 0.00, 0.00, 0.00, 0.00, 1, 1, 12,  41.7771481, -86.5779843,   198.0, 2024,  3,  2, 16,  4, 42,        0,        0,   0,   0,   1.5,   0.7,   1.3,  0, 34,  0, 39,  0,  0, 17, 30, 32,  0,  0,  0,  0, 29,  0, 27,  0,  0,  0,  0, 32,  0,  0,  0,  0,  0, 26,  0,  0, 20,  0,  0
6, 11044, 3,N0CALL,     0.54, 3,   boost,   60.75,  99781.00,  129.33,    9.69,   34.90, 18.5, 4.06, 4.07, 4.07, -73.06,  -0.93,  -0.04, -20.98,  -9.72, -14.55,  -1.00,  -0.25,  -0.18,   6.02, 4.06, 0.00, 0.00, 0.00, 0.00, 1, 1, 12,  41.7771481, -86.5779843,   198.0, 2024,  3,  2, 16,  4, 42,        0,        0,   0,   0,   1.5,   0.7,   1.3,  0, 34,  0, 39,  0,  0, 17, 30, 32,  0,  0,  0,  0, 29,  0, 27,  0,  0,  0,  0, 32,  0,  0,  0,  0,  0, 26,  0,  0, 20,  0,  0
6, 11044, 3,N0CALL,     0.55, 3,   boost,   60.28,  99753.00,  131.69,   12.05,   35.51, 18.5, 4.06, 4.07, 4.07, -72.99,  -0.98,   0.35, -21.72, -10.02, -14.73,  -1.00,  -0.25,  -0.18,   6.19, 4.06, 0.00, 0.00, 0.00, 0.00, 1, 1, 12,  41.7771481, -86.5779843,   198.0, 2024,  3,  2, 16,  4, 42,        0,        0,   0,   0,   1.5,   0.7,   1.3,  0, 34,  0, 39,  0,  0, 17, 30, 32,  0,  0,  0,  0, 29,  0, 27,  0,  0,  0,  0, 32,  0,  0,  0,  0,  0, 26,  0,  0, 20,  0,  0
