#version,serial,flight,call,time,state,state_name,acceleration,pressure,altitude,height,speed,temperature,drogue_voltage,main_voltage,battery_voltage,accel_x,accel_y,accel_z,gyro_roll,gyro_pitch,gyro_yaw,mag_x,mag_y,mag_z,tilt,pyro,igniter_a,igniter_b,igniter_c,igniter_d,connected,locked,nsat,latitude,longitude,altitude,year,month,day,hour,minute,second,pad_dist,pad_range,pad_az,pad_el,pdop,hdop,vdop,sat01,sat02,sat03,sat04,sat05,sat06,sat07,sat08,sat09,sat10,sat11,sat12,sat13,sat14,sat15,sat16,sat17,sat18,sat19,sat20,sat21,sat22,sat23,sat24,sat25,sat26,sat27,sat28,sat29,sat30,sat31,sat32
6, 11044, 4,N0CALL,    -0.30, 3,   boost,    0.48,  98929.00,  201.39,   -0.25,    0.00, 16.4, 4.11, 4.12, 4.12,  -9.92,   0.19,  -0.09,   2.42,   0.67,   1.65,  -1.04,   0.01,  -0.11,   2.20, 4.12, 0.00, 0.00, 0.01, 0.00, 1, 1,  9,  41.4881650, -89.4986969,   221.0, 2024,  3, 17, 18,  4, 37,        0,        0, 242,   0,   1.7,   0.9,   1.4,  0, 35,  0,  0,  0,  0, 40,  0,  0,  0,  0,  0, 34, 18, 38,  0, 29,  0, 36,  0, 32, 29,  0,  0,  0,  0,  0,  0,  0, 12,  0,  0
6, 11044, 4,N0CALL,    -0.29, 3,   boost,   -0.00,  98934.00,  200.96,   -0.68,    0.00, 16.4, 4.11, 4.12, 4.12,  -9.89,   0.26,  -0.05,   2.00,   0.86,   1.10,  -1.04,   0.01,  -0.11,   2.20, 4.12, 0.00, 0.00, 0.01, 0.00, 1, 1,  9,  41.4881650, -89.4986969,   221.0, 2024,  3, 17, 18,  4, 37,        0,        0, 242,   0,   1.7,   0.9,   1.4,  0, 35,  0,  0,  0,  0, 40,  0,  0,  0,  0,  0, 34, 18, 38,  0, 29,  0, 36,  0, 32, 29,  0,  0,  0,  0,  0,  0,  0, 12,  0,  0
6, 11044, 4,N0CALL,    -0.28, 3,   boost,   -0.00,  98934.00,  200.96,   -0.68,    0.00, 16.4, 4.11, 4.12, 4.12,  -9.80,   0.27,  -0.10,   1.75,   0.73,   1.47,  -1.04,   0.01,  -0.11,   2.20, 4.12, 0.00, 0.00, 0.01, 0.00, 1, 1,  9,  41.4881650, -89.4986969,   221.0, 2024,  3, 17, 18,  4, 37,        0,        0, 242,   0,   1.7,   0.9,   1.4,  0, 35,  0,  0,  0,  0, 40,  0,  0,  0,  0,  0, 34, 18, 38,  0, 29,  0, 36,  0, 32, 29,  0,  0,  0,  0,  0,  0,  0, 12,  0,  0
6, 11044, 4,N0CALL,    -0.27, 3,   boost,   -0.96,  98926.00,  201.64,    0.00,    0.00, 16.4, 4.11, 4.12, 4.12,  -9.82,   0.31,  -0.18,   1.69,   0.98,   1.41,  -1.04,   0.01,  -0.11,   2.20, 4.12, 0.00, 0.00, 0.01, 0.00, 1, 1,  9,  41.4881650, -89.4986969,   221.0, 2024,  3, 17, 18,  4, 37,        0,        0, 242,   0,   1.7,   0.9,   1.4,  0, 35,  0,  0,  0,  0, 40,  0,  0,  0,  0,  0, 34, 18, 38,  0, 29,  0, 36,  0, 32, 29,  0,  0,  0,  0,  0,  0,  0, 12,  0,  0
6, 11044, 4,N0CALL,    -0.26, 3,   boost,   -0.48,  98926.00,  201.64,    0.00,    0.00, 16.4, 4.11, 4.12, 4.12,  -9.84,   0.28,  -0.11,   1.81,   0.86,   1.22,  -1.04,   0.01,  -0.11,   2.20, 4.12, 0.00, 0.00, 0.01, 0.00, 1, 1,  9,  41.4881650, -89.4986969,   221.0, 2024,  3, 17, 18,  4, 37,        0,        0, 242,   0,   1.7,   0.9,   1.4,  0, 35,  0,  0,  0,  0, 40,  0,  0,  0,  0,  0, 34, 18, 38,  0, 29,  0, 36,  0, 32, 29,  0,  0,  0,  0,  0,  0,  0, 12,  0,  0
6, 11044, 4,N0CALL,    -0.25, 3,   boost,   -1.44,  98927.00,  201.56,   -0.08,    0.00, 16.4, 4.11, 4.12, 4.12,  -9.92,   0.37,  -0.05,   2.30,   0.61,   1.35,  -1.04,   0.01,  -0.11,   2.20, 4.12, 0.00, 0.00, 0.01, 0.00, 1, 1,  9,  41.4881650, -89.4986969,   221.0, 2024,  3, 17, 18,  4, 37,        0,        0, 242,   0,   1.7,   0.9,   1.4,  0, 35,  0,  0,  0,  0, 40,  0,  0,  0,  0,  0, 34, 18, 38,  0, 29,  0, 36,  0, 32, 29,  0,  0,  0,  0,  0,  0,  0, 12,  0,  0
6, 11044, 4,N0CALL,    -0.24, 3,   boost,   -0.00,  98927.00,  201.56,   -0.08,    0.00, 16.4, 4.11, 4.12, 4.12,  -9.92,   0.34,  -0.06,   2.24,   0.79,   1.22,  -1.04,   0.01,  -0.11,   2.20, 4.12, 0.00, 0.00, 0.01, 0.00, 1, 1,  9,  41.4881650, -89.4986969,   221.0, 2024,  3, 17, 18,  4, 37,        0,        0, 242,   0,   1.7,   0.9,   1.4,  0, 35,  0,  0,  0,  0, 40,  0,  0,  0,  0,  0, 34, 18, 38,  0, 29,  0, 36,  0, 32, 29,  0,  0,  0,  0,  0,  0,  0, 12,  0,  0
6, 11044, 4,N0CALL,    -0.23, 3,   boost,    0.96,  98931.00,  201.22,   -0.42,    0.00, 16.4, 4.11, 4.12, 4.12,  -9.98,   0.18,   0.05,   2.00,   0.73,   1.04,  -1.04,   0.01,  -0.11,   2.20, 4.12, 0.00, 0.00, 0.01, 0.00, 1, 1,  9,  41.4881650, -89.4986969,   221.0, 2024,  3, 17, 18,  4, 37,        0,        0, 242,   0,   1.7,   0.9,   1.4,  0, 35,  0,  0,  0,  0, 40,  0,  0,  0,  0,  0, 34, 18, 38,  0, 29,  0, 36,  0, 32, 29,  0,  0,  0,  0,  0,  0,  0, 12,  0,  0
6, 11044, 4,N0CALL,    -0.22, 3,   boost,   -1.44,  98931.00,  201.22,   -0.42,    0.00, 16.4, 4.11, 4.12, 4.12,  -9.80,   0.09,   0.06,   1.57,   1.22,   1.16,  -1.04,   0.01,  -0.11,   2.20, 4.12, 0.00, 0.00, 0.01, 0.00, 1, 1,  9,  41.4881652, -89.4986964,   221.0, 2024,  3, 17, 18,  4, 38,        0,        0,   0,   0,   1.7,   0.9,   1.4,  0, 35,  0,  0,  0,  0, 40,  0,  0,  0,  0,  0, 34, 18, 39,  0, 29,  0, 36,  0, 32, 29,  0,  0,  0,  0,  0,  0,  0,  9,  0,  0
6, 11044, 4,N0CALL,    -0.21, 3,   boost,   -0.96,  98919.00,  202.23,    0.59,    0.00, 16.4, 4.11, 4.12, 4.12,  -9.79,   0.05,   0.15,   1.14,   0.67,   1.10,  -1.04,   0.01,  -0.11,   2.20, 4.12, 0.00, 0.00, 0.01, 0.00, 1, 1,  9,  41.4881652, -89.4986964,   221.0, 2024,  3, 17, 18,  4, 38,        0,        0,   0,   0,   1.7,   0.9,   1.4,  0, 35,  0,  0,  0,  0, 40,  0,  0,  0,  0,  0, 34, 18, 39,  0, 29,  0, 36,  0, 32, 29,  0,  0,  0,  0,  0,  0,  0,  9,  0,  0
6, 11044, 4,N0CALL,    -0.20, 3,   boost,   -0.48,  98919.00,  202.23,    0.59,    0.00, 16.4, 4.11, 4.12, 4.12,  -9.77,   0.06,   0.05,   0.90,   0.92,   1.29,  -1.04,   0.01,  -0.11,   2.20, 4.12, 0.00, 0.00, 0.01, 0.00, 1, 1,  9,  41.4881652, -89.4986964,   221.0, 2024,  3, 17, 18,  4, 38,        0,        0,   0,   0,   1.7,   0.9,   1.4,  0, 35,  0,  0,  0,  0, 40,  0,  0,  0,  0,  0, 34, 18, 39,  0, 29,  0, 36,  0, 32, 29,  0,  0,  0,  0,  0,  0,  0,  9,  0,  0
6, 11044, 4,N0CALL,    -0.19, 3,   boost,   -2.39,  98923.00,  201.89,    0.25,    0.00, 16.4, 4.11, 4.12, 4.12,  -9.81,  -0.02,  -0.13,   1.26,   0.92,   1.10,  -1.04,   0.01,  -0.11,   2.20, 4.12, 0.00, 0.00, 0.01, 0.00, 1, 1,  9,  41.4881652, -89.4986964,   221.0, 2024,  3, 17, 18,  4, 38,        0,        0,   0,   0,   1.7,   0.9,   1.4,  0, 35,  0,  0,  0,  0, 40,  0,  0,  0,  0,  0, 34, 18, 39,  0, 29,  0, 36,  0, 32, 29,  0,  0,  0,  0,  0,  0,  0,  9,  0,  0
6, 11044, 4,N0CALL,    -0.18, 3,   boost,   -1.44,  98923.00,  201.89,    0.25,    0.00, 16.4, 4.11, 4.12, 4.12,  -9.91,   0.04,  -0.05,   1.57,   0.67,   0.86,  -1.04,   0.01,  -0.11,   2.20, 4.12, 0.00, 0.00, 0.01, 0.00, 1, 1,  9,  41.4881652, -89.4986964,   221.0, 2024,  3, 17, 18,  4, 38,        0,        0,   0,   0,   1.7,   0.9,   1.4,  0, 35,  0,  0,  0,  0, 40,  0,  0,  0,  0,  0, 34, 18, 39,  0, 29,  0, 36,  0, 32, 29,  0,  0,  0,  0,  0,  0,  0,  9,  0,  0
6, 11044, 4,N0CALL,    -0.17, 3,   boost,   -0.00,  98929.00,  201.39,   -0.25,    0.00, 16.4, 4.11, 4.12, 4.12,  -9.96,   0.14,  -0.02,   1.63,   0.73,   0.92,  -1.04,   0.01,  -0.11,   2.20, 4.12, 0.00, 0.00, 0.01, 0.00, 1, 1,  9,  41.4881652, -89.4986964,   221.0, 2024,  3, 17, 18,  4, 38,        0,        0,   0,   0,   1.7,   0.9,   1.4,  0, 35,  0,  0,  0,  0, 40,  0,  0,  0,  0,  0, 34, 18, 39,  0, 29,  0, 36,  0, 32, 29,  0,  0,  0,  0,  0,  0,  0,  9,  0,  0
6, 11044, 4,N0CALL,    -0.16, 3,   boost,   -0.96,  98929.00,  201.39,   -0.25,    0.00, 16.4, 4.11, 4.12, 4.12,  -9.94,   0.22,  -0.06,   0.84,   0.55,   0.68,  -1.04,   0.01,  -0.11,   2.20, 4.12, 0.00, 0.00, 0.01, 0.00, 1, 1,  9,  41.4881652, -89.4986964,   221.0, 2024,  3, 17, 18,  4, 38,        0,        0,   0,   0,   1.7,   0.9,   1.4,  0, 35,  0,  0,  0,  0, 40,  0,  0,  0,  0,  0, 34, 18, 39,  0, 29,  0, 36,  0, 32, 29,  0,  0,  0,  0,  0,  0,  0,  9,  0,  0
6, 11044, 4,N0CALL,    -0.15, 3,   boost,   -1.44,  98920.00,  202.15,    0.51,    0.00, 16.4, 4.11, 4.12, 4.12,  -9.90,   0.27,  -0.09,   0.41,   0.55,   0.61,  -1.04,   0.01,  -0.11,   2.20, 4.12, 0.00, 0.00, 0.01, 0.00, 1, 1,  9,  41.4881652, -89.4986964,   221.0, 2024,  3, 17, 18,  4, 38,        0,        0,   0,   0,   1.7,   0.9,   1.4,  0, 35,  0,  0,  0,  0, 40,  0,  0,  0,  0,  0, 34, 18, 39,  0, 29,  0, 36,  0, 32, 29,  0,  0,  0,  0,  0,  0,  0,  9,  0,  0
6, 11044, 4,N0CALL,    -0.14, 3,   boost,   -0.48,  98920.00,  202.15,    0.51,    0.00, 16.4, 4.11, 4.12, 4.12,  -9.84,   0.13,  -0.05,   0.17,   0.49,   0.37,  -1.04,   0.01,  -0.11,   2.20, 4.12, 0.00, 0.00, 0.01, 0.00, 1, 1,  9,  41.4881652, -89.4986964,   221.0, 2024,  3, 17, 18,  4, 38,        0,        0,   0,   0,   1.7,   0.9,   1.4,  0, 35,  0,  0,  0,  0, 40,  0,  0,  0,  0,  0, 34, 18, 39,  0, 29,  0, 36,  0, 32, 29,  0,  0,  0,  0,  0,  0,  0,  9,  0,  0
6, 11044, 4,N0CALL,    -0.13, 3,   boost,    1.91,  98915.00,  202.57,    0.93,    0.00, 16.4, 4.11, 4.12, 4.12,  -9.81,   0.05,   0.16,   0.59,   0.43,   0.31,  -1.04,   0.01,  -0.11,   2.20, 4.12, 0.00, 0.00, 0.01, 0.00, 1, 1,  9,  41.4881652, -89.4986964,   221.0, 2024,  3, 17, 18,  4, 38,        0,        0,   0,   0,   1.7,   0.9,   1.4,  0, 35,  0,  0,  0,  0, 40,  0,  0,  0,  0,  0, 34, 18, 39,  0, 29,  0, 36,  0, 32, 29,  0,  0,  0,  0,  0,  0,  0,  9,  0,  0
6, 11044, 4,N0CALL,    -0.12, 3,   boost,    0.96,  98915.00,  202.57,    0.93,    0.02, 16.4, 4.11, 4.12, 4.12,  -9.83,   0.00,   0.24,   0.84,   0.49,   0.31,  -1.04,   0.01,  -0.11,   2.20, 4.12, 0.00, 0.00, 0.01, 0.00, 1, 1,  9,  41.4881652, -89.4986964,   221.0, 2024,  3, 17, 18,  4, 38,        0,        0,   0,   0,   1.7,   0.9,   1.4,  0, 35,  0,  0,  0,  0, 40,  0,  0,  0,  0,  0, 34, 18, 39,  0, 29,  0, 36,  0, 32, 29,  0,  0,  0,  0,  0,  0,  0,  9,  0,  0
6, 11044, 4,N0CALL,    -0.11, 3,   boost,    0.96,  98926.00,  201.64,    0.00,    0.07, 16.4, 4.11, 4.12, 4.12,  -9.88,  -0.06,   0.21,   0.84,   0.49,  -0.18,  -1.04,   0.01,  -0.11,   2.20, 4.12, 0.00, 0.00, 0.01, 0.00, 1, 1,  9,  41.4881652, -89.4986964,   221.0, 2024,  3, 17, 18,  4, 38,        0,        0,   0,   0,   1.7,   0.9,   1.4,  0, 35,  0,  0,  0,  0, 40,  0,  0,  0,  0,  0, 34, 18, 39,  0, 29,  0, 36,  0, 32, 29,  0,  0,  0,  0,  0,  0,  0,  9,  0,  0
6, 11044, 4,N0CALL,    -0.10, 3,   boost,    4.78,  98926.00,  201.64,    0.00,    0.18, 16.4, 4.11, 4.12, 4.12,  -9.91,   0.01,   0.09,   0.41,   0.43,  -0.06,  -1.04,   0.01,  -0.11,   2.20, 4.12, 0.00, 0.00, 0.01, 0.00, 1, 1,  9,  41.4881652, -89.4986964,   221.0, 2024,  3, 17, 18,  4, 38,        0,        0,   0,   0,   1.7,   0.9,   1.4,  0, 35,  0,  0,  0,  0, 40,  0,  0,  0,  0,  0, 34, 18, 39,  0, 29,  0, 36,  0, 32, 29,  0,  0,  0,  0,  0,  0,  0,  9,  0,  0
6, 11044, 4,N0CALL,    -0.09, 3,   boost,   32.53,  98921.00,  202.06,    0.42,    0.38, 16.4, 4.11, 4.12, 4.12, -14.01,   0.18,  -0.79,   1.20,  -0.30,  -0.36,  -1.04,   0.01,  -0.11,   2.20, 4.12, 0.00, 0.00, 0.01, 0.00, 1, 1,  9,  41.4881652, -89.4986964,   221.0, 2024,  3, 17, 18,  4, 38,        0,        0,   0,   0,   1.7,   0.9,   1.4,  0, 35,  0,  0,  0,  0, 40,  0,  0,  0,  0,  0, 34, 18, 39,  0, 29,  0, 36,  0, 32, 29,  0,  0,  0,  0,  0,  0,  0,  9,  0,  0
6, 11044, 4,N0CALL,    -0.08, 3,   boost,   37.79,  98921.00,  202.06,    0.42,    0.67, 16.4, 4.11, 4.12, 4.12, -48.15,  -0.59,  -6.15,  21.16,   0.37,   0.68,  -1.04,   0.01,  -0.11,   2.20, 4.12, 0.00, 0.00, 0.01, 0.00, 1, 1,  9,  41.4881652, -89.4986964,   221.0, 2024,  3, 17, 18,  4, 38,        0,        0,   0,   0,   1.7,   0.9,   1.4,  0, 35,  0,  0,  0,  0, 40,  0,  0,  0,  0,  0, 34, 18, 39,  0, 29,  0, 36,  0, 32, 29,  0,  0,  0,  0,  0,  0,  0,  9,  0,  0
6, 11044, 4,N0CALL,    -0.07, 3,   boost,   54.53,  98930.00,  201.30,   -0.34,    1.07, 16.4, 4.11, 4.12, 4.12, -50.88,  -1.31,   7.77,  52.72,  -3.23,  -0.42,  -1.04,   0.00,  -0.12,   2.20, 4.12, 0.00, 0.00, 0.01, 0.00, 1, 1,  9,  41.4881652, -89.4986964,   221.0, 2024,  3, 17, 18,  4, 38,        0,        0,   0,   0,   1.7,   0.9,   1.4,  0, 35,  0,  0,  0,  0, 40,  0,  0,  0,  0,  0, 34, 18, 39,  0, 29,  0, 36,  0, 32, 29,  0,  0,  0,  0,  0,  0,  0,  9,  0,  0
6, 11044, 4,N0CALL,    -0.06, 3,   boost,   55.49,  98930.00,  201.30,   -0.34,    1.54, 16.4, 4.11, 4.12, 4.12, -65.28,   5.30, -14.21,  91.17,  -6.77,  -1.83,  -1.04,   0.00,  -0.12,   2.20, 4.12, 0.00, 0.00, 0.01, 0.00, 1, 1,  9,  41.4881652, -89.4986964,   221.0, 2024,  3, 17, 18,  4, 38,        0,        0,   0,   0,   1.7,   0.9,   1.4,  0, 35,  0,  0,  0,  0, 40,  0,  0,  0,  0,  0, 34, 18, 39,  0, 29,  0, 36,  0, 32, 29,  0,  0,  0,  0,  0,  0,  0,  9,  0,  0
6, 11044, 4,N0CALL,    -0.05, 3,   boost,   54.06,  98921.00,  202.06,    0.42,    2.06, 16.4, 4.11, 4.12, 4.12, -68.09,  -4.17,   3.20, 103.50,  -1.40,  -0.30,  -1.04,  -0.00,  -0.12,   2.20, 4.12, 0.00, 0.00, 0.01, 0.00, 1, 1,  9,  41.4881652, -89.4986964,   221.0, 2024,  3, 17, 18,  4, 38,        0,        0,   0,   0,   1.7,   0.9,   1.4,  0, 35,  0,  0,  0,  0, 40,  0,  0,  0,  0,  0, 34, 18, 39,  0, 29,  0, 36,  0, 32, 29,  0,  0,  0,  0,  0,  0,  0,  9,  0,  0
6, 11044, 4,N0CALL,    -0.04, 3,   boost,   55.01,  98921.00,  202.06,    0.42,    2.60, 16.4, 4.11, 4.12, 4.12, -64.82,  -3.36, -14.69,  80.12,   0.49,  -0.91,  -1.04,  -0.00,  -0.12,   2.20, 4.12, 0.00, 0.00, 0.01, 0.00, 1, 1,  9,  41.4881652, -89.4986964,   221.0, 2024,  3, 17, 18,  4, 38,        0,        0,   0,   0,   1.7,   0.9,   1.4,  0, 35,  0,  0,  0,  0, 40,  0,  0,  0,  0,  0, 34, 18, 39,  0, 29,  0, 36,  0, 32, 29,  0,  0,  0,  0,  0,  0,  0,  9,  0,  0
6, 11044, 4,N0CALL,    -0.03, 3,   boost,   55.01,  98930.00,  201.30,   -0.34,    3.15, 16.4, 4.11, 4.12, 4.12, -64.10,   1.15,   1.98,  58.51,   4.33,  -2.07,  -1.04,  -0.00,  -0.13,   2.20, 4.12, 0.00, 0.00, 0.01, 0.00, 1, 1,  9,  41.4881652, -89.4986964,   221.0, 2024,  3, 17, 18,  4, 38,        0,        0,   0,   0,   1.7,   0.9,   1.4,  0, 35,  0,  0,  0,  0, 40,  0,  0,  0,  0,  0, 34, 18, 39,  0, 29,  0, 36,  0, 32, 29,  0,  0,  0,  0,  0,  0,  0,  9,  0,  0
6, 11044, 4,N0CALL,    -0.02, 3,   boost,   56.45,  98930.00,  201.30,   -0.34,    3.71, 16.4, 4.11, 4.12, 4.12, -65.10,  -3.33,   0.85,  42.22,   5.62,  -2.25,  -1.03,  -0.00,  -0.12,   2.20, 4.12, 0.00, 0.00, 0.01, 0.00, 1, 1,  9,  41.4881652, -89.4986964,   221.0, 2024,  3, 17, 18,  4, 38,        0,        0,   0,   0,   1.7,   0.9,   1.4,  0, 35,  0,  0,  0,  0, 40,  0,  0,  0,  0,  0, 34, 18, 39,  0, 29,  0, 36,  0, 32, 29,  0,  0,  0,  0,  0,  0,  0,  9,  0,  0
6, 11044, 4,N0CALL,    -0.01, 3,   boost,   57.88,  98907.00,  203.25,    1.61,    4.28, 16.4, 4.11, 4.12, 4.12, -65.55,   2.28,  15.35,  29.83,   4.15,  -3.23,  -1.03,  -0.00,  -0.12,   2.20, 4.12, 0.00, 0.00, 0.01, 0.00, 1, 1,  9,  41.4881652, -89.4986964,   221.0, 2024,  3, 17, 18,  4, 38,        0,        0,   0,   0,   1.7,   0.9,   1.4,  0, 35,  0,  0,  0,  0, 40,  0,  0,  0,  0,  0, 34, 18, 39,  0, 29,  0, 36,  0, 32, 29,  0,  0,  0,  0,  0,  0,  0,  9,  0,  0
6, 11044, 4,N0CALL,     0.00, 3,   boost,   57.40,  98907.00,  203.25,    1.61,    4.85, 16.4, 4.11, 4.12, 4.12, -69.60,   3.58,  -2.61,  23.72,  -3.78,  -2.50,  -1.03,  -0.01,  -0.13,   2.20, 4.12, 0.00, 0.00, 0.01, 0.00, 1, 1,  9,  41.4881652, -89.4986964,   221.0, 2024,  3, 17, 18,  4, 38,        0,        0,   0,   0,   1.7,   0.9,   1.4,  0, 35,  0,  0,  0,  0, 40,  0,  0,  0,  0,  0, 34, 18, 39,  0, 29,  0, 36,  0, 32, 29,  0,  0,  0,  0,  0,  0,  0,  9,  0,  0
6, 11044, 4,N0CALL,     0.00, 3,   boost,   57.40,  98907.00,  203.25,    1.61,    4.85, 16.4, 4.11, 4.12, 4.12, -69.60,   3.58,  -2.61,  23.72,  -3.78,  -2.50,  -1.03,  -0.01,  -0.13,   2.20, 4.12, 0.00, 0.00, 0.01, 0.00, 1, 1,  9,  41.4881652, -89.4986964,   221.0, 2024,  3, 17, 18,  4, 38,        0,        0,   0,   0,   1.7,   0.9,   1.4,  0, 35,  0,  0,  0,  0, 40,  0,  0,  0,  0,  0, 34, 18, 39,  0, 29,  0, 36,  0, 32, 29,  0,  0,  0,  0,  0,  0,  0,  9,  0,  0
6, 11044, 4,N0CALL,     0.00, 3,   boost,   57.40,  98907.00,  203.25,    1.61,    4.85, 16.4, 4.11, 4.12, 4.12, -69.60,   3.58,  -2.61,  23.72,  -3.78,  -2.50,  -1.03,  -0.01,  -0.13,   2.20, 4.12, 0.00, 0.00, 0.01, 0.00, 1, 1,  9,  41.4881652, -89.4986964,   221.0, 2024,  3, 17, 18,  4, 38,        0,        0,   0,   0,   1.7,   0.9,   1.4,  0, 35,  0,  0,  0,  0, 40,  0,  0,  0,  0,  0, 34, 18, 39,  0, 29,  0, 36,  0, 32, 29,  0,  0,  0,  0,  0,  0,  0,  9,  0,  0
6, 11044, 4,N0CALL,     0.00, 3,   boost,   57.40,  98907.00,  203.25,    1.61,    4.85, 16.4, 4.11, 4.12, 4.12, -69.60,   3.58,  -2.61,  23.72,  -3.78,  -2.50,  -1.03,  -0.01,  -0.13,   2.20, 4.12, 0.00, 0.00, 0.01, 0.00, 1, 1,  9,  41.4881652, -89.4986964,   221.0, 2024,  3, 17, 18,  4, 38,        0,        0,   0,   0,   1.7,   0.9,   1.4,  0, 35,  0,  0,  0,  0, 40,  0,  0,  0,  0,  0, 34, 18, 39,  0, 29,  0, 36,  0, 32, 29,  0,  0,  0,  0,  0,  0,  0,  9,  0,  0
6, 11044, 4,N0CALL,     0.00, 3,   boost,   57.40,  98907.00,  203.25,    1.61,    4.85, 16.4, 4.11, 4.12, 4.12, -69.60,   3.58,  -2.61,  23.72,  -3.78,  -2.50,  -1.03,  -0.01,  -0.13,   2.20, 4.12, 0.00, 0.00, 0.01, 0.00, 1, 1,  9,  41.4881652, -89.4986964,   221.0, 2024,  3, 17, 18,  4, 38,        0,        0,   0,   0,   1.7,   0.9,   1.4,  0, 35,  0,  0,  0,  0, 40,  0,  0,  0,  0,  0, 34, 18, 39,  0, 29,  0, 36,  0, 32, 29,  0,  0,  0,  0,  0,  0,  0,  9,  0,  0
6, 11044, 4,N0CALL,     0.00, 3,   boost,   57.40,  98907.00,  203.25,    1.61,    4.85, 16.4, 4.11, 4.12, 4.12, -69.60,   3.58,  -2.61,  23.72,  -3.78,  -2.50,  -1.03,  -0.01,  -0.13,   2.19, 4.12, 0.00, 0.00, 0.01, 0.00, 1, 1,  9,  41.4881652, -89.4986964,   221.0, 2024,  3, 17, 18,  4, 38,        0,        0,   0,   0,   1.7,   0.9,   1.4,  0, 35,  0,  0,  0,  0, 40,  0,  0,  0,  0,  0, 34, 18, 39,  0, 29,  0, 36,  0, 32, 29,  0,  0,  0,  0,  0,  0,  0,  9,  0,  0
6, 11044, 4,N0CALL,     0.00, 3,   boost,   57.40,  98907.00,  203.25,    1.61,    4.85, 16.4, 4.11, 4.12, 4.12, -69.60,   3.58,  -2.61,  23.72,  -3.78,  -2.50,  -1.03,  -0.01,  -0.13,   2.18, 4.12, 0.00, 0.00, 0.01, 0.00, 1, 1,  9,  41.4881652, -89.4986964,   221.0, 2024,  3, 17, 18,  4, 38,        0,        0,   0,   0,   1.7,   0.9,   1.4,  0, 35,  0,  0,  0,  0, 40,  0,  0,  0,  0,  0, 34, 18, 39,  0, 29,  0, 36,  0, 32, 29,  0,  0,  0,  0,  0,  0,  0,  9,  0,  0
6, 11044, 4,N0CALL,     0.00, 3,   boost,   57.40,  98907.00,  203.25,    1.61,    4.85, 16.4, 4.11, 4.12, 4.12, -69.60,   3.58,  -2.61,  23.72,  -3.78,  -2.50,  -1.03,  -0.01,  -0.13,   2.16, 4.12, 0.00, 0.00, 0.01, 0.00, 1, 1,  9,  41.4881652, -89.4986964,   221.0, 2024,  3, 17, 18,  4, 38,        0,        0,   0,   0,   1.7,   0.9,   1.4,  0, 35,  0,  0,  0,  0, 40,  0,  0,  0,  0,  0, 34, 18, 39,  0, 29,  0, 36,  0, 32, 29,  0,  0,  0,  0,  0,  0,  0,  9,  0,  0
6, 11044, 4,N0CALL,     0.00, 3,   boost,   57.40,  98907.00,  203.25,    1.61,    4.85, 16.4, 4.11, 4.12, 4.12, -69.60,   3.58,  -2.61,  23.72,  -3.78,  -2.50,  -1.03,  -0.01,  -0.13,   2.15, 4.12, 0.00, 0.00, 0.01, 0.00, 1, 1,  9,  41.4881652, -89.4986964,   221.0, 2024,  3, 17, 18,  4, 38,        0,        0,   0,   0,   1.7,   0.9,   1.4,  0, 35,  0,  0,  0,  0, 40,  0,  0,  0,  0,  0, 34, 18, 39,  0, 29,  0, 36,  0, 32, 29,  0,  0,  0,  0,  0,  0,  0,  9,  0,  0
6, 11044, 4,N0CALL,     0.00, 3,   boost,   57.40,  98907.00,  203.25,    1.61,    4.85, 16.4, 4.11, 4.12, 4.12, -69.60,   3.58,  -2.61,  23.72,  -3.78,  -2.50,  -1.03,  -0.01,  -0.13,   2.13, 4.12, 0.00, 0.00, 0.01, 0.00, 1, 1,  9,  41.4881652, -89.4986964,   221.0, 2024,  3, 17, 18,  4, 38,        0,        0,   0,   0,   1.7,   0.9,   1.4,  0, 35,  0,  0,  0,  0, 40,  0,  0,  0,  0,  0, 34, 18, 39,  0, 29,  0, 36,  0, 32, 29,  0,  0,  0,  0,  0,  0,  0,  9,  0,  0
6, 11044, 4,N0CALL,     0.00, 3,   boost,   57.40,  98907.00,  203.25,    1.61,    4.85, 16.4, 4.11, 4.12, 4.12, -69.60,   3.58,  -2.61,  23.72,  -3.78,  -2.50,  -1.03,  -0.01,  -0.13,   2.12, 4.12, 0.00, 0.00, 0.01, 0.00, 1, 1,  9,  41.4881652, -89.4986964,   221.0, 2024,  3, 17, 18,  4, 38,        0,        0,   0,   0,   1.7,   0.9,   1.4,  0, 35,  0,  0,  0,  0, 40,  0,  0,  0,  0,  0, 34, 18, 39,  0, 29,  0, 36,  0, 32, 29,  0,  0,  0,  0,  0,  0,  0,  9,  0,  0
6, 11044, 4,N0CALL,     0.00, 3,   boost,   57.40,  98907.00,  203.25,    1.61,    4.85, 16.4, 4.11, 4.12, 4.12, -69.60,   3.58,  -2.61,  23.72,  -3.78,  -2.50,  -1.03,  -0.01,  -0.13,   2.11, 4.12, 0.00, 0.00, 0.01, 0.00, 1, 1,  9,  41.4881652, -89.4986964,   221.0, 2024,  3, 17, 18,  4, 38,        0,        0,   0,   0,   1.7,   0.9,   1.4,  0, 35,  0,  0,  0,  0, 40,  0,  0,  0,  0,  0, 34, 18, 39,  0, 29,  0, 36,  0, 32, 29,  0,  0,  0,  0,  0,  0,  0,  9,  0,  0
6, 11044, 4,N0CALL,     0.00, 3,   boost,   57.40,  98907.00,  203.25,    1.61,    4.85, 16.4, 4.11, 4.12, 4.12, -69.60,   3.58,  -2.61,  23.72,  -3.78,  -2.50,  -1.03,  -0.01,  -0.13,   2.11, 4.12, 0.00, 0.00, 0.01, 0.00, 1, 1,  9,  41.4881652, -89.4986964,   221.0, 2024,  3, 17, 18,  4, 38,        0,        0,   0,   0,   1.7,   0.9,   1.4,  0, 35,  0,  0,  0,  0, 40,  0,  0,  0,  0,  0, 34, 18, 39,  0, 29,  0, 36,  0, 32, 29,  0,  0,  0,  0,  0,  0,  0,  9,  0,  0
6, 11044, 4,N0CALL,     0.00, 3,   boost,   57.40,  98907.00,  203.25,    1.61,    4.85, 16.4, 4.11, 4.12, 4.12, -69.60,   3.58,  -2.61,  23.72,  -3.78,  -2.50,  -1.03,  -0.01,  -0.13,   2.11, 4.12, 0.00, 0.00, 0.01, 0.00, 1, 1,  9,  41.4881652, -89.4986964,   221.0, 2024,  3, 17, 18,  4, 38,        0,        0,   0,   0,   1.7,   0.9,   1.4,  0, 35,  0,  0,  0,  0, 40,  0,  0,  0,  0,  0, 34, 18, 39,  0, 29,  0, 36,  0, 32, 29,  0,  0,  0,  0,  0,  0,  0,  9,  0,  0
6, 11044, 4,N0CALL,     0.00, 3,   boost,   57.40,  98907.00,  203.25,    1.61,    4.85, 16.4, 4.11, 4.12, 4.12, -69.60,   3.58,  -2.61,  23.72,  -3.78,  -2.50,  -1.03,  -0.01,  -0.13,   2.09, 4.12, 0.00, 0.00, 0.01, 0.00, 1, 1,  9,  41.4881652, -89.4986964,   221.0, 2024,  3, 17, 18,  4, 38,        0,        0,   0,   0,   1.7,   0.9,   1.4,  0, 35,  0,  0,  0,  0, 40,  0,  0,  0,  0,  0, 34, 18, 39,  0, 29,  0, 36,  0, 32, 29,  0,  0,  0,  0,  0,  0,  0,  9,  0,  0
6, 11044, 4,N0CALL,     0.00, 3,   boost,   57.40,  98907.00,  203.25,    1.61,    4.85, 16.4, 4.11, 4.12, 4.12, -69.60,   3.58,  -2.61,  23.72,  -3.78,  -2.50,  -1.03,  -0.01,  -0.13,   2.08, 4.12, 0.00, 0.00, 0.01, 0.00, 1, 1,  9,  41.4881652, -89.4986964,   221.0, 2024,  3, 17, 18,  4, 38,        0,        0,   0,   0,   1.7,   0.9,   1.4,  0, 35,  0,  0,  0,  0, 40,  0,  0,  0,  0,  0, 34, 18, 39,  0, 29,  0, 36,  0, 32, 29,  0,  0,  0,  0,  0,  0,  0,  9,  0,  0
6, 11044, 4,N0CALL,     0.00, 3,   boost,   57.40,  98907.00,  203.25,    1.61,    4.85, 16.4, 4.11, 4.12, 4.12, -69.60,   3.58,  -2.61,  23.72,  -3.78,  -2.50,  -1.03,  -0.01,  -0.13,   2.07, 4.12, 0.00, 0.00, 0.01, 0.00, 1, 1,  9,  41.4881652, -89.4986964,   221.0, 2024,  3, 17, 18,  4, 38,        0,        0,   0,   0,   1.7,   0.9,   1.4,  0, 35,  0,  0,  0,  0, 40,  0,  0,  0,  0,  0, 34, 18, 39,  0, 29,  0, 36,  0, 32, 29,  0,  0,  0,  0,  0,  0,  0,  9,  0,  0
6, 11044, 4,N0CALL,     0.00, 3,   boost,   57.40,  98907.00,  203.25,    1.61,    4.85, 16.4, 4.11, 4.12, 4.12, -69.60,   3.58,  -2.61,  23.72,  -3.78,  -2.50,  -1.03,  -0.01,  -0.13,   2.06, 4.12, 0.00, 0.00, 0.01, 0.00, 1, 1,  9,  41.4881652, -89.4986964,   221.0, 2024,  3, 17, 18,  4, 38,        0,        0,   0,   0,   1.7,   0.9,   1.4,  0, 35,  0,  0,  0,  0, 40,  0,  0,  0,  0,  0, 34, 18, 39,  0, 29,  0, 36,  0, 32, 29,  0,  0,  0,  0,  0,  0,  0,  9,  0,  0
6, 11044, 4,N0CALL,     0.00, 3,   boost,   57.40,  98907.00,  203.25,    1.61,    4.85, 16.4, 4.11, 4.12, 4.12, -69.60,   3.58,  -2.61,  23.72,  -3.78,  -2.50,  -1.03,  -0.01,  -0.13,   2.05, 4.12, 0.00, 0.00, 0.01, 0.00, 1, 1,  9,  41.4881652, -89.4986964,   221.0, 2024,  3, 17, 18,  4, 38,        0,        0,   0,   0,   1.7,   0.9,   1.4,  0, 35,  0,  0,  0,  0, 40,  0,  0,  0,  0,  0, 34, 18, 39,  0, 29,  0, 36,  0, 32, 29,  0,  0,  0,  0,  0,  0,  0,  9,  0,  0
6, 11044, 4,N0CALL,     0.00, 3,   boost,   57.40,  98907.00,  203.25,    1.61,    4.85, 16.4, 4.11, 4.12, 4.12, -69.60,   3.58,  -2.61,  23.72,  -3.78,  -2.50,  -1.03,  -0.01,  -0.13,   2.04, 4.12, 0.00, 0.00, 0.01, 0.00, 1, 1,  9,  41.4881652, -89.4986964,   221.0, 2024,  3, 17, 18,  4, 38,        0,        0,   0,   0,   1.7,   0.9,   1.4,  0, 35,  0,  0,  0,  0, 40,  0,  0,  0,  0,  0, 34, 18, 39,  0, 29,  0, 36,  0, 32, 29,  0,  0,  0,  0,  0,  0,  0,  9,  0,  0
6, 11044, 4,N0CALL,     0.00, 3,   boost,   57.40,  98907.00,  203.25,    1.61,    4.85, 16.4, 4.11, 4.12, 4.12, -69.60,   3.58,  -2.61,  23.72,  -3.78,  -2.50,  -1.03,  -0.01,  -0.13,   2.03, 4.12, 0.00, 0.00, 0.01, 0.00, 1, 1,  9,  41.4881652, -89.4986964,   221.0, 2024,  3, 17, 18,  4, 38,        0,        0,   0,   0,   1.7,   0.9,   1.4,  0, 35,  0,  0,  0,  0, 40,  0,  0,  0,  0,  0, 34, 18, 39,  0, 29,  0, 36,  0, 32, 29,  0,  0,  0,  0,  0,  0,  0,  9,  0,  0
6, 11044, 4,N0CALL,     0.00, 3,   boost,   57.40,  98907.00,  203.25,    1.61,    4.85, 16.4, 4.11, 4.12, 4.12, -69.60,   3.58,  -2.61,  23.72,  -3.78,  -2.50,  -1.03,  -0.01,  -0.13,   2.02, 4.12, 0.00, 0.00, 0.01, 0.00, 1, 1,  9,  41.4881652, -89.4986964,   221.0, 2024,  3, 17, 18,  4, 38,        0,        0,   0,   0,   1.7,   0.9,   1.4,  0, 35,  0,  0,  0,  0, 40,  0,  0,  0,  0,  0, 34, 18, 39,  0, 29,  0, 36,  0, 32, 29,  0,  0,  0,  0,  0,  0,  0,  9,  0,  0
6, 11044, 4,N0CALL,     0.00, 3,   boost,   57.40,  98907.00,  203.25,    1.61,    4.85, 16.4, 4.11, 4.12, 4.12, -69.60,   3.58,  -2.61,  23.72,  -3.78,  -2.50,  -1.03,  -0.01,  -0.13,   2.02, 4.12, 0.00, 0.00, 0.01, 0.00, 1, 1,  9,  41.4881652, -89.4986964,   221.0, 2024,  3, 17, 18,  4, 38,        0,        0,   0,   0,   1.7,   0.9,   1.4,  0, 35,  0,  0,  0,  0, 40,  0,  0,  0,  0,  0, 34, 18, 39,  0, 29,  0, 36,  0, 32, 29,  0,  0,  0,  0,  0,  0,  0,  9,  0,  0
6, 11044, 4,N0CALL,     0.00, 3,   boost,   57.40,  98907.00,  203.25,    1.61,    4.85, 16.4, 4.11, 4.12, 4.12, -69.60,   3.58,  -2.61,  23.72,  -3.78,  -2.50,  -1.03,  -0.01,  -0.13,   2.01, 4.12, 0.00, 0.00, 0.01, 0.00, 1, 1,  9,  41.4881652, -89.4986964,   221.0, 2024,  3, 17, 18,  4, 38,        0,        0,   0,   0,   1.7,   0.9,   1.4,  0, 35,  0,  0,  0,  0, 40,  0,  0,  0,  0,  0, 34, 18, 39,  0, 29,  0, 36,  0, 32, 29,  0,  0,  0,  0,  0,  0,  0,  9,  0,  0
6, 11044, 4,N0CALL,     0.00, 3,   boost,   57.40,  98907.00,  203.25,    1.61,    4.85, 16.4, 4.11, 4.12, 4.12, -69.60,   3.58,  -2.61,  23.72,  -3.78,  -2.50,  -1.03,  -0.01,  -0.13,   2.01, 4.12, 0.00, 0.00, 0.01, 0.00, 1, 1,  9,  41.4881652, -89.4986964,   221.0, 2024,  3, 17, 18,  4, 38,        0,        0,   0,   0,   1.7,   0.9,   1.4,  0, 35,  0,  0,  0,  0, 40,  0,  0,  0,  0,  0, 34, 18, 39,  0, 29,  0, 36,  0, 32, 29,  0,  0,  0,  0,  0,  0,  0,  9,  0,  0
6, 11044, 4,N0CALL,     0.00, 3,   boost,   57.40,  98907.00,  203.25,    1.61,    4.85, 16.4, 4.11, 4.12, 4.12, -69.60,   3.58,  -2.61,  23.72,  -3.78,  -2.50,  -1.03,  -0.01,  -0.13,   2.01, 4.12, 0.00, 0.00, 0.01, 0.00, 1, 1,  9,  41.4881652, -89.4986964,   221.0, 2024,  3, 17, 18,  4, 38,        0,        0,   0,   0,   1.7,   0.9,   1.4,  0, 35,  0,  0,  0,  0, 40,  0,  0,  0,  0,  0, 34, 18, 39,  0, 29,  0, 36,  0, 32, 29,  0,  0,  0,  0,  0,  0,  0,  9,  0,  0
6, 11044, 4,N0CALL,     0.00, 3,   boost,   57.40,  98907.00,  203.25,    1.61,    4.85, 16.4, 4.11, 4.12, 4.12, -69.60,   3.58,  -2.61,  23.72,  -3.78,  -2.50,  -1.03,  -0.01,  -0.13,   2.01, 4.12, 0.00, 0.00, 0.01, 0.00, 1, 1,  9,  41.4881652, -89.4986964,   221.0, 2024,  3, 17, 18,  4, 38,        0,        0,   0,   0,   1.7,   0.9,   1.4,  0, 35,  0,  0,  0,  0, 40,  0,  0,  0,  0,  0, 34, 18, 39,  0, 29,  0, 36,  0, 32, 29,  0,  0,  0,  0,  0,  0,  0,  9,  0,  0
6, 11044, 4,N0CALL,     0.00, 3,   boost,   57.40,  98907.00,  203.25,    1.61,    4.85, 16.4, 4.11, 4.12, 4.12, -69.60,   3.58,  -2.61,  23.72,  -3.78,  -2.50,  -1.03,  -0.01,  -0.13,   2.01, 4.12, 0.00, 0.00, 0.01, 0.00, 1, 1,  9,  41.4881652, -89.4986964,   221.0, 2024,  3, 17, 18,  4, 38,        0,        0,   0,   0,   1.7,   0.9,   1.4,  0, 35,  0,  0,  0,  0, 40,  0,  0,  0,  0,  0, 34, 18, 39,  0, 29,  0, 36,  0, 32, 29,  0,  0,  0,  0,  0,  0,  0,  9,  0,  0
6, 11044, 4,N0CALL,     0.00, 3,   boost,   57.40,  98907.00,  203.25,    1.61,    4.85, 16.4, 4.11, 4.12, 4.12, -69.60,   3.58,  -2.61,  23.72,  -3.78,  -2.50,  -1.03,  -0.01,  -0.13,   2.01, 4.12, 0.00, 0.00, 0.01, 0.00, 1, 1,  9,  41.4881652, -89.4986964,   221.0, 2024,  3, 17, 18,  4, 38,        0,        0,   0,   0,   1.7,   0.9,   1.4,  0, 35,  0,  0,  0,  0, 40,  0,  0,  0,  0,  0, 34, 18, 39,  0, 29,  0, 36,  0, 32, 29,  0,  0,  0,  0,  0,  0,  0,  9,  0,  0
6, 11044, 4,N0CALL,     0.00, 3,   boost,   57.40,  98907.00,  203.25,    1.61,    4.85, 16.4, 4.11, 4.12, 4.12, -69.60,   3.58,  -2.61,  23.72,  -3.78,  -2.50,  -1.03,  -0.01,  -0.13,   2.02, 4.12, 0.00, 0.00, 0.01, 0.00, 1, 1,  9,  41.4881652, -89.4986964,   221.0, 2024,  3, 17, 18,  4, 38,        0,        0,   0,   0,   1.7,   0.9,   1.4,  0, 35,  0,  0,  0,  0, 40,  0,  0,  0,  0,  0, 34, 18, 39,  0, 29,  0, 36,  0, 32, 29,  0,  0,  0,  0,  0,  0,  0,  9,  0,  0
6, 11044, 4,N0CALL,     0.00, 3,   boost,   57.40,  98907.00,  203.25,    1.61,    4.85, 16.4, 4.11, 4.12, 4.12, -69.60,   3.58,  -2.61,  23.72,  -3.78,  -2.50,  -1.03,  -0.01,  -0.13,   2.04, 4.12, 0.00, 0.00, 0.01, 0.00, 1, 1,  9,  41.4881652, -89.4986964,   221.0, 2024,  3, 17, 18,  4, 38,        0,        0,   0,   0,   1.7,   0.9,   1.4,  0, 35,  0,  0,  0,  0, 40,  0,  0,  0,  0,  0, 34, 18, 39,  0, 29,  0, 36,  0, 32, 29,  0,  0,  0,  0,  0,  0,  0,  9,  0,  0
6, 11044, 4,N0CALL,     0.00, 3,   boost,   57.40,  98907.00,  203.25,    1.61,    4.85, 16.4, 4.11, 4.12, 4.12, -69.60,   3.58,  -2.61,  23.72,  -3.78,  -2.50,  -1.03,  -0.01,  -0.13,   2.05, 4.12, 0.00, 0.00, 0.01, 0.00, 1, 1,  9,  41.4881652, -89.4986964,   221.0, 2024,  3, 17, 18,  4, 38,        0,        0,   0,   0,   1.7,   0.9,   1.4,  0, 35,  0,  0,  0,  0, 40,  0,  0,  0,  0,  0, 34, 18, 39,  0, 29,  0, 36,  0, 32, 29,  0,  0,  0,  0,  0,  0,  0,  9,  0,  0
6, 11044, 4,N0CALL,     0.00, 3,   boost,   57.40,  98907.00,  203.25,    1.61,    4.85, 16.4, 4.11, 4.12, 4.12, -69.60,   3.58,  -2.61,  23.72,  -3.78,  -2.50,  -1.03,  -0.01,  -0.13,   2.06, 4.12, 0.00, 0.00, 0.01, 0.00, 1, 1,  9,  41.4881652, -89.4986964,   221.0, 2024,  3, 17, 18,  4, 38,        0,        0,   0,   0,   1.7,   0.9,   1.4,  0, 35,  0,  0,  0,  0, 40,  0,  0,  0,  0,  0, 34, 18, 39,  0, 29,  0, 36,  0, 32, 29,  0,  0,  0,  0,  0,  0,  0,  9,  0,  0
6, 11044, 4,N0CALL,     0.00, 3,   boost,   57.40,  98907.00,  203.25,    1.61,    4.85, 16.4, 4.11, 4.12, 4.12, -69.60,   3.58,  -2.61,  23.72,  -3.78,  -2.50,  -1.03,  -0.01,  -0.13,   2.07, 4.12, 0.00, 0.00, 0.01, 0.00, 1, 1,  9,  41.4881652, -89.4986964,   221.0, 2024,  3, 17, 18,  4, 38,        0,        0,   0,   0,   1.7,   0.9,   1.4,  0, 35,  0,  0,  0,  0, 40,  0,  0,  0,  0,  0, 34, 18, 39,  0, 29,  0, 36,  0, 32, 29,  0,  0,  0,  0,  0,  0,  0,  9,  0,  0
6, 11044, 4,N0CALL,     0.00, 3,   boost,   57.40,  98907.00,  203.25,    1.61,    4.85, 16.4, 4.11, 4.12, 4.12, -69.60,   3.58,  -2.61,  23.72,  -3.78,  -2.50,  -1.03,  -0.01,  -0.13,   2.09, 4.12, 0.00, 0.00, 0.01, 0.00, 1, 1,  9,  41.4881652, -89.4986964,   221.0, 2024,  3, 17, 18,  4, 38,        0,        0,   0,   0,   1.7,   0.9,   1.4,  0, 35,  0,  0,  0,  0, 40,  0,  0,  0,  0,  0, 34, 18, 39,  0, 29,  0, 36,  0, 32, 29,  0,  0,  0,  0,  0,  0,  0,  9,  0,  0
6, 11044, 4,N0CALL,     0.00, 3,   boost,   57.40,  98907.00,  203.25,    1.61,    4.85, 16.4, 4.11, 4.12, 4.12, -69.60,   3.58,  -2.61,  23.72,  -3.78,  -2.50,  -1.03,  -0.01,  -0.13,   2.12, 4.12, 0.00, 0.00, 0.01, 0.00, 1, 1,  9,  41.4881652, -89.4986964,   221.0, 2024,  3, 17, 18,  4, 38,        0,        0,   0,   0,   1.7,   0.9,   1.4,  0, 35,  0,  0,  0,  0, 40,  0,  0,  0,  0,  0, 34, 18, 39,  0, 29,  0, 36,  0, 32, 29,  0,  0,  0,  0,  0,  0,  0,  9,  0,  0
6, 11044, 4,N0CALL,     0.00, 3,   boost,   57.40,  98907.00,  203.25,    1.61,    4.85, 16.4, 4.11, 4.12, 4.12, -69.60,   3.58,  -2.61,  23.72,  -3.78,  -2.50,  -1.03,  -0.01,  -0.13,   2.15, 4.12, 0.00, 0.00, 0.01, 0.00, 1, 1,  9,  41.4881652, -89.4986964,   221.0, 2024,  3, 17, 18,  4, 38,        0,        0,   0,   0,   1.7,   0.9,   1.4,  0, 35,  0,  0,  0,  0, 40,  0,  0,  0,  0,  0, 34, 18, 39,  0, 29,  0, 36,  0, 32, 29,  0,  0,  0,  0,  0,  0,  0,  9,  0,  0
6, 11044, 4,N0CALL,     0.01, 3,   boost,   56.45,  98917.00,  202.40,    0.76,    5.42, 16.4, 4.11, 4.12, 4.12, -67.62, -12.04,  -5.57,  33.92,   3.72,   0.98,  -1.03,  -0.01,  -0.13,   2.14, 4.12, 0.00, 0.00, 0.01, 0.00, 1, 1,  9,  41.4881652, -89.4986964,   221.0, 2024,  3, 17, 18,  4, 38,        0,        0,   0,   0,   1.7,   0.9,   1.4,  0, 35,  0,  0,  0,  0, 40,  0,  0,  0,  0,  0, 34, 18, 39,  0, 29,  0, 36,  0, 32, 29,  0,  0,  0,  0,  0,  0,  0,  9,  0,  0
6, 11044, 4,N0CALL,     0.01, 3,   boost,   56.45,  98917.00,  202.40,    0.76,    5.42, 16.4, 4.11, 4.12, 4.12, -67.62, -12.04,  -5.57,  33.92,   3.72,   0.98,  -1.03,  -0.01,  -0.13,   2.14, 4.12, 0.00, 0.00, 0.01, 0.00, 1, 1,  9,  41.4881652, -89.4986964,   221.0, 2024,  3, 17, 18,  4, 38,        0,        0,   0,   0,   1.7,   0.9,   1.4,  0, 35,  0,  0,  0,  0, 40,  0,  0,  0,  0,  0, 34, 18, 39,  0, 29,  0, 36,  0, 32, 29,  0,  0,  0,  0,  0,  0,  0,  9,  0,  0
6, 11044, 4,N0CALL,     0.02, 3,   boost,   60.28,  98917.00,  202.40,    0.76,    6.00, 16.4, 4.11, 4.13, 4.12, -69.77,  -9.56,  -3.74,  46.55,   4.64,  -0.73,  -1.02,  -0.01,  -0.13,   2.14, 4.13, 0.02, 0.01, 0.00, 0.00, 1, 1,  9,  41.4881652, -89.4986964,   221.0, 2024,  3, 17, 18,  4, 38,        0,        0,   0,   0,   1.7,   0.9,   1.4,  0, 35,  0,  0,  0,  0, 40,  0,  0,  0,  0,  0, 34, 18, 39,  0, 29,  0, 36,  0, 32, 29,  0,  0,  0,  0,  0,  0,  0,  9,  0,  0
6, 11044, 4,N0CALL,     0.02, 3,   boost,   60.28,  98917.00,  202.40,    0.76,    6.00, 16.4, 4.11, 4.13, 4.12, -69.77,  -9.56,  -3.74,  46.55,   4.64,  -0.73,  -1.02,  -0.01,  -0.13,   2.14, 4.13, 0.02, 0.01, 0.00, 0.00, 1, 1,  9,  41.4881652, -89.4986964,   221.0, 2024,  3, 17, 18,  4, 38,        0,        0,   0,   0,   1.7,   0.9,   1.4,  0, 35,  0,  0,  0,  0, 40,  0,  0,  0,  0,  0, 34, 18, 39,  0, 29,  0, 36,  0, 32, 29,  0,  0,  0,  0,  0,  0,  0,  9,  0,  0
6, 11044, 4,N0CALL,     0.03, 3,   boost,   58.36,  98936.00,  200.79,   -0.85,    6.59, 16.4, 4.11, 4.13, 4.12, -70.43,   2.67,  -3.86,  48.51,  -0.18,  -0.85,  -1.03,  -0.01,  -0.13,   2.15, 4.13, 0.02, 0.01, 0.00, 0.00, 1, 1,  9,  41.4881652, -89.4986964,   221.0, 2024,  3, 17, 18,  4, 38,        0,        0,   0,   0,   1.7,   0.9,   1.4,  0, 35,  0,  0,  0,  0, 40,  0,  0,  0,  0,  0, 34, 18, 39,  0, 29,  0, 36,  0, 32, 29,  0,  0,  0,  0,  0,  0,  0,  9,  0,  0
6, 11044, 4,N0CALL,     0.04, 3,   boost,   59.32,  98936.00,  200.79,   -0.85,    7.17, 16.4, 4.11, 4.13, 4.12, -69.30,   2.97,   6.16,  53.69,   4.03,  -0.42,  -1.03,  -0.01,  -0.13,   2.16, 4.13, 0.02, 0.01, 0.00, 0.00, 1, 1,  9,  41.4881652, -89.4986964,   221.0, 2024,  3, 17, 18,  4, 38,        0,        0,   0,   0,   1.7,   0.9,   1.4,  0, 35,  0,  0,  0,  0, 40,  0,  0,  0,  0,  0, 34, 18, 39,  0, 29,  0, 36,  0, 32, 29,  0,  0,  0,  0,  0,  0,  0,  9,  0,  0
6, 11044, 4,N0CALL,     0.05, 3,   boost,   56.45,  98909.00,  203.08,    1.44,    7.76, 16.4, 4.11, 4.13, 4.12, -69.74,   0.29,  -1.28,  41.30,   2.69,  -0.18,  -1.02,  -0.01,  -0.13,   2.16, 4.13, 0.02, 0.01, 0.00, 0.00, 1, 1,  9,  41.4881652, -89.4986964,   221.0, 2024,  3, 17, 18,  4, 38,        0,        0,   0,   0,   1.7,   0.9,   1.4,  0, 35,  0,  0,  0,  0, 40,  0,  0,  0,  0,  0, 34, 18, 39,  0, 29,  0, 36,  0, 32, 29,  0,  0,  0,  0,  0,  0,  0,  9,  0,  0
6, 11044, 4,N0CALL,     0.06, 3,   boost,   59.80,  98909.00,  203.08,    1.44,    8.34, 16.4, 4.11, 4.13, 4.12, -69.37,   1.57,  -9.99,  30.01,  -0.91,  -1.52,  -1.03,  -0.01,  -0.13,   2.18, 4.13, 0.02, 0.01, 0.00, 0.00, 1, 1,  9,  41.4881652, -89.4986964,   221.0, 2024,  3, 17, 18,  4, 38,        0,        0,   0,   0,   1.7,   0.9,   1.4,  0, 35,  0,  0,  0,  0, 40,  0,  0,  0,  0,  0, 34, 18, 39,  0, 29,  0, 36,  0, 32, 29,  0,  0,  0,  0,  0,  0,  0,  9,  0,  0
6, 11044, 4,N0CALL,     0.07, 3,   boost,   58.36,  98920.00,  202.15,    0.51,    8.93, 16.4, 4.11, 4.13, 4.12, -70.02,   1.52,  -9.41,   9.14,   0.61,  -0.85,  -1.03,  -0.01,  -0.13,   2.18, 4.13, 0.02, 0.01, 0.00, 0.00, 1, 1,  9,  41.4881652, -89.4986964,   221.0, 2024,  3, 17, 18,  4, 38,        0,        0,   0,   0,   1.7,   0.9,   1.4,  0, 35,  0,  0,  0,  0, 40,  0,  0,  0,  0,  0, 34, 18, 39,  0, 29,  0, 36,  0, 32, 29,  0,  0,  0,  0,  0,  0,  0,  9,  0,  0
6, 11044, 4,N0CALL,     0.08, 3,   boost,   58.36,  98920.00,  202.15,    0.51,    9.52, 16.4, 4.11, 4.13, 4.12, -68.98,  -7.90,   7.22,  -3.80,   5.19,   0.00,  -1.03,  -0.01,  -0.13,   2.19, 4.13, 0.02, 0.01, 0.00, 0.00, 1, 1,  9,  41.4881652, -89.4986964,   221.0, 2024,  3, 17, 18,  4, 38,        0,        0,   0,   0,   1.7,   0.9,   1.4,  0, 35,  0,  0,  0,  0, 40,  0,  0,  0,  0,  0, 34, 18, 39,  0, 29,  0, 36,  0, 32, 29,  0,  0,  0,  0,  0,  0,  0,  9,  0,  0
6, 11044, 4,N0CALL,     0.09, 3,   boost,   61.23,  98897.00,  204.10,    2.46,   10.12, 16.4, 4.11, 4.13, 4.12, -71.27,   3.76,  -9.79,   0.71,   3.72,  -2.07,  -1.03,  -0.01,  -0.13,   2.21, 4.13, 0.02, 0.01, 0.00, 0.00, 1, 1,  9,  41.4881652, -89.4986964,   221.0, 2024,  3, 17, 18,  4, 38,        0,        0,   0,   0,   1.7,   0.9,   1.4,  0, 35,  0,  0,  0,  0, 40,  0,  0,  0,  0,  0, 34, 18, 39,  0, 29,  0, 36,  0, 32, 29,  0,  0,  0,  0,  0,  0,  0,  9,  0,  0
6, 11044, 4,N0CALL,     0.10, 3,   boost,   60.28,  98897.00,  204.10,    2.46,   10.72, 16.4, 4.11, 4.13, 4.12, -71.39,   0.94,   0.95,  -7.89,   4.09,  -1.58,  -1.03,  -0.01,  -0.13,   2.23, 4.13, 0.02, 0.01, 0.00, 0.00, 1, 1,  9,  41.4881652, -89.4986964,   221.0, 2024,  3, 17, 18,  4, 38,        0,        0,   0,   0,   1.7,   0.9,   1.4,  0, 35,  0,  0,  0,  0, 40,  0,  0,  0,  0,  0, 34, 18, 39,  0, 29,  0, 36,  0, 32, 29,  0,  0,  0,  0,  0,  0,  0,  9,  0,  0
6, 11044, 4,N0CALL,     0.11, 3,   boost,   62.19,  98905.00,  203.42,    1.78,   11.32, 16.4, 4.11, 4.13, 4.12, -72.50,   2.21,  -7.64,  -9.91,   2.99,  -1.03,  -1.03,  -0.01,  -0.13,   2.25, 4.13, 0.02, 0.01, 0.00, 0.00, 1, 1,  9,  41.4881652, -89.4986964,   221.0, 2024,  3, 17, 18,  4, 38,        0,        0,   0,   0,   1.7,   0.9,   1.4,  0, 35,  0,  0,  0,  0, 40,  0,  0,  0,  0,  0, 34, 18, 39,  0, 29,  0, 36,  0, 32, 29,  0,  0,  0,  0,  0,  0,  0,  9,  0,  0
6, 11044, 4,N0CALL,     0.12, 3,   boost,   57.40,  98905.00,  203.42,    1.78,   11.92, 16.4, 4.11, 4.13, 4.12, -72.07, -10.56,   9.33,  -4.23,   6.41,   1.29,  -1.03,  -0.01,  -0.13,   2.24, 4.13, 0.02, 0.01, 0.00, 0.00, 1, 1,  9,  41.4881652, -89.4986964,   221.0, 2024,  3, 17, 18,  4, 38,        0,        0,   0,   0,   1.7,   0.9,   1.4,  0, 35,  0,  0,  0,  0, 40,  0,  0,  0,  0,  0, 34, 18, 39,  0, 29,  0, 36,  0, 32, 29,  0,  0,  0,  0,  0,  0,  0,  9,  0,  0
6, 11044, 4,N0CALL,     0.13, 3,   boost,   60.28,  98920.00,  202.15,    0.51,   12.53, 16.4, 4.11, 4.13, 4.12, -73.13,   1.02,  -3.17,  -1.42,   3.11,  -0.79,  -1.02,  -0.01,  -0.13,   2.26, 4.13, 0.02, 0.01, 0.00, 0.00, 1, 1,  9,  41.4881652, -89.4986964,   221.0, 2024,  3, 17, 18,  4, 38,        0,        0,   0,   0,   1.7,   0.9,   1.4,  0, 35,  0,  0,  0,  0, 40,  0,  0,  0,  0,  0, 34, 18, 39,  0, 29,  0, 36,  0, 32, 29,  0,  0,  0,  0,  0,  0,  0,  9,  0,  0
6, 11044, 4,N0CALL,     0.14, 3,   boost,   62.67,  98920.00,  202.15,    0.51,   13.15, 16.4, 4.11, 4.13, 4.12, -73.42,  -1.95,   2.49, -15.40,   4.94,  -0.30,  -1.02,  -0.01,  -0.13,   2.27, 4.13, 0.02, 0.01, 0.00, 0.00, 1, 1,  9,  41.4881652, -89.4986964,   221.0, 2024,  3, 17, 18,  4, 38,        0,        0,   0,   0,   1.7,   0.9,   1.4,  0, 35,  0,  0,  0,  0, 40,  0,  0,  0,  0,  0, 34, 18, 39,  0, 29,  0, 36,  0, 32, 29,  0,  0,  0,  0,  0,  0,  0,  9,  0,  0
6, 11044, 4,N0CALL,     0.15, 3,   boost,   66.02,  98892.00,  204.53,    2.89,   13.77, 16.4, 4.11, 4.13, 4.12, -73.80,   2.42,   0.68, -25.77,   3.85,  -0.97,  -1.02,  -0.01,  -0.13,   2.29, 4.13, 0.02, 0.01, 0.00, 0.00, 1, 1,  9,  41.4881652, -89.4986964,   221.0, 2024,  3, 17, 18,  4, 38,        0,        0,   0,   0,   1.7,   0.9,   1.4,  0, 35,  0,  0,  0,  0, 40,  0,  0,  0,  0,  0, 34, 18, 39,  0, 29,  0, 36,  0, 32, 29,  0,  0,  0,  0,  0,  0,  0,  9,  0,  0
6, 11044, 4,N0CALL,     0.16, 3,   boost,   60.75,  98892.00,  204.53,    2.89,   14.40, 16.4, 4.11, 4.13, 4.12, -73.72,   2.93,   2.36, -40.30,   4.40,  -0.55,  -1.03,  -0.01,  -0.13,   2.30, 4.13, 0.02, 0.01, 0.00, 0.00, 1, 1,  9,  41.4881652, -89.4986964,   221.0, 2024,  3, 17, 18,  4, 38,        0,        0,   0,   0,   1.7,   0.9,   1.4,  0, 35,  0,  0,  0,  0, 40,  0,  0,  0,  0,  0, 34, 18, 39,  0, 29,  0, 36,  0, 32, 29,  0,  0,  0,  0,  0,  0,  0,  9,  0,  0
6, 11044, 4,N0CALL,     0.17, 3,   boost,   64.58,  98910.00,  203.00,    1.36,   15.03, 16.4, 4.11, 4.13, 4.12, -74.60,  -5.98,   6.46, -50.37,   5.01,   0.55,  -1.03,  -0.01,  -0.12,   2.31, 4.13, 0.02, 0.01, 0.00, 0.00, 1, 1,  9,  41.4881652, -89.4986964,   221.0, 2024,  3, 17, 18,  4, 38,        0,        0,   0,   0,   1.7,   0.9,   1.4,  0, 35,  0,  0,  0,  0, 40,  0,  0,  0,  0,  0, 34, 18, 39,  0, 29,  0, 36,  0, 32, 29,  0,  0,  0,  0,  0,  0,  0,  9,  0,  0
6, 11044, 4,N0CALL,     0.18, 3,   boost,   63.62,  98910.00,  203.00,    1.36,   15.67, 16.4, 4.11, 4.13, 4.12, -75.55,  -0.74,  -1.19, -55.32,   3.66,  -0.61,  -1.03,  -0.01,  -0.12,   2.32, 4.13, 0.02, 0.01, 0.00, 0.00, 1, 1,  9,  41.4881652, -89.4986964,   221.0, 2024,  3, 17, 18,  4, 38,        0,        0,   0,   0,   1.7,   0.9,   1.4,  0, 35,  0,  0,  0,  0, 40,  0,  0,  0,  0,  0, 34, 18, 39,  0, 29,  0, 36,  0, 32, 29,  0,  0,  0,  0,  0,  0,  0,  9,  0,  0
6, 11044, 4,N0CALL,     0.19, 3,   boost,   64.10,  98884.00,  205.21,    3.57,   16.31, 16.4, 4.11, 4.13, 4.12, -75.66,   1.29,  -1.55, -45.86,   1.83,  -1.34,  -1.03,  -0.01,  -0.12,   2.34, 4.13, 0.02, 0.01, 0.00, 0.00, 1, 1,  9,  41.4881652, -89.4986964,   221.0, 2024,  3, 17, 18,  4, 38,        0,        0,   0,   0,   1.7,   0.9,   1.4,  0, 35,  0,  0,  0,  0, 40,  0,  0,  0,  0,  0, 34, 18, 39,  0, 29,  0, 36,  0, 32, 29,  0,  0,  0,  0,  0,  0,  0,  9,  0,  0
6, 11044, 4,N0CALL,     0.20, 3,   boost,   63.62,  98884.00,  205.21,    3.57,   16.96, 16.4, 4.11, 4.13, 4.12, -75.76,   3.23,  -4.17, -40.00,   3.24,  -0.55,  -1.03,  -0.01,  -0.12,   2.35, 4.13, 0.02, 0.01, 0.00, 0.00, 1, 1,  9,  41.4881652, -89.4986964,   221.0, 2024,  3, 17, 18,  4, 38,        0,        0,   0,   0,   1.7,   0.9,   1.4,  0, 35,  0,  0,  0,  0, 40,  0,  0,  0,  0,  0, 34, 18, 39,  0, 29,  0, 36,  0, 32, 29,  0,  0,  0,  0,  0,  0,  0,  9,  0,  0
6, 11044, 4,N0CALL,     0.21, 3,   boost,   68.41,  98877.00,  205.80,    4.16,   17.61, 16.4, 4.11, 4.13, 4.12, -76.10,   5.01,  -6.11, -44.02,   3.79,  -0.24,  -1.03,  -0.00,  -0.12,   2.36, 4.13, 0.02, 0.01, 0.00, 0.00, 1, 1,  9,  41.4881652, -89.4986964,   221.0, 2024,  3, 17, 18,  4, 38,        0,        0,   0,   0,   1.7,   0.9,   1.4,  0, 35,  0,  0,  0,  0, 40,  0,  0,  0,  0,  0, 34, 18, 39,  0, 29,  0, 36,  0, 32, 29,  0,  0,  0,  0,  0,  0,  0,  9,  0,  0
6, 11044, 4,N0CALL,     0.22, 3,   boost,   66.49,  98877.00,  205.80,    4.16,   18.27, 16.4, 4.11, 4.13, 4.12, -76.59,   4.56,  -0.11, -55.13,   3.48,  -0.18,  -1.03,  -0.00,  -0.12,   2.38, 4.13, 0.02, 0.01, 0.00, 0.00, 1, 1,  9,  41.4881652, -89.4986964,   221.0, 2024,  3, 17, 18,  4, 38,        0,        0,   0,   0,   1.7,   0.9,   1.4,  0, 35,  0,  0,  0,  0, 40,  0,  0,  0,  0,  0, 34, 18, 39,  0, 29,  0, 36,  0, 32, 29,  0,  0,  0,  0,  0,  0,  0,  9,  0,  0
6, 11044, 4,N0CALL,     0.23, 3,   boost,   65.06,  98872.00,  206.22,    4.58,   18.92, 16.4, 4.11, 4.13, 4.12, -73.24,   0.85,  -6.57, -58.25,   2.81,  -0.79,  -1.03,  -0.00,  -0.12,   2.39, 4.13, 0.02, 0.01, 0.00, 0.00, 1, 1,  9,  41.4881652, -89.4986964,   221.0, 2024,  3, 17, 18,  4, 38,        0,        0,   0,   0,   1.7,   0.9,   1.4,  0, 35,  0,  0,  0,  0, 40,  0,  0,  0,  0,  0, 34, 18, 39,  0, 29,  0, 36,  0, 32, 29,  0,  0,  0,  0,  0,  0,  0,  9,  0,  0
6, 11044, 4,N0CALL,     0.24, 3,   boost,   63.62,  98872.00,  206.22,    4.58,   19.57, 16.4, 4.11, 4.13, 4.12, -77.56,  -6.04,   3.34, -55.74,   1.95,  -0.97,  -1.02,   0.00,  -0.12,   2.40, 4.13, 0.02, 0.01, 0.00, 0.00, 1, 1,  9,  41.4881652, -89.4986964,   221.0, 2024,  3, 17, 18,  4, 38,        0,        0,   0,   0,   1.7,   0.9,   1.4,  0, 35,  0,  0,  0,  0, 40,  0,  0,  0,  0,  0, 34, 18, 39,  0, 29,  0, 36,  0, 32, 29,  0,  0,  0,  0,  0,  0,  0,  9,  0,  0
6, 11044, 4,N0CALL,     0.25, 3,   boost,   65.06,  98876.00,  205.88,    4.24,   20.22, 16.4, 4.11, 4.13, 4.12, -77.30,   0.64,   3.13, -56.60,   3.66,  -1.52,  -1.02,   0.00,  -0.12,   2.43, 4.13, 0.02, 0.01, 0.00, 0.00, 1, 1,  9,  41.4881652, -89.4986964,   221.0, 2024,  3, 17, 18,  4, 38,        0,        0,   0,   0,   1.7,   0.9,   1.4,  0, 35,  0,  0,  0,  0, 40,  0,  0,  0,  0,  0, 34, 18, 39,  0, 29,  0, 36,  0, 32, 29,  0,  0,  0,  0,  0,  0,  0,  9,  0,  0
6, 11044, 4,N0CALL,     0.26, 3,   boost,   65.06,  98876.00,  205.88,    4.24,   20.88, 16.4, 4.11, 4.13, 4.12, -77.10,   4.83,  -4.33, -62.76,   2.81,  -1.64,  -1.03,   0.00,  -0.11,   2.45, 4.13, 0.02, 0.01, 0.00, 0.00, 1, 1,  9,  41.4881652, -89.4986964,   221.0, 2024,  3, 17, 18,  4, 38,        0,        0,   0,   0,   1.7,   0.9,   1.4,  0, 35,  0,  0,  0,  0, 40,  0,  0,  0,  0,  0, 34, 18, 39,  0, 29,  0, 36,  0, 32, 29,  0,  0,  0,  0,  0,  0,  0,  9,  0,  0
6, 11044, 4,N0CALL,     0.27, 3,   boost,   66.49,  98887.00,  204.95,    3.31,   21.53, 16.4, 4.11, 4.13, 4.12, -77.81,   5.41, -15.63, -68.56,   1.65,  -1.34,  -1.03,   0.00,  -0.11,   2.47, 4.13, 0.02, 0.01, 0.00, 0.00, 1, 1,  9,  41.4881652, -89.4986964,   221.0, 2024,  3, 17, 18,  4, 38,        0,        0,   0,   0,   1.7,   0.9,   1.4,  0, 35,  0,  0,  0,  0, 40,  0,  0,  0,  0,  0, 34, 18, 39,  0, 29,  0, 36,  0, 32, 29,  0,  0,  0,  0,  0,  0,  0,  9,  0,  0
6, 11044, 4,N0CALL,     0.28, 3,   boost,   66.02,  98887.00,  204.95,    3.31,   22.19, 16.4, 4.11, 4.13, 4.12, -77.80,   1.05,  -9.33, -76.56,   1.71,  -2.19,  -1.03,   0.00,  -0.11,   2.49, 4.13, 0.02, 0.01, 0.00, 0.00, 1, 1,  9,  41.4881652, -89.4986964,   221.0, 2024,  3, 17, 18,  4, 38,        0,        0,   0,   0,   1.7,   0.9,   1.4,  0, 35,  0,  0,  0,  0, 40,  0,  0,  0,  0,  0, 34, 18, 39,  0, 29,  0, 36,  0, 32, 29,  0,  0,  0,  0,  0,  0,  0,  9,  0,  0
6, 11044, 4,N0CALL,     0.29, 3,   boost,   67.45,  98870.00,  206.39,    4.75,   22.86, 16.4, 4.11, 4.13, 4.12, -78.17,  -3.15,  -2.44, -80.22,   1.77,  -2.01,  -1.03,   0.00,  -0.11,   2.52, 4.13, 0.02, 0.01, 0.00, 0.00, 1, 1,  9,  41.4881652, -89.4986964,   221.0, 2024,  3, 17, 18,  4, 38,        0,        0,   0,   0,   1.7,   0.9,   1.4,  0, 35,  0,  0,  0,  0, 40,  0,  0,  0,  0,  0, 34, 18, 39,  0, 29,  0, 36,  0, 32, 29,  0,  0,  0,  0,  0,  0,  0,  9,  0,  0
6, 11044, 4,N0CALL,     0.30, 3,   boost,   66.49,  98870.00,  206.39,    4.75,   23.53, 16.4, 4.11, 4.13, 4.12, -78.35,  -1.60,  -3.27, -80.83,   0.61,  -2.38,  -1.03,   0.01,  -0.10,   2.54, 4.13, 0.02, 0.01, 0.00, 0.00, 1, 1,  9,  41.4881652, -89.4986964,   221.0, 2024,  3, 17, 18,  4, 38,        0,        0,   0,   0,   1.7,   0.9,   1.4,  0, 35,  0,  0,  0,  0, 40,  0,  0,  0,  0,  0, 34, 18, 39,  0, 29,  0, 36,  0, 32, 29,  0,  0,  0,  0,  0,  0,  0,  9,  0,  0
6, 11044, 4,N0CALL,     0.31, 3,   boost,   68.89,  98869.00,  206.48,    4.84,   24.20, 16.4, 4.11, 4.13, 4.12, -78.76,   0.45,  -1.67, -79.00,   0.92,  -2.38,  -1.03,   0.01,  -0.10,   2.57, 4.13, 0.02, 0.01, 0.00, 0.00, 1, 1,  9,  41.4881652, -89.4986964,   221.0, 2024,  3, 17, 18,  4, 38,        0,        0,   0,   0,   1.7,   0.9,   1.4,  0, 35,  0,  0,  0,  0, 40,  0,  0,  0,  0,  0, 34, 18, 39,  0, 29,  0, 36,  0, 32, 29,  0,  0,  0,  0,  0,  0,  0,  9,  0,  0
6, 11044, 4,N0CALL,     0.32, 3,   boost,   66.97,  98869.00,  206.48,    4.84,   24.87, 16.4, 4.11, 4.13, 4.12, -78.88,   0.30,  -1.07, -79.42,   0.73,  -2.13,  -1.03,   0.01,  -0.09,   2.59, 4.13, 0.02, 0.01, 0.00, 0.00, 1, 1,  9,  41.4881652, -89.4986964,   221.0, 2024,  3, 17, 18,  4, 38,        0,        0,   0,   0,   1.7,   0.9,   1.4,  0, 35,  0,  0,  0,  0, 40,  0,  0,  0,  0,  0, 34, 18, 39,  0, 29,  0, 36,  0, 32, 29,  0,  0,  0,  0,  0,  0,  0,  9,  0,  0
6, 11044, 4,N0CALL,     0.33, 3,   boost,   66.02,  98854.00,  207.75,    6.11,   25.55, 16.4, 4.11, 4.13, 4.12, -79.25,  -1.98,  -0.53, -80.16,   0.61,  -1.70,  -1.03,   0.01,  -0.09,   2.61, 4.13, 0.02, 0.01, 0.00, 0.00, 1, 1,  9,  41.4881652, -89.4986964,   221.0, 2024,  3, 17, 18,  4, 38,        0,        0,   0,   0,   1.7,   0.9,   1.4,  0, 35,  0,  0,  0,  0, 40,  0,  0,  0,  0,  0, 34, 18, 39,  0, 29,  0, 36,  0, 32, 29,  0,  0,  0,  0,  0,  0,  0,  9,  0,  0
6, 11044, 4,N0CALL,     0.34, 3,   boost,   69.36,  98854.00,  207.75,    6.11,   26.23, 16.4, 4.11, 4.11, 4.11, -79.43,  -1.60,  -1.59, -79.91,   0.37,  -2.01,  -1.03,   0.01,  -0.09,   2.63, 4.12, 0.00, 0.01, 0.00, 0.00, 1, 1,  9,  41.4881652, -89.4986964,   221.0, 2024,  3, 17, 18,  4, 38,        0,        0,   0,   0,   1.7,   0.9,   1.4,  0, 35,  0,  0,  0,  0, 40,  0,  0,  0,  0,  0, 34, 18, 39,  0, 29,  0, 36,  0, 32, 29,  0,  0,  0,  0,  0,  0,  0,  9,  0,  0
6, 11044, 4,N0CALL,     0.34, 3,   boost,   69.36,  98854.00,  207.75,    6.11,   26.23, 16.4, 4.11, 4.11, 4.11, -79.43,  -1.60,  -1.59, -79.91,   0.37,  -2.01,  -1.03,   0.01,  -0.09,   2.63, 4.12, 0.00, 0.01, 0.00, 0.00, 1, 1,  9,  41.4881652, -89.4986964,   221.0, 2024,  3, 17, 18,  4, 38,        0,        0,   0,   0,   1.7,   0.9,   1.4,  0, 35,  0,  0,  0,  0, 40,  0,  0,  0,  0,  0, 34, 18, 39,  0, 29,  0, 36,  0, 32, 29,  0,  0,  0,  0,  0,  0,  0,  9,  0,  0
6, 11044, 4,N0CALL,     0.35, 3,   boost,   67.45,  98875.00,  205.97,    4.33,   26.91, 16.4, 4.11, 4.11, 4.11, -79.68,  -0.33,  -2.11, -79.49,   0.00,  -1.89,  -1.03,   0.01,  -0.09,   2.65, 4.12, 0.00, 0.01, 0.00, 0.00, 1, 1,  9,  41.4881652, -89.4986964,   221.0, 2024,  3, 17, 18,  4, 38,        0,        0,   0,   0,   1.7,   0.9,   1.4,  0, 35,  0,  0,  0,  0, 40,  0,  0,  0,  0,  0, 34, 18, 39,  0, 29,  0, 36,  0, 32, 29,  0,  0,  0,  0,  0,  0,  0,  9,  0,  0
6, 11044, 4,N0CALL,     0.36, 3,   boost,   68.89,  98875.00,  205.97,    4.33,   27.59, 16.4, 4.11, 4.11, 4.11, -80.09,   0.21,  -1.82, -78.39,  -0.06,  -2.07,  -1.03,   0.01,  -0.09,   2.67, 4.12, 0.00, 0.01, 0.00, 0.00, 1, 1,  9,  41.4881652, -89.4986964,   221.0, 2024,  3, 17, 18,  4, 38,        0,        0,   0,   0,   1.7,   0.9,   1.4,  0, 35,  0,  0,  0,  0, 40,  0,  0,  0,  0,  0, 34, 18, 39,  0, 29,  0, 36,  0, 32, 29,  0,  0,  0,  0,  0,  0,  0,  9,  0,  0
6, 11044, 4,N0CALL,     0.37, 3,   boost,   68.89,  98831.00,  209.71,    8.07,   28.28, 16.4, 4.11, 4.11, 4.11, -80.10,  -1.11,  -0.63, -78.63,   0.49,  -1.83,  -1.03,   0.01,  -0.09,   2.69, 4.12, 0.00, 0.01, 0.00, 0.00, 1, 1,  9,  41.4881652, -89.4986964,   221.0, 2024,  3, 17, 18,  4, 38,        0,        0,   0,   0,   1.7,   0.9,   1.4,  0, 35,  0,  0,  0,  0, 40,  0,  0,  0,  0,  0, 34, 18, 39,  0, 29,  0, 36,  0, 32, 29,  0,  0,  0,  0,  0,  0,  0,  9,  0,  0
6, 11044, 4,N0CALL,     0.38, 3,   boost,   69.84,  98831.00,  209.71,    8.07,   28.97, 16.4, 4.11, 4.11, 4.11, -80.38,  -2.00,  -0.68, -76.49,   0.06,  -1.58,  -1.03,   0.01,  -0.08,   2.70, 4.12, 0.00, 0.01, 0.00, 0.00, 1, 1,  9,  41.4881652, -89.4986964,   221.0, 2024,  3, 17, 18,  4, 38,        0,        0,   0,   0,   1.7,   0.9,   1.4,  0, 35,  0,  0,  0,  0, 40,  0,  0,  0,  0,  0, 34, 18, 39,  0, 29,  0, 36,  0, 32, 29,  0,  0,  0,  0,  0,  0,  0,  9,  0,  0
6, 11044, 4,N0CALL,     0.39, 3,   boost,   69.36,  98848.00,  208.26,    6.62,   29.66, 16.4, 4.11, 4.11, 4.11, -80.72,  -1.44,  -1.82, -75.52,   0.12,  -2.01,  -1.03,   0.01,  -0.08,   2.72, 4.12, 0.00, 0.01, 0.00, 0.00, 1, 1,  9,  41.4881652, -89.4986964,   221.0, 2024,  3, 17, 18,  4, 38,        0,        0,   0,   0,   1.7,   0.9,   1.4,  0, 35,  0,  0,  0,  0, 40,  0,  0,  0,  0,  0, 34, 18, 39,  0, 29,  0, 36,  0, 32, 29,  0,  0,  0,  0,  0,  0,  0,  9,  0,  0
6, 11044, 4,N0CALL,     0.40, 3,   boost,   69.36,  98848.00,  208.26,    6.62,   30.35, 16.4, 4.11, 4.11, 4.11, -81.03,  -0.63,  -2.64, -77.23,  -0.37,  -2.25,  -1.03,   0.02,  -0.08,   2.74, 4.12, 0.00, 0.01, 0.00, 0.00, 1, 1,  9,  41.4881652, -89.4986964,   221.0, 2024,  3, 17, 18,  4, 38,        0,        0,   0,   0,   1.7,   0.9,   1.4,  0, 35,  0,  0,  0,  0, 40,  0,  0,  0,  0,  0, 34, 18, 39,  0, 29,  0, 36,  0, 32, 29,  0,  0,  0,  0,  0,  0,  0,  9,  0,  0
6, 11044, 4,N0CALL,     0.41, 3,   boost,   68.89,  98855.00,  207.67,    6.03,   31.04, 16.4, 4.11, 4.11, 4.11, -81.23,  -0.34,  -1.70, -76.86,  -0.43,  -1.95,  -1.03,   0.02,  -0.08,   2.76, 4.12, 0.00, 0.01, 0.00, 0.00, 1, 1,  9,  41.4881652, -89.4986964,   221.0, 2024,  3, 17, 18,  4, 38,        0,        0,   0,   0,   1.7,   0.9,   1.4,  0, 35,  0,  0,  0,  0, 40,  0,  0,  0,  0,  0, 34, 18, 39,  0, 29,  0, 36,  0, 32, 29,  0,  0,  0,  0,  0,  0,  0,  9,  0,  0
6, 11044, 4,N0CALL,     0.42, 3,   boost,   68.41,  98855.00,  207.67,    6.03,   31.73, 16.4, 4.11, 4.11, 4.11, -81.61,  -0.79,  -0.36, -74.97,  -0.55,  -2.19,  -1.03,   0.02,  -0.07,   2.78, 4.12, 0.00, 0.01, 0.00, 0.00, 1, 1,  9,  41.4881652, -89.4986964,   221.0, 2024,  3, 17, 18,  4, 38,        0,        0,   0,   0,   1.7,   0.9,   1.4,  0, 35,  0,  0,  0,  0, 40,  0,  0,  0,  0,  0, 34, 18, 39,  0, 29,  0, 36,  0, 32, 29,  0,  0,  0,  0,  0,  0,  0,  9,  0,  0
6, 11044, 4,N0CALL,     0.43, 3,   boost,   70.80,  98797.00,  212.59,   10.95,   32.43, 16.4, 4.11, 4.11, 4.11, -81.72,  -1.37,  -1.38, -75.40,  -0.79,  -2.19,  -1.03,   0.02,  -0.07,   2.81, 4.12, 0.00, 0.01, 0.00, 0.00, 1, 1,  9,  41.4881652, -89.4986964,   221.0, 2024,  3, 17, 18,  4, 38,        0,        0,   0,   0,   1.7,   0.9,   1.4,  0, 35,  0,  0,  0,  0, 40,  0,  0,  0,  0,  0, 34, 18, 39,  0, 29,  0, 36,  0, 32, 29,  0,  0,  0,  0,  0,  0,  0,  9,  0,  0
6, 11044, 4,N0CALL,     0.44, 3,   boost,   71.28,  98797.00,  212.59,   10.95,   33.13, 16.4, 4.11, 4.11, 4.11, -81.69,  -1.44,  -2.65, -74.11,  -1.04,  -2.13,  -1.03,   0.02,  -0.07,   2.83, 4.12, 0.00, 0.01, 0.00, 0.00, 1, 1,  9,  41.4881652, -89.4986964,   221.0, 2024,  3, 17, 18,  4, 38,        0,        0,   0,   0,   1.7,   0.9,   1.4,  0, 35,  0,  0,  0,  0, 40,  0,  0,  0,  0,  0, 34, 18, 39,  0, 29,  0, 36,  0, 32, 29,  0,  0,  0,  0,  0,  0,  0,  9,  0,  0
6, 11044, 4,N0CALL,     0.45, 3,   boost,   68.89,  98800.00,  212.34,   10.70,   33.83, 16.4, 4.11, 4.11, 4.11, -82.18,  -1.14,  -2.34, -70.33,  -0.91,  -2.01,  -1.03,   0.02,  -0.07,   2.85, 4.12, 0.00, 0.01, 0.00, 0.00, 1, 1,  9,  41.4881652, -89.4986964,   221.0, 2024,  3, 17, 18,  4, 38,        0,        0,   0,   0,   1.7,   0.9,   1.4,  0, 35,  0,  0,  0,  0, 40,  0,  0,  0,  0,  0, 34, 18, 39,  0, 29,  0, 36,  0, 32, 29,  0,  0,  0,  0,  0,  0,  0,  9,  0,  0
6, 11044, 4,N0CALL,     0.46, 3,   boost,   70.32,  98800.00,  212.34,   10.70,   34.53, 16.4, 4.11, 4.11, 4.11, -82.42,  -1.31,  -1.24, -69.72,  -1.10,  -1.77,  -1.03,   0.02,  -0.07,   2.86, 4.12, 0.00, 0.01, 0.00, 0.00, 1, 1,  9,  41.4881652, -89.4986964,   221.0, 2024,  3, 17, 18,  4, 38,        0,        0,   0,   0,   1.7,   0.9,   1.4,  0, 35,  0,  0,  0,  0, 40,  0,  0,  0,  0,  0, 34, 18, 39,  0, 29,  0, 36,  0, 32, 29,  0,  0,  0,  0,  0,  0,  0,  9,  0,  0
6, 11044, 4,N0CALL,     0.47, 3,   boost,   70.32,  98810.00,  211.49,    9.85,   35.23, 16.4, 4.11, 4.11, 4.11, -82.56,  -1.24,  -1.30, -71.06,  -1.83,  -2.38,  -1.03,   0.02,  -0.07,   2.89, 4.12, 0.00, 0.01, 0.00, 0.00, 1, 1,  9,  41.4881652, -89.4986964,   221.0, 2024,  3, 17, 18,  4, 38,        0,        0,   0,   0,   1.7,   0.9,   1.4,  0, 35,  0,  0,  0,  0, 40,  0,  0,  0,  0,  0, 34, 18, 39,  0, 29,  0, 36,  0, 32, 29,  0,  0,  0,  0,  0,  0,  0,  9,  0,  0
6, 11044, 4,N0CALL,     0.48, 3,   boost,   69.84,  98810.00,  211.49,    9.85,   35.94, 16.4, 4.11, 4.11, 4.11, -82.53,  -0.57,  -2.26, -74.97,  -1.89,  -2.19,  -1.03,   0.02,  -0.07,   2.91, 4.12, 0.00, 0.01, 0.00, 0.00, 1, 1,  9,  41.4881652, -89.4986964,   221.0, 2024,  3, 17, 18,  4, 38,        0,        0,   0,   0,   1.7,   0.9,   1.4,  0, 35,  0,  0,  0,  0, 40,  0,  0,  0,  0,  0, 34, 18, 39,  0, 29,  0, 36,  0, 32, 29,  0,  0,  0,  0,  0,  0,  0,  9,  0,  0
6, 11044, 4,N0CALL,     0.49, 3,   boost,   72.71,  98809.00,  211.57,    9.93,   36.65, 16.4, 4.11, 4.11, 4.11, -82.91,  -0.93,  -2.74, -76.92,  -2.14,  -1.89,  -1.03,   0.02,  -0.06,   2.93, 4.12, 0.00, 0.01, 0.00, 0.00, 1, 1,  9,  41.4881652, -89.4986964,   221.0, 2024,  3, 17, 18,  4, 38,        0,        0,   0,   0,   1.7,   0.9,   1.4,  0, 35,  0,  0,  0,  0, 40,  0,  0,  0,  0,  0, 34, 18, 39,  0, 29,  0, 36,  0, 32, 29,  0,  0,  0,  0,  0,  0,  0,  9,  0,  0
6, 11044, 4,N0CALL,     0.50, 3,   boost,   71.28,  98809.00,  211.57,    9.93,   37.37, 16.4, 4.11, 4.11, 4.11, -83.09,  -1.62,  -1.91, -76.43,  -2.50,  -1.40,  -1.03,   0.02,  -0.06,   2.95, 4.12, 0.00, 0.01, 0.00, 0.00, 1, 1,  9,  41.4881652, -89.4986964,   221.0, 2024,  3, 17, 18,  4, 38,        0,        0,   0,   0,   1.7,   0.9,   1.4,  0, 35,  0,  0,  0,  0, 40,  0,  0,  0,  0,  0, 34, 18, 39,  0, 29,  0, 36,  0, 32, 29,  0,  0,  0,  0,  0,  0,  0,  9,  0,  0
6, 11044, 4,N0CALL,     0.51, 3,   boost,   73.19,  98786.00,  213.53,   11.89,   38.08, 16.4, 4.11, 4.11, 4.11, -83.26,  -1.52,  -1.01, -78.88,  -2.62,  -1.89,  -1.03,   0.02,  -0.06,   2.97, 4.12, 0.00, 0.01, 0.00, 0.00, 1, 1,  9,  41.4881652, -89.4986964,   221.0, 2024,  3, 17, 18,  4, 38,        0,        0,   0,   0,   1.7,   0.9,   1.4,  0, 35,  0,  0,  0,  0, 40,  0,  0,  0,  0,  0, 34, 18, 39,  0, 29,  0, 36,  0, 32, 29,  0,  0,  0,  0,  0,  0,  0,  9,  0,  0
6, 11044, 4,N0CALL,     0.52, 3,   boost,   73.19,  98786.00,  213.53,   11.89,   38.81, 16.4, 4.11, 4.11, 4.11, -83.40,  -0.80,  -1.52, -79.18,  -3.54,  -1.64,  -1.03,   0.02,  -0.05,   2.99, 4.12, 0.00, 0.01, 0.00, 0.00, 1, 1,  9,  41.4881652, -89.4986964,   221.0, 2024,  3, 17, 18,  4, 38,        0,        0,   0,   0,   1.7,   0.9,   1.4,  0, 35,  0,  0,  0,  0, 40,  0,  0,  0,  0,  0, 34, 18, 39,  0, 29,  0, 36,  0, 32, 29,  0,  0,  0,  0,  0,  0,  0,  9,  0,  0
6, 11044, 4,N0CALL,     0.53, 3,   boost,   71.28,  98810.00,  211.49,    9.85,   39.53, 16.4, 4.11, 4.11, 4.11, -83.55,  -0.42,  -2.48, -79.00,  -3.72,  -1.52,  -1.03,   0.02,  -0.05,   3.01, 4.12, 0.00, 0.01, 0.00, 0.00, 1, 1,  9,  41.4881652, -89.4986964,   221.0, 2024,  3, 17, 18,  4, 38,        0,        0,   0,   0,   1.7,   0.9,   1.4,  0, 35,  0,  0,  0,  0, 40,  0,  0,  0,  0,  0, 34, 18, 39,  0, 29,  0, 36,  0, 32, 29,  0,  0,  0,  0,  0,  0,  0,  9,  0,  0
6, 11044, 4,N0CALL,     0.54, 3,   boost,   71.28,  98810.00,  211.49,    9.85,   40.25, 16.4, 4.11, 4.11, 4.11, -83.85,  -0.80,  -2.37, -76.92,  -3.17,  -1.70,  -1.03,   0.02,  -0.05,   3.03, 4.12, 0.00, 0.01, 0.00, 0.00, 1, 1,  9,  41.4881652, -89.4986964,   221.0, 2024,  3, 17, 18,  4, 38,        0,        0,   0,   0,   1.7,   0.9,   1.4,  0, 35,  0,  0,  0,  0, 40,  0,  0,  0,  0,  0, 34, 18, 39,  0, 29,  0, 36,  0, 32, 29,  0,  0,  0,  0,  0,  0,  0,  9,  0,  0
6, 11044, 4,N0CALL,     0.55, 3,   boost,   73.67,  98772.00,  214.72,   13.08,   40.97, 16.4, 4.11, 4.11, 4.11, -85.14,  -1.36,  -1.59, -76.56,  -3.84,  -1.70,  -1.03,   0.02,  -0.05,   3.06, 4.12, 0.00, 0.01, 0.00, 0.00, 1, 1,  9,  41.4881652, -89.4986964,   221.0, 2024,  3, 17, 18,  4, 38,        0,        0,   0,   0,   1.7,   0.9,   1.4,  0, 35,  0,  0,  0,  0, 40,  0,  0,  0,  0,  0, 34, 18, 39,  0, 29,  0, 36,  0, 32, 29,  0,  0,  0,  0,  0,  0,  0,  9,  0,  0
