#version,serial,flight,call,time,state,state_name,acceleration,pressure,altitude,height,speed,temperature,drogue_voltage,main_voltage,battery_voltage,accel_x,accel_y,accel_z,gyro_roll,gyro_pitch,gyro_yaw,mag_x,mag_y,mag_z,tilt,pyro,igniter_a,igniter_b,igniter_c,igniter_d,connected,locked,nsat,latitude,longitude,altitude,year,month,day,hour,minute,second,pad_dist,pad_range,pad_az,pad_el,pdop,hdop,vdop,sat01,sat02,sat03,sat04,sat05,sat06,sat07,sat08,sat09,sat10,sat11,sat12,sat13,sat14,sat15,sat16,sat17,sat18,sat19,sat20,sat21,sat22,sat23,sat24,sat25,sat26,sat27,sat28,sat29,sat30,sat31,sat32
6, 10885, 1,N0CALL,    -0.30, 3,   boost,    1.01,  98587.00,  230.45,   -0.51,    0.00, 38.0, 4.11, 4.11, 4.10,  -9.91,   0.12,  -0.06,  -0.02,  -0.25,   0.13,  -0.96,   0.36,  -0.02,   0.79, 4.14, 0.00, 0.00, 0.00, 0.00, 1, 1, 10,  42.6264277, -88.1615552,   247.0, 2023,  7, 23, 17, 32, 29,        0,        0,   0,   0,   2.0,   0.9,   1.8,  0,  0,  0,  0, 14,  0,  0,  0,  0,  0, 36, 30, 32,  0, 31,  0,  0, 30,  0, 36,  0,  0, 30,  0, 21, 32,  0,  0,  0,  0,  0,  0
6, 10885, 1,N0CALL,    -0.29, 3,   boost,    0.50,  98587.00,  230.45,   -0.51,    0.00, 38.0, 4.11, 4.11, 4.10,  -9.86,   0.14,   0.01,   0.23,  -0.01,  -0.11,  -0.96,   0.36,  -0.02,   0.79, 4.14, 0.00, 0.00, 0.00, 0.00, 1, 1, 10,  42.6264277, -88.1615552,   247.0, 2023,  7, 23, 17, 32, 29,        0,        0,   0,   0,   2.0,   0.9,   1.8,  0,  0,  0,  0, 14,  0,  0,  0,  0,  0, 36, 30, 32,  0, 31,  0,  0, 30,  0, 36,  0,  0, 30,  0, 21, 32,  0,  0,  0,  0,  0,  0
6, 10885, 1,N0CALL,    -0.28, 3,   boost,   -1.01,  98581.00,  230.96,    0.00,    0.00, 38.0, 4.11, 4.11, 4.10,  -9.93,   0.14,  -0.11,   0.10,  -0.19,   0.01,  -0.96,   0.36,  -0.02,   0.79, 4.14, 0.00, 0.00, 0.00, 0.00, 1, 1, 10,  42.6264277, -88.1615552,   247.0, 2023,  7, 23, 17, 32, 29,        0,        0,   0,   0,   2.0,   0.9,   1.8,  0,  0,  0,  0, 14,  0,  0,  0,  0,  0, 36, 30, 32,  0, 31,  0,  0, 30,  0, 36,  0,  0, 30,  0, 21, 32,  0,  0,  0,  0,  0,  0
6, 10885, 1,N0CALL,    -0.27, 3,   boost,   -1.51,  98581.00,  230.96,    0.00,    0.00, 38.0, 4.11, 4.11, 4.10,  -9.87,   0.15,   0.02,   0.04,   0.12,  -0.11,  -0.96,   0.36,  -0.02,   0.79, 4.14, 0.00, 0.00, 0.00, 0.00, 1, 1, 10,  42.6264277, -88.1615552,   247.0, 2023,  7, 23, 17, 32, 29,        0,        0,   0,   0,   2.0,   0.9,   1.8,  0,  0,  0,  0, 14,  0,  0,  0,  0,  0, 36, 30, 32,  0, 31,  0,  0, 30,  0, 36,  0,  0, 30,  0, 21, 32,  0,  0,  0,  0,  0,  0
6, 10885, 1,N0CALL,    -0.26, 3,   boost,   -0.00,  98572.00,  231.73,    0.77,    0.00, 38.0, 4.11, 4.11, 4.10,  -9.91,   0.14,  -0.19,   0.23,   0.06,  -0.11,  -0.96,   0.36,  -0.02,   0.79, 4.14, 0.00, 0.00, 0.00, 0.00, 1, 1, 10,  42.6264277, -88.1615552,   247.0, 2023,  7, 23, 17, 32, 29,        0,        0,   0,   0,   2.0,   0.9,   1.8,  0,  0,  0,  0, 14,  0,  0,  0,  0,  0, 36, 30, 32,  0, 31,  0,  0, 30,  0, 36,  0,  0, 30,  0, 21, 32,  0,  0,  0,  0,  0,  0
6, 10885, 1,N0CALL,    -0.25, 3,   boost,   -1.01,  98572.00,  231.73,    0.77,    0.00, 38.0, 4.11, 4.11, 4.10,  -9.85,   0.20,  -0.12,   0.04,   0.24,   0.07,  -0.96,   0.36,  -0.02,   0.79, 4.14, 0.00, 0.00, 0.00, 0.00, 1, 1, 10,  42.6264277, -88.1615552,   247.0, 2023,  7, 23, 17, 32, 29,        0,        0,   0,   0,   2.0,   0.9,   1.8,  0,  0,  0,  0, 14,  0,  0,  0,  0,  0, 36, 30, 32,  0, 31,  0,  0, 30,  0, 36,  0,  0, 30,  0, 21, 32,  0,  0,  0,  0,  0,  0
6, 10885, 1,N0CALL,    -0.24, 3,   boost,    1.01,  98576.00,  231.39,    0.43,    0.00, 38.0, 4.11, 4.11, 4.10,  -9.92,   0.13,  -0.15,   0.04,  -0.01,  -0.23,  -0.96,   0.36,  -0.02,   0.79, 4.14, 0.00, 0.00, 0.00, 0.00, 1, 1, 10,  42.6264277, -88.1615552,   247.0, 2023,  7, 23, 17, 32, 29,        0,        0,   0,   0,   2.0,   0.9,   1.8,  0,  0,  0,  0, 14,  0,  0,  0,  0,  0, 36, 30, 32,  0, 31,  0,  0, 30,  0, 36,  0,  0, 30,  0, 21, 32,  0,  0,  0,  0,  0,  0
6, 10885, 1,N0CALL,    -0.23, 3,   boost,   -0.50,  98576.00,  231.39,    0.43,    0.00, 38.0, 4.11, 4.11, 4.10,  -9.90,   0.12,  -0.09,   0.17,   0.18,  -0.11,  -0.96,   0.36,  -0.02,   0.79, 4.14, 0.00, 0.00, 0.00, 0.00, 1, 1, 10,  42.6264277, -88.1615552,   247.0, 2023,  7, 23, 17, 32, 29,        0,        0,   0,   0,   2.0,   0.9,   1.8,  0,  0,  0,  0, 14,  0,  0,  0,  0,  0, 36, 30, 32,  0, 31,  0,  0, 30,  0, 36,  0,  0, 30,  0, 21, 32,  0,  0,  0,  0,  0,  0
6, 10885, 1,N0CALL,    -0.22, 3,   boost,   -2.01,  98582.00,  230.88,   -0.09,    0.00, 38.0, 4.11, 4.11, 4.10,  -9.89,   0.15,   0.01,   0.17,   0.06,   0.19,  -0.96,   0.36,  -0.02,   0.79, 4.14, 0.00, 0.00, 0.00, 0.00, 1, 1, 10,  42.6264277, -88.1615552,   247.0, 2023,  7, 23, 17, 32, 29,        0,        0,   0,   0,   2.0,   0.9,   1.8,  0,  0,  0,  0, 14,  0,  0,  0,  0,  0, 36, 30, 32,  0, 31,  0,  0, 30,  0, 36,  0,  0, 30,  0, 21, 32,  0,  0,  0,  0,  0,  0
6, 10885, 1,N0CALL,    -0.21, 3,   boost,    0.50,  98582.00,  230.88,   -0.09,    0.00, 38.0, 4.11, 4.11, 4.10,  -9.86,   0.17,   0.01,   0.04,  -0.19,   0.13,  -0.96,   0.36,  -0.02,   0.79, 4.14, 0.00, 0.00, 0.00, 0.00, 1, 1, 10,  42.6264277, -88.1615552,   247.0, 2023,  7, 23, 17, 32, 29,        0,        0,   0,   0,   2.0,   0.9,   1.8,  0,  0,  0,  0, 14,  0,  0,  0,  0,  0, 36, 30, 32,  0, 31,  0,  0, 30,  0, 36,  0,  0, 30,  0, 21, 32,  0,  0,  0,  0,  0,  0
6, 10885, 1,N0CALL,    -0.20, 3,   boost,    0.50,  98582.00,  230.88,   -0.09,    0.00, 38.0, 4.11, 4.11, 4.10,  -9.91,   0.19,   0.02,  -0.26,  -0.07,  -0.17,  -0.96,   0.36,  -0.02,   0.79, 4.14, 0.00, 0.00, 0.00, 0.00, 1, 1, 10,  42.6264277, -88.1615552,   247.0, 2023,  7, 23, 17, 32, 29,        0,        0,   0,   0,   2.0,   0.9,   1.8,  0,  0,  0,  0, 14,  0,  0,  0,  0,  0, 36, 30, 32,  0, 31,  0,  0, 30,  0, 36,  0,  0, 30,  0, 21, 32,  0,  0,  0,  0,  0,  0
6, 10885, 1,N0CALL,    -0.19, 3,   boost,   -1.01,  98582.00,  230.88,   -0.09,    0.00, 38.0, 4.11, 4.11, 4.10,  -9.86,   0.17,  -0.15,  -0.14,  -0.13,   0.25,  -0.96,   0.36,  -0.02,   0.79, 4.14, 0.00, 0.00, 0.00, 0.00, 1, 1, 10,  42.6264277, -88.1615552,   247.0, 2023,  7, 23, 17, 32, 29,        0,        0,   0,   0,   2.0,   0.9,   1.8,  0,  0,  0,  0, 14,  0,  0,  0,  0,  0, 36, 30, 32,  0, 31,  0,  0, 30,  0, 36,  0,  0, 30,  0, 21, 32,  0,  0,  0,  0,  0,  0
6, 10885, 1,N0CALL,    -0.18, 3,   boost,   -0.00,  98581.00,  230.96,    0.00,    0.00, 38.0, 4.11, 4.11, 4.10,  -9.90,   0.14,  -0.02,  -0.26,  -0.19,   0.38,  -0.96,   0.36,  -0.02,   0.79, 4.14, 0.00, 0.00, 0.00, 0.00, 1, 1, 10,  42.6264277, -88.1615552,   247.0, 2023,  7, 23, 17, 32, 29,        0,        0,   0,   0,   2.0,   0.9,   1.8,  0,  0,  0,  0, 14,  0,  0,  0,  0,  0, 36, 30, 32,  0, 31,  0,  0, 30,  0, 36,  0,  0, 30,  0, 21, 32,  0,  0,  0,  0,  0,  0
6, 10885, 1,N0CALL,    -0.17, 3,   boost,   -0.00,  98581.00,  230.96,    0.00,    0.00, 38.0, 4.11, 4.11, 4.10,  -9.86,   0.10,  -0.06,   0.17,  -0.07,   0.01,  -0.96,   0.36,  -0.02,   0.79, 4.14, 0.00, 0.00, 0.00, 0.00, 1, 1, 10,  42.6264277, -88.1615552,   247.0, 2023,  7, 23, 17, 32, 29,        0,        0,   0,   0,   2.0,   0.9,   1.8,  0,  0,  0,  0, 14,  0,  0,  0,  0,  0, 36, 30, 32,  0, 31,  0,  0, 30,  0, 36,  0,  0, 30,  0, 21, 32,  0,  0,  0,  0,  0,  0
6, 10885, 1,N0CALL,    -0.16, 3,   boost,   -0.50,  98586.00,  230.54,   -0.43,    0.00, 38.0, 4.11, 4.11, 4.10,  -9.91,   0.06,  -0.05,  -0.08,   0.12,   0.07,  -0.96,   0.36,  -0.02,   0.79, 4.14, 0.00, 0.00, 0.00, 0.00, 1, 1, 10,  42.6264277, -88.1615552,   247.0, 2023,  7, 23, 17, 32, 29,        0,        0,   0,   0,   2.0,   0.9,   1.8,  0,  0,  0,  0, 14,  0,  0,  0,  0,  0, 36, 30, 32,  0, 31,  0,  0, 30,  0, 36,  0,  0, 30,  0, 21, 32,  0,  0,  0,  0,  0,  0
6, 10885, 1,N0CALL,    -0.15, 3,   boost,   -1.51,  98586.00,  230.54,   -0.43,    0.00, 38.0, 4.11, 4.11, 4.10,  -9.91,   0.15,   0.09,   0.23,  -0.13,  -0.17,  -0.96,   0.36,  -0.02,   0.79, 4.14, 0.00, 0.00, 0.00, 0.00, 1, 1, 10,  42.6264277, -88.1615552,   247.0, 2023,  7, 23, 17, 32, 29,        0,        0,   0,   0,   2.0,   0.9,   1.8,  0,  0,  0,  0, 14,  0,  0,  0,  0,  0, 36, 30, 32,  0, 31,  0,  0, 30,  0, 36,  0,  0, 30,  0, 21, 32,  0,  0,  0,  0,  0,  0
6, 10885, 1,N0CALL,    -0.14, 3,   boost,   -1.51,  98569.00,  231.98,    1.02,    0.00, 38.0, 4.11, 4.11, 4.10,  -9.90,   0.01,  -0.15,   0.04,   0.06,  -0.05,  -0.96,   0.36,  -0.02,   0.79, 4.14, 0.00, 0.00, 0.00, 0.00, 1, 1, 10,  42.6264277, -88.1615552,   247.0, 2023,  7, 23, 17, 32, 29,        0,        0,   0,   0,   2.0,   0.9,   1.8,  0,  0,  0,  0, 14,  0,  0,  0,  0,  0, 36, 30, 32,  0, 31,  0,  0, 30,  0, 36,  0,  0, 30,  0, 21, 32,  0,  0,  0,  0,  0,  0
6, 10885, 1,N0CALL,    -0.13, 3,   boost,   -1.01,  98569.00,  231.98,    1.02,    0.00, 38.0, 4.11, 4.11, 4.10,  -9.91,   0.15,  -0.02,  -0.32,  -0.01,   0.07,  -0.96,   0.36,  -0.02,   0.79, 4.14, 0.00, 0.00, 0.00, 0.00, 1, 1, 10,  42.6264277, -88.1615552,   247.0, 2023,  7, 23, 17, 32, 29,        0,        0,   0,   0,   2.0,   0.9,   1.8,  0,  0,  0,  0, 14,  0,  0,  0,  0,  0, 36, 30, 32,  0, 31,  0,  0, 30,  0, 36,  0,  0, 30,  0, 21, 32,  0,  0,  0,  0,  0,  0
6, 10885, 1,N0CALL,    -0.12, 3,   boost,   -0.50,  98586.00,  230.54,   -0.43,    0.00, 38.0, 4.11, 4.11, 4.10,  -9.89,   0.11,  -0.23,  -0.08,  -0.13,   0.13,  -0.96,   0.36,  -0.02,   0.79, 4.14, 0.00, 0.00, 0.00, 0.00, 1, 1, 10,  42.6264277, -88.1615552,   247.0, 2023,  7, 23, 17, 32, 29,        0,        0,   0,   0,   2.0,   0.9,   1.8,  0,  0,  0,  0, 14,  0,  0,  0,  0,  0, 36, 30, 32,  0, 31,  0,  0, 30,  0, 36,  0,  0, 30,  0, 21, 32,  0,  0,  0,  0,  0,  0
6, 10885, 1,N0CALL,    -0.11, 3,   boost,   -2.01,  98586.00,  230.54,   -0.43,    0.00, 38.0, 4.11, 4.11, 4.10,  -9.84,   0.09,  -0.11,   0.04,  -0.19,   0.19,  -0.96,   0.36,  -0.02,   0.79, 4.14, 0.00, 0.00, 0.00, 0.00, 1, 1, 10,  42.6264277, -88.1615552,   247.0, 2023,  7, 23, 17, 32, 29,        0,        0,   0,   0,   2.0,   0.9,   1.8,  0,  0,  0,  0, 14,  0,  0,  0,  0,  0, 36, 30, 32,  0, 31,  0,  0, 30,  0, 36,  0,  0, 30,  0, 21, 32,  0,  0,  0,  0,  0,  0
6, 10885, 1,N0CALL,    -0.10, 3,   boost,   -1.51,  98585.00,  230.62,   -0.34,    0.00, 38.0, 4.11, 4.11, 4.10,  -9.86,   0.05,  -0.22,  -0.14,   0.06,  -0.05,  -0.96,   0.36,  -0.02,   0.79, 4.14, 0.00, 0.00, 0.00, 0.00, 1, 1, 10,  42.6264277, -88.1615552,   247.0, 2023,  7, 23, 17, 32, 29,        0,        0,   0,   0,   2.0,   0.9,   1.8,  0,  0,  0,  0, 14,  0,  0,  0,  0,  0, 36, 30, 32,  0, 31,  0,  0, 30,  0, 36,  0,  0, 30,  0, 21, 32,  0,  0,  0,  0,  0,  0
6, 10885, 1,N0CALL,    -0.09, 3,   boost,    1.51,  98585.00,  230.62,   -0.34,    0.00, 38.0, 4.11, 4.11, 4.10,  -9.94,   0.04,   0.07,  -0.08,  -0.13,   0.13,  -0.96,   0.36,  -0.02,   0.79, 4.14, 0.00, 0.00, 0.00, 0.00, 1, 1, 10,  42.6264277, -88.1615552,   247.0, 2023,  7, 23, 17, 32, 29,        0,        0,   0,   0,   2.0,   0.9,   1.8,  0,  0,  0,  0, 14,  0,  0,  0,  0,  0, 36, 30, 32,  0, 31,  0,  0, 30,  0, 36,  0,  0, 30,  0, 21, 32,  0,  0,  0,  0,  0,  0
6, 10885, 1,N0CALL,    -0.08, 3,   boost,   -0.50,  98583.00,  230.79,   -0.17,    0.01, 38.0, 4.11, 4.11, 4.10,  -9.96,   0.02,   0.06,   0.04,   0.30,   0.01,  -0.96,   0.36,  -0.02,   0.79, 4.14, 0.00, 0.00, 0.00, 0.00, 1, 1, 10,  42.6264277, -88.1615552,   247.0, 2023,  7, 23, 17, 32, 29,        0,        0,   0,   0,   2.0,   0.9,   1.8,  0,  0,  0,  0, 14,  0,  0,  0,  0,  0, 36, 30, 32,  0, 31,  0,  0, 30,  0, 36,  0,  0, 30,  0, 21, 32,  0,  0,  0,  0,  0,  0
6, 10885, 1,N0CALL,    -0.07, 3,   boost,   -1.01,  98583.00,  230.79,   -0.17,    0.04, 38.0, 4.11, 4.11, 4.10,  -9.96,   0.08,   0.01,  -0.20,   0.18,   0.07,  -0.96,   0.36,  -0.02,   0.79, 4.14, 0.00, 0.00, 0.00, 0.00, 1, 1, 10,  42.6264277, -88.1615552,   247.0, 2023,  7, 23, 17, 32, 29,        0,        0,   0,   0,   2.0,   0.9,   1.8,  0,  0,  0,  0, 14,  0,  0,  0,  0,  0, 36, 30, 32,  0, 31,  0,  0, 30,  0, 36,  0,  0, 30,  0, 21, 32,  0,  0,  0,  0,  0,  0
6, 10885, 1,N0CALL,    -0.06, 3,   boost,   -0.50,  98584.00,  230.71,   -0.26,    0.15, 38.0, 4.11, 4.11, 4.10,  -9.91,   0.16,   0.03,   0.23,  -0.13,   0.07,  -0.96,   0.36,  -0.02,   0.79, 4.14, 0.00, 0.00, 0.00, 0.00, 1, 1, 10,  42.6264277, -88.1615552,   247.0, 2023,  7, 23, 17, 32, 29,        0,        0,   0,   0,   2.0,   0.9,   1.8,  0,  0,  0,  0, 14,  0,  0,  0,  0,  0, 36, 30, 32,  0, 31,  0,  0, 30,  0, 36,  0,  0, 30,  0, 21, 32,  0,  0,  0,  0,  0,  0
6, 10885, 1,N0CALL,    -0.05, 3,   boost,    4.53,  98584.00,  230.71,   -0.26,    0.38, 38.0, 4.11, 4.11, 4.10,  -9.86,   0.11,  -0.34,  -0.02,   0.18,  -0.17,  -0.96,   0.36,  -0.02,   0.79, 4.14, 0.00, 0.00, 0.00, 0.00, 1, 1, 10,  42.6264277, -88.1615552,   247.0, 2023,  7, 23, 17, 32, 29,        0,        0,   0,   0,   2.0,   0.9,   1.8,  0,  0,  0,  0, 14,  0,  0,  0,  0,  0, 36, 30, 32,  0, 31,  0,  0, 30,  0, 36,  0,  0, 30,  0, 21, 32,  0,  0,  0,  0,  0,  0
6, 10885, 1,N0CALL,    -0.04, 3,   boost,   80.97,  98586.00,  230.54,   -0.43,    0.78, 38.0, 4.11, 4.11, 4.10, -11.20,   0.14,  -0.13,  -0.20,  -0.07,   0.07,  -0.96,   0.36,  -0.02,   0.79, 4.14, 0.00, 0.00, 0.00, 0.00, 1, 1, 10,  42.6264277, -88.1615552,   247.0, 2023,  7, 23, 17, 32, 29,        0,        0,   0,   0,   2.0,   0.9,   1.8,  0,  0,  0,  0, 14,  0,  0,  0,  0,  0, 36, 30, 32,  0, 31,  0,  0, 30,  0, 36,  0,  0, 30,  0, 21, 32,  0,  0,  0,  0,  0,  0
6, 10885, 1,N0CALL,    -0.03, 3,   boost,   76.94,  98586.00,  230.54,   -0.43,    1.36, 38.0, 4.11, 4.11, 4.10, -92.37,  -1.72,   1.33,   0.10,  -0.92,  -0.54,  -0.96,   0.36,  -0.02,   0.79, 4.14, 0.00, 0.00, 0.00, 0.00, 1, 1, 10,  42.6264277, -88.1615552,   247.0, 2023,  7, 23, 17, 32, 29,        0,        0,   0,   0,   2.0,   0.9,   1.8,  0,  0,  0,  0, 14,  0,  0,  0,  0,  0, 36, 30, 32,  0, 31,  0,  0, 30,  0, 36,  0,  0, 30,  0, 21, 32,  0,  0,  0,  0,  0,  0
6, 10885, 1,N0CALL,    -0.02, 3,   boost,   89.01,  98694.00,  221.35,   -9.61,    2.11, 38.0, 4.11, 4.11, 4.10, -83.48,  -2.28,  -6.86, -13.99,   0.36,  -0.54,  -0.96,   0.36,  -0.01,   0.79, 4.14, 0.00, 0.00, 0.00, 0.00, 1, 1, 10,  42.6264277, -88.1615552,   247.0, 2023,  7, 23, 17, 32, 29,        0,        0,   0,   0,   2.0,   0.9,   1.8,  0,  0,  0,  0, 14,  0,  0,  0,  0,  0, 36, 30, 32,  0, 31,  0,  0, 30,  0, 36,  0,  0, 30,  0, 21, 32,  0,  0,  0,  0,  0,  0
6, 10885, 1,N0CALL,    -0.01, 3,   boost,   97.56,  98694.00,  221.35,   -9.61,    2.98, 38.0, 4.11, 4.11, 4.10, -98.38,   1.03,   7.36, -50.68,   4.15,  -0.90,  -0.96,   0.36,  -0.01,   0.79, 4.14, 0.00, 0.00, 0.00, 0.00, 1, 1, 10,  42.6264277, -88.1615552,   247.0, 2023,  7, 23, 17, 32, 29,        0,        0,   0,   0,   2.0,   0.9,   1.8,  0,  0,  0,  0, 14,  0,  0,  0,  0,  0, 36, 30, 32,  0, 31,  0,  0, 30,  0, 36,  0,  0, 30,  0, 21, 32,  0,  0,  0,  0,  0,  0
6, 10885, 1,N0CALL,     0.00, 3,   boost,  105.11,  98607.00,  228.75,   -2.21,    3.92, 38.0, 4.11, 4.11, 4.10,-103.13,   7.30, -17.25, -34.93,   2.50,  -0.11,  -0.96,   0.36,  -0.01,   0.79, 4.14, 0.00, 0.00, 0.00, 0.00, 1, 1, 10,  42.6264277, -88.1615552,   247.0, 2023,  7, 23, 17, 32, 29,        0,        0,   0,   0,   2.0,   0.9,   1.8,  0,  0,  0,  0, 14,  0,  0,  0,  0,  0, 36, 30, 32,  0, 31,  0,  0, 30,  0, 36,  0,  0, 30,  0, 21, 32,  0,  0,  0,  0,  0,  0
6, 10885, 1,N0CALL,     0.00, 3,   boost,  105.11,  98607.00,  228.75,   -2.21,    3.92, 38.0, 4.11, 4.11, 4.10,-103.13,   7.30, -17.25, -34.93,   2.50,  -0.11,  -0.96,   0.36,  -0.01,   0.79, 4.14, 0.00, 0.00, 0.00, 0.00, 1, 1, 10,  42.6264277, -88.1615552,   247.0, 2023,  7, 23, 17, 32, 29,        0,        0,   0,   0,   2.0,   0.9,   1.8,  0,  0,  0,  0, 14,  0,  0,  0,  0,  0, 36, 30, 32,  0, 31,  0,  0, 30,  0, 36,  0,  0, 30,  0, 21, 32,  0,  0,  0,  0,  0,  0
6, 10885, 1,N0CALL,     0.00, 3,   boost,  105.11,  98607.00,  228.75,   -2.21,    3.92, 38.0, 4.11, 4.11, 4.10,-103.13,   7.30, -17.25, -34.93,   2.50,  -0.11,  -0.96,   0.36,  -0.01,   0.79, 4.14, 0.00, 0.00, 0.00, 0.00, 1, 1, 10,  42.6264277, -88.1615552,   247.0, 2023,  7, 23, 17, 32, 29,        0,        0,   0,   0,   2.0,   0.9,   1.8,  0,  0,  0,  0, 14,  0,  0,  0,  0,  0, 36, 30, 32,  0, 31,  0,  0, 30,  0, 36,  0,  0, 30,  0, 21, 32,  0,  0,  0,  0,  0,  0
6, 10885, 1,N0CALL,     0.00, 3,   boost,  105.11,  98607.00,  228.75,   -2.21,    3.92, 38.0, 4.11, 4.11, 4.10,-103.13,   7.30, -17.25, -34.93,   2.50,  -0.11,  -0.96,   0.36,  -0.01,   0.79, 4.14, 0.00, 0.00, 0.00, 0.00, 1, 1, 10,  42.6264277, -88.1615552,   247.0, 2023,  7, 23, 17, 32, 29,        0,        0,   0,   0,   2.0,   0.9,   1.8,  0,  0,  0,  0, 14,  0,  0,  0,  0,  0, 36, 30, 32,  0, 31,  0,  0, 30,  0, 36,  0,  0, 30,  0, 21, 32,  0,  0,  0,  0,  0,  0
6, 10885, 1,N0CALL,     0.00, 3,   boost,  105.11,  98607.00,  228.75,   -2.21,    3.92, 38.0, 4.11, 4.11, 4.10,-103.13,   7.30, -17.25, -34.93,   2.50,  -0.11,  -0.96,   0.36,  -0.01,   0.79, 4.14, 0.00, 0.00, 0.00, 0.00, 1, 1, 10,  42.6264277, -88.1615552,   247.0, 2023,  7, 23, 17, 32, 29,        0,        0,   0,   0,   2.0,   0.9,   1.8,  0,  0,  0,  0, 14,  0,  0,  0,  0,  0, 36, 30, 32,  0, 31,  0,  0, 30,  0, 36,  0,  0, 30,  0, 21, 32,  0,  0,  0,  0,  0,  0
6, 10885, 1,N0CALL,     0.00, 3,   boost,  105.11,  98607.00,  228.75,   -2.21,    3.92, 38.0, 4.11, 4.11, 4.10,-103.13,   7.30, -17.25, -34.93,   2.50,  -0.11,  -0.96,   0.36,  -0.01,   0.79, 4.14, 0.00, 0.00, 0.00, 0.00, 1, 1, 10,  42.6264277, -88.1615552,   247.0, 2023,  7, 23, 17, 32, 29,        0,        0,   0,   0,   2.0,   0.9,   1.8,  0,  0,  0,  0, 14,  0,  0,  0,  0,  0, 36, 30, 32,  0, 31,  0,  0, 30,  0, 36,  0,  0, 30,  0, 21, 32,  0,  0,  0,  0,  0,  0
6, 10885, 1,N0CALL,     0.00, 3,   boost,  105.11,  98607.00,  228.75,   -2.21,    3.92, 38.0, 4.11, 4.11, 4.10,-103.13,   7.30, -17.25, -34.93,   2.50,  -0.11,  -0.96,   0.36,  -0.01,   0.79, 4.14, 0.00, 0.00, 0.00, 0.00, 1, 1, 10,  42.6264277, -88.1615552,   247.0, 2023,  7, 23, 17, 32, 29,        0,        0,   0,   0,   2.0,   0.9,   1.8,  0,  0,  0,  0, 14,  0,  0,  0,  0,  0, 36, 30, 32,  0, 31,  0,  0, 30,  0, 36,  0,  0, 30,  0, 21, 32,  0,  0,  0,  0,  0,  0
6, 10885, 1,N0CALL,     0.00, 3,   boost,  105.11,  98607.00,  228.75,   -2.21,    3.92, 38.0, 4.11, 4.11, 4.10,-103.13,   7.30, -17.25, -34.93,   2.50,  -0.11,  -0.96,   0.36,  -0.01,   0.79, 4.14, 0.00, 0.00, 0.00, 0.00, 1, 1, 10,  42.6264277, -88.1615552,   247.0, 2023,  7, 23, 17, 32, 29,        0,        0,   0,   0,   2.0,   0.9,   1.8,  0,  0,  0,  0, 14,  0,  0,  0,  0,  0, 36, 30, 32,  0, 31,  0,  0, 30,  0, 36,  0,  0, 30,  0, 21, 32,  0,  0,  0,  0,  0,  0
6, 10885, 1,N0CALL,     0.00, 3,   boost,  105.11,  98607.00,  228.75,   -2.21,    3.92, 38.0, 4.11, 4.11, 4.10,-103.13,   7.30, -17.25, -34.93,   2.50,  -0.11,  -0.96,   0.36,  -0.01,   0.79, 4.14, 0.00, 0.00, 0.00, 0.00, 1, 1, 10,  42.6264277, -88.1615552,   247.0, 2023,  7, 23, 17, 32, 29,        0,        0,   0,   0,   2.0,   0.9,   1.8,  0,  0,  0,  0, 14,  0,  0,  0,  0,  0, 36, 30, 32,  0, 31,  0,  0, 30,  0, 36,  0,  0, 30,  0, 21, 32,  0,  0,  0,  0,  0,  0
6, 10885, 1,N0CALL,     0.00, 3,   boost,  105.11,  98607.00,  228.75,   -2.21,    3.92, 38.0, 4.11, 4.11, 4.10,-103.13,   7.30, -17.25, -34.93,   2.50,  -0.11,  -0.96,   0.36,  -0.01,   0.79, 4.14, 0.00, 0.00, 0.00, 0.00, 1, 1, 10,  42.6264277, -88.1615552,   247.0, 2023,  7, 23, 17, 32, 29,        0,        0,   0,   0,   2.0,   0.9,   1.8,  0,  0,  0,  0, 14,  0,  0,  0,  0,  0, 36, 30, 32,  0, 31,  0,  0, 30,  0, 36,  0,  0, 30,  0, 21, 32,  0,  0,  0,  0,  0,  0
6, 10885, 1,N0CALL,     0.00, 3,   boost,  105.11,  98607.00,  228.75,   -2.21,    3.92, 38.0, 4.11, 4.11, 4.10,-103.13,   7.30, -17.25, -34.93,   2.50,  -0.11,  -0.96,   0.36,  -0.01,   0.79, 4.14, 0.00, 0.00, 0.00, 0.00, 1, 1, 10,  42.6264277, -88.1615552,   247.0, 2023,  7, 23, 17, 32, 29,        0,        0,   0,   0,   2.0,   0.9,   1.8,  0,  0,  0,  0, 14,  0,  0,  0,  0,  0, 36, 30, 32,  0, 31,  0,  0, 30,  0, 36,  0,  0, 30,  0, 21, 32,  0,  0,  0,  0,  0,  0
6, 10885, 1,N0CALL,     0.00, 3,   boost,  105.11,  98607.00,  228.75,   -2.21,    3.92, 38.0, 4.11, 4.11, 4.10,-103.13,   7.30, -17.25, -34.93,   2.50,  -0.11,  -0.96,   0.36,  -0.01,   0.79, 4.14, 0.00, 0.00, 0.00, 0.00, 1, 1, 10,  42.6264277, -88.1615552,   247.0, 2023,  7, 23, 17, 32, 29,        0,        0,   0,   0,   2.0,   0.9,   1.8,  0,  0,  0,  0, 14,  0,  0,  0,  0,  0, 36, 30, 32,  0, 31,  0,  0, 30,  0, 36,  0,  0, 30,  0, 21, 32,  0,  0,  0,  0,  0,  0
6, 10885, 1,N0CALL,     0.00, 3,   boost,  105.11,  98607.00,  228.75,   -2.21,    3.92, 38.0, 4.11, 4.11, 4.10,-103.13,   7.30, -17.25, -34.93,   2.50,  -0.11,  -0.96,   0.36,  -0.01,   0.79, 4.14, 0.00, 0.00, 0.00, 0.00, 1, 1, 10,  42.6264277, -88.1615552,   247.0, 2023,  7, 23, 17, 32, 29,        0,        0,   0,   0,   2.0,   0.9,   1.8,  0,  0,  0,  0, 14,  0,  0,  0,  0,  0, 36, 30, 32,  0, 31,  0,  0, 30,  0, 36,  0,  0, 30,  0, 21, 32,  0,  0,  0,  0,  0,  0
6, 10885, 1,N0CALL,     0.00, 3,   boost,  105.11,  98607.00,  228.75,   -2.21,    3.92, 38.0, 4.11, 4.11, 4.10,-103.13,   7.30, -17.25, -34.93,   2.50,  -0.11,  -0.96,   0.36,  -0.01,   0.79, 4.14, 0.00, 0.00, 0.00, 0.00, 1, 1, 10,  42.6264277, -88.1615552,   247.0, 2023,  7, 23, 17, 32, 29,        0,        0,   0,   0,   2.0,   0.9,   1.8,  0,  0,  0,  0, 14,  0,  0,  0,  0,  0, 36, 30, 32,  0, 31,  0,  0, 30,  0, 36,  0,  0, 30,  0, 21, 32,  0,  0,  0,  0,  0,  0
6, 10885, 1,N0CALL,     0.00, 3,   boost,  105.11,  98607.00,  228.75,   -2.21,    3.92, 38.0, 4.11, 4.11, 4.10,-103.13,   7.30, -17.25, -34.93,   2.50,  -0.11,  -0.96,   0.36,  -0.01,   0.79, 4.14, 0.00, 0.00, 0.00, 0.00, 1, 1, 10,  42.6264277, -88.1615552,   247.0, 2023,  7, 23, 17, 32, 29,        0,        0,   0,   0,   2.0,   0.9,   1.8,  0,  0,  0,  0, 14,  0,  0,  0,  0,  0, 36, 30, 32,  0, 31,  0,  0, 30,  0, 36,  0,  0, 30,  0, 21, 32,  0,  0,  0,  0,  0,  0
6, 10885, 1,N0CALL,     0.00, 3,   boost,  105.11,  98607.00,  228.75,   -2.21,    3.92, 38.0, 4.11, 4.11, 4.10,-103.13,   7.30, -17.25, -34.93,   2.50,  -0.11,  -0.96,   0.36,  -0.01,   0.79, 4.14, 0.00, 0.00, 0.00, 0.00, 1, 1, 10,  42.6264277, -88.1615552,   247.0, 2023,  7, 23, 17, 32, 29,        0,        0,   0,   0,   2.0,   0.9,   1.8,  0,  0,  0,  0, 14,  0,  0,  0,  0,  0, 36, 30, 32,  0, 31,  0,  0, 30,  0, 36,  0,  0, 30,  0, 21, 32,  0,  0,  0,  0,  0,  0
6, 10885, 1,N0CALL,     0.00, 3,   boost,  105.11,  98607.00,  228.75,   -2.21,    3.92, 38.0, 4.11, 4.11, 4.10,-103.13,   7.30, -17.25, -34.93,   2.50,  -0.11,  -0.96,   0.36,  -0.01,   0.78, 4.14, 0.00, 0.00, 0.00, 0.00, 1, 1, 10,  42.6264277, -88.1615552,   247.0, 2023,  7, 23, 17, 32, 29,        0,        0,   0,   0,   2.0,   0.9,   1.8,  0,  0,  0,  0, 14,  0,  0,  0,  0,  0, 36, 30, 32,  0, 31,  0,  0, 30,  0, 36,  0,  0, 30,  0, 21, 32,  0,  0,  0,  0,  0,  0
6, 10885, 1,N0CALL,     0.00, 3,   boost,  105.11,  98607.00,  228.75,   -2.21,    3.92, 38.0, 4.11, 4.11, 4.10,-103.13,   7.30, -17.25, -34.93,   2.50,  -0.11,  -0.96,   0.36,  -0.01,   0.78, 4.14, 0.00, 0.00, 0.00, 0.00, 1, 1, 10,  42.6264277, -88.1615552,   247.0, 2023,  7, 23, 17, 32, 29,        0,        0,   0,   0,   2.0,   0.9,   1.8,  0,  0,  0,  0, 14,  0,  0,  0,  0,  0, 36, 30, 32,  0, 31,  0,  0, 30,  0, 36,  0,  0, 30,  0, 21, 32,  0,  0,  0,  0,  0,  0
6, 10885, 1,N0CALL,     0.00, 3,   boost,  105.11,  98607.00,  228.75,   -2.21,    3.92, 38.0, 4.11, 4.11, 4.10,-103.13,   7.30, -17.25, -34.93,   2.50,  -0.11,  -0.96,   0.36,  -0.01,   0.78, 4.14, 0.00, 0.00, 0.00, 0.00, 1, 1, 10,  42.6264277, -88.1615552,   247.0, 2023,  7, 23, 17, 32, 29,        0,        0,   0,   0,   2.0,   0.9,   1.8,  0,  0,  0,  0, 14,  0,  0,  0,  0,  0, 36, 30, 32,  0, 31,  0,  0, 30,  0, 36,  0,  0, 30,  0, 21, 32,  0,  0,  0,  0,  0,  0
6, 10885, 1,N0CALL,     0.00, 3,   boost,  105.11,  98607.00,  228.75,   -2.21,    3.92, 38.0, 4.11, 4.11, 4.10,-103.13,   7.30, -17.25, -34.93,   2.50,  -0.11,  -0.96,   0.36,  -0.01,   0.79, 4.14, 0.00, 0.00, 0.00, 0.00, 1, 1, 10,  42.6264277, -88.1615552,   247.0, 2023,  7, 23, 17, 32, 29,        0,        0,   0,   0,   2.0,   0.9,   1.8,  0,  0,  0,  0, 14,  0,  0,  0,  0,  0, 36, 30, 32,  0, 31,  0,  0, 30,  0, 36,  0,  0, 30,  0, 21, 32,  0,  0,  0,  0,  0,  0
6, 10885, 1,N0CALL,     0.00, 3,   boost,  105.11,  98607.00,  228.75,   -2.21,    3.92, 38.0, 4.11, 4.11, 4.10,-103.13,   7.30, -17.25, -34.93,   2.50,  -0.11,  -0.96,   0.36,  -0.01,   0.79, 4.14, 0.00, 0.00, 0.00, 0.00, 1, 1, 10,  42.6264277, -88.1615552,   247.0, 2023,  7, 23, 17, 32, 29,        0,        0,   0,   0,   2.0,   0.9,   1.8,  0,  0,  0,  0, 14,  0,  0,  0,  0,  0, 36, 30, 32,  0, 31,  0,  0, 30,  0, 36,  0,  0, 30,  0, 21, 32,  0,  0,  0,  0,  0,  0
6, 10885, 1,N0CALL,     0.00, 3,   boost,  105.11,  98607.00,  228.75,   -2.21,    3.92, 38.0, 4.11, 4.11, 4.10,-103.13,   7.30, -17.25, -34.93,   2.50,  -0.11,  -0.96,   0.36,  -0.01,   0.78, 4.14, 0.00, 0.00, 0.00, 0.00, 1, 1, 10,  42.6264277, -88.1615552,   247.0, 2023,  7, 23, 17, 32, 29,        0,        0,   0,   0,   2.0,   0.9,   1.8,  0,  0,  0,  0, 14,  0,  0,  0,  0,  0, 36, 30, 32,  0, 31,  0,  0, 30,  0, 36,  0,  0, 30,  0, 21, 32,  0,  0,  0,  0,  0,  0
6, 10885, 1,N0CALL,     0.00, 3,   boost,  105.11,  98607.00,  228.75,   -2.21,    3.92, 38.0, 4.11, 4.11, 4.10,-103.13,   7.30, -17.25, -34.93,   2.50,  -0.11,  -0.96,   0.36,  -0.01,   0.78, 4.14, 0.00, 0.00, 0.00, 0.00, 1, 1, 10,  42.6264277, -88.1615552,   247.0, 2023,  7, 23, 17, 32, 29,        0,        0,   0,   0,   2.0,   0.9,   1.8,  0,  0,  0,  0, 14,  0,  0,  0,  0,  0, 36, 30, 32,  0, 31,  0,  0, 30,  0, 36,  0,  0, 30,  0, 21, 32,  0,  0,  0,  0,  0,  0
6, 10885, 1,N0CALL,     0.00, 3,   boost,  105.11,  98607.00,  228.75,   -2.21,    3.92, 38.0, 4.11, 4.11, 4.10,-103.13,   7.30, -17.25, -34.93,   2.50,  -0.11,  -0.96,   0.36,  -0.01,   0.78, 4.14, 0.00, 0.00, 0.00, 0.00, 1, 1, 10,  42.6264277, -88.1615552,   247.0, 2023,  7, 23, 17, 32, 29,        0,        0,   0,   0,   2.0,   0.9,   1.8,  0,  0,  0,  0, 14,  0,  0,  0,  0,  0, 36, 30, 32,  0, 31,  0,  0, 30,  0, 36,  0,  0, 30,  0, 21, 32,  0,  0,  0,  0,  0,  0
6, 10885, 1,N0CALL,     0.00, 3,   boost,  105.11,  98607.00,  228.75,   -2.21,    3.92, 38.0, 4.11, 4.11, 4.10,-103.13,   7.30, -17.25, -34.93,   2.50,  -0.11,  -0.96,   0.36,  -0.01,   0.78, 4.14, 0.00, 0.00, 0.00, 0.00, 1, 1, 10,  42.6264277, -88.1615552,   247.0, 2023,  7, 23, 17, 32, 29,        0,        0,   0,   0,   2.0,   0.9,   1.8,  0,  0,  0,  0, 14,  0,  0,  0,  0,  0, 36, 30, 32,  0, 31,  0,  0, 30,  0, 36,  0,  0, 30,  0, 21, 32,  0,  0,  0,  0,  0,  0
6, 10885, 1,N0CALL,     0.00, 3,   boost,  105.11,  98607.00,  228.75,   -2.21,    3.92, 38.0, 4.11, 4.11, 4.10,-103.13,   7.30, -17.25, -34.93,   2.50,  -0.11,  -0.96,   0.36,  -0.01,   0.78, 4.14, 0.00, 0.00, 0.00, 0.00, 1, 1, 10,  42.6264277, -88.1615552,   247.0, 2023,  7, 23, 17, 32, 29,        0,        0,   0,   0,   2.0,   0.9,   1.8,  0,  0,  0,  0, 14,  0,  0,  0,  0,  0, 36, 30, 32,  0, 31,  0,  0, 30,  0, 36,  0,  0, 30,  0, 21, 32,  0,  0,  0,  0,  0,  0
6, 10885, 1,N0CALL,     0.00, 3,   boost,  105.11,  98607.00,  228.75,   -2.21,    3.92, 38.0, 4.11, 4.11, 4.10,-103.13,   7.30, -17.25, -34.93,   2.50,  -0.11,  -0.96,   0.36,  -0.01,   0.78, 4.14, 0.00, 0.00, 0.00, 0.00, 1, 1, 10,  42.6264277, -88.1615552,   247.0, 2023,  7, 23, 17, 32, 29,        0,        0,   0,   0,   2.0,   0.9,   1.8,  0,  0,  0,  0, 14,  0,  0,  0,  0,  0, 36, 30, 32,  0, 31,  0,  0, 30,  0, 36,  0,  0, 30,  0, 21, 32,  0,  0,  0,  0,  0,  0
6, 10885, 1,N0CALL,     0.00, 3,   boost,  105.11,  98607.00,  228.75,   -2.21,    3.92, 38.0, 4.11, 4.11, 4.10,-103.13,   7.30, -17.25, -34.93,   2.50,  -0.11,  -0.96,   0.36,  -0.01,   0.78, 4.14, 0.00, 0.00, 0.00, 0.00, 1, 1, 10,  42.6264277, -88.1615552,   247.0, 2023,  7, 23, 17, 32, 29,        0,        0,   0,   0,   2.0,   0.9,   1.8,  0,  0,  0,  0, 14,  0,  0,  0,  0,  0, 36, 30, 32,  0, 31,  0,  0, 30,  0, 36,  0,  0, 30,  0, 21, 32,  0,  0,  0,  0,  0,  0
6, 10885, 1,N0CALL,     0.00, 3,   boost,  105.11,  98607.00,  228.75,   -2.21,    3.92, 38.0, 4.11, 4.11, 4.10,-103.13,   7.30, -17.25, -34.93,   2.50,  -0.11,  -0.96,   0.36,  -0.01,   0.78, 4.14, 0.00, 0.00, 0.00, 0.00, 1, 1, 10,  42.6264277, -88.1615552,   247.0, 2023,  7, 23, 17, 32, 29,        0,        0,   0,   0,   2.0,   0.9,   1.8,  0,  0,  0,  0, 14,  0,  0,  0,  0,  0, 36, 30, 32,  0, 31,  0,  0, 30,  0, 36,  0,  0, 30,  0, 21, 32,  0,  0,  0,  0,  0,  0
6, 10885, 1,N0CALL,     0.00, 3,   boost,  105.11,  98607.00,  228.75,   -2.21,    3.92, 38.0, 4.11, 4.11, 4.10,-103.13,   7.30, -17.25, -34.93,   2.50,  -0.11,  -0.96,   0.36,  -0.01,   0.78, 4.14, 0.00, 0.00, 0.00, 0.00, 1, 1, 10,  42.6264277, -88.1615552,   247.0, 2023,  7, 23, 17, 32, 29,        0,        0,   0,   0,   2.0,   0.9,   1.8,  0,  0,  0,  0, 14,  0,  0,  0,  0,  0, 36, 30, 32,  0, 31,  0,  0, 30,  0, 36,  0,  0, 30,  0, 21, 32,  0,  0,  0,  0,  0,  0
6, 10885, 1,N0CALL,     0.00, 3,   boost,  105.11,  98607.00,  228.75,   -2.21,    3.92, 38.0, 4.11, 4.11, 4.10,-103.13,   7.30, -17.25, -34.93,   2.50,  -0.11,  -0.96,   0.36,  -0.01,   0.78, 4.14, 0.00, 0.00, 0.00, 0.00, 1, 1, 10,  42.6264277, -88.1615552,   247.0, 2023,  7, 23, 17, 32, 29,        0,        0,   0,   0,   2.0,   0.9,   1.8,  0,  0,  0,  0, 14,  0,  0,  0,  0,  0, 36, 30, 32,  0, 31,  0,  0, 30,  0, 36,  0,  0, 30,  0, 21, 32,  0,  0,  0,  0,  0,  0
6, 10885, 1,N0CALL,     0.00, 3,   boost,  105.11,  98607.00,  228.75,   -2.21,    3.92, 38.0, 4.11, 4.11, 4.10,-103.13,   7.30, -17.25, -34.93,   2.50,  -0.11,  -0.96,   0.36,  -0.01,   0.79, 4.14, 0.00, 0.00, 0.00, 0.00, 1, 1, 10,  42.6264277, -88.1615552,   247.0, 2023,  7, 23, 17, 32, 29,        0,        0,   0,   0,   2.0,   0.9,   1.8,  0,  0,  0,  0, 14,  0,  0,  0,  0,  0, 36, 30, 32,  0, 31,  0,  0, 30,  0, 36,  0,  0, 30,  0, 21, 32,  0,  0,  0,  0,  0,  0
6, 10885, 1,N0CALL,     0.00, 3,   boost,  105.11,  98607.00,  228.75,   -2.21,    3.92, 38.0, 4.11, 4.11, 4.10,-103.13,   7.30, -17.25, -34.93,   2.50,  -0.11,  -0.96,   0.36,  -0.01,   0.79, 4.14, 0.00, 0.00, 0.00, 0.00, 1, 1, 10,  42.6264277, -88.1615552,   247.0, 2023,  7, 23, 17, 32, 29,        0,        0,   0,   0,   2.0,   0.9,   1.8,  0,  0,  0,  0, 14,  0,  0,  0,  0,  0, 36, 30, 32,  0, 31,  0,  0, 30,  0, 36,  0,  0, 30,  0, 21, 32,  0,  0,  0,  0,  0,  0
6, 10885, 1,N0CALL,     0.00, 3,   boost,  105.11,  98607.00,  228.75,   -2.21,    3.92, 38.0, 4.11, 4.11, 4.10,-103.13,   7.30, -17.25, -34.93,   2.50,  -0.11,  -0.96,   0.36,  -0.01,   0.78, 4.14, 0.00, 0.00, 0.00, 0.00, 1, 1, 10,  42.6264277, -88.1615552,   247.0, 2023,  7, 23, 17, 32, 29,        0,        0,   0,   0,   2.0,   0.9,   1.8,  0,  0,  0,  0, 14,  0,  0,  0,  0,  0, 36, 30, 32,  0, 31,  0,  0, 30,  0, 36,  0,  0, 30,  0, 21, 32,  0,  0,  0,  0,  0,  0
6, 10885, 1,N0CALL,     0.00, 3,   boost,  105.11,  98607.00,  228.75,   -2.21,    3.92, 38.0, 4.11, 4.11, 4.10,-103.13,   7.30, -17.25, -34.93,   2.50,  -0.11,  -0.96,   0.36,  -0.01,   0.77, 4.14, 0.00, 0.00, 0.00, 0.00, 1, 1, 10,  42.6264277, -88.1615552,   247.0, 2023,  7, 23, 17, 32, 29,        0,        0,   0,   0,   2.0,   0.9,   1.8,  0,  0,  0,  0, 14,  0,  0,  0,  0,  0, 36, 30, 32,  0, 31,  0,  0, 30,  0, 36,  0,  0, 30,  0, 21, 32,  0,  0,  0,  0,  0,  0
6, 10885, 1,N0CALL,     0.01, 3,   boost,   99.58,  98607.00,  228.75,   -2.21,    4.90, 38.0, 4.11, 4.11, 4.10,-111.26,  -2.16,  -8.94,  26.65,  -3.18,  -0.54,  -0.96,   0.36,  -0.01,   0.79, 4.14, 0.00, 0.00, 0.00, 0.00, 1, 1, 10,  42.6264277, -88.1615552,   247.0, 2023,  7, 23, 17, 32, 29,        0,        0,   0,   0,   2.0,   0.9,   1.8,  0,  0,  0,  0, 14,  0,  0,  0,  0,  0, 36, 30, 32,  0, 31,  0,  0, 30,  0, 36,  0,  0, 30,  0, 21, 32,  0,  0,  0,  0,  0,  0
6, 10885, 1,N0CALL,     0.01, 3,   boost,   99.58,  98607.00,  228.75,   -2.21,    4.90, 38.0, 4.11, 4.11, 4.10,-111.26,  -2.16,  -8.94,  26.65,  -3.18,  -0.54,  -0.96,   0.36,  -0.01,   0.79, 4.14, 0.00, 0.00, 0.00, 0.00, 1, 1, 10,  42.6264277, -88.1615552,   247.0, 2023,  7, 23, 17, 32, 29,        0,        0,   0,   0,   2.0,   0.9,   1.8,  0,  0,  0,  0, 14,  0,  0,  0,  0,  0, 36, 30, 32,  0, 31,  0,  0, 30,  0, 36,  0,  0, 30,  0, 21, 32,  0,  0,  0,  0,  0,  0
6, 10885, 1,N0CALL,     0.02, 3,   boost,  100.58,  98597.00,  229.60,   -1.36,    5.90, 38.0, 4.12, 4.12, 4.11,-108.70,  -6.95,  -1.07, -16.13,   1.89,  -0.29,  -0.95,   0.36,  -0.02,   0.78, 4.12, 0.00, 0.00, 0.00, 0.03, 1, 1, 10,  42.6264277, -88.1615552,   247.0, 2023,  7, 23, 17, 32, 29,        0,        0,   0,   0,   2.0,   0.9,   1.8,  0,  0,  0,  0, 14,  0,  0,  0,  0,  0, 36, 30, 32,  0, 31,  0,  0, 30,  0, 36,  0,  0, 30,  0, 21, 32,  0,  0,  0,  0,  0,  0
6, 10885, 1,N0CALL,     0.02, 3,   boost,  100.58,  98597.00,  229.60,   -1.36,    5.90, 38.0, 4.12, 4.12, 4.11,-108.70,  -6.95,  -1.07, -16.13,   1.89,  -0.29,  -0.95,   0.36,  -0.02,   0.78, 4.12, 0.00, 0.00, 0.00, 0.03, 1, 1, 10,  42.6264277, -88.1615552,   247.0, 2023,  7, 23, 17, 32, 29,        0,        0,   0,   0,   2.0,   0.9,   1.8,  0,  0,  0,  0, 14,  0,  0,  0,  0,  0, 36, 30, 32,  0, 31,  0,  0, 30,  0, 36,  0,  0, 30,  0, 21, 32,  0,  0,  0,  0,  0,  0
6, 10885, 1,N0CALL,     0.03, 3,   boost,   95.55,  98597.00,  229.60,   -1.36,    6.91, 38.0, 4.12, 4.12, 4.11,-106.67,   0.72,  -9.37, -27.73,   2.62,   0.56,  -0.95,   0.36,  -0.02,   0.76, 4.12, 0.00, 0.00, 0.00, 0.03, 1, 1, 10,  42.6264277, -88.1615552,   247.0, 2023,  7, 23, 17, 32, 29,        0,        0,   0,   0,   2.0,   0.9,   1.8,  0,  0,  0,  0, 14,  0,  0,  0,  0,  0, 36, 30, 32,  0, 31,  0,  0, 30,  0, 36,  0,  0, 30,  0, 21, 32,  0,  0,  0,  0,  0,  0
6, 10885, 1,N0CALL,     0.04, 3,   boost,  102.09,  98566.00,  232.24,    1.28,    7.93, 38.0, 4.12, 4.12, 4.11,-106.18,   4.46,  15.82, -21.44,   0.91,   0.62,  -0.95,   0.36,  -0.02,   0.75, 4.12, 0.00, 0.00, 0.00, 0.03, 1, 1, 10,  42.6264277, -88.1615552,   247.0, 2023,  7, 23, 17, 32, 29,        0,        0,   0,   0,   2.0,   0.9,   1.8,  0,  0,  0,  0, 14,  0,  0,  0,  0,  0, 36, 30, 32,  0, 31,  0,  0, 30,  0, 36,  0,  0, 30,  0, 21, 32,  0,  0,  0,  0,  0,  0
6, 10885, 1,N0CALL,     0.05, 3,   boost,  107.12,  98566.00,  232.24,    1.28,    8.97, 38.0, 4.12, 4.12, 4.11,-107.23,  -4.50, -10.17,  15.55,  -3.73,  -0.48,  -0.95,   0.37,  -0.02,   0.78, 4.12, 0.00, 0.00, 0.00, 0.03, 1, 1, 10,  42.6264277, -88.1615552,   247.0, 2023,  7, 23, 17, 32, 29,        0,        0,   0,   0,   2.0,   0.9,   1.8,  0,  0,  0,  0, 14,  0,  0,  0,  0,  0, 36, 30, 32,  0, 31,  0,  0, 30,  0, 36,  0,  0, 30,  0, 21, 32,  0,  0,  0,  0,  0,  0
6, 10885, 1,N0CALL,     0.06, 3,   boost,  109.13,  98573.00,  231.64,    0.68,   10.03, 38.0, 4.12, 4.12, 4.11,-114.96,   0.05,  10.28, -52.75,   5.30,   1.05,  -0.96,   0.36,  -0.01,   0.74, 4.12, 0.00, 0.00, 0.00, 0.03, 1, 1, 10,  42.6264277, -88.1615552,   247.0, 2023,  7, 23, 17, 32, 29,        0,        0,   0,   0,   2.0,   0.9,   1.8,  0,  0,  0,  0, 14,  0,  0,  0,  0,  0, 36, 30, 32,  0, 31,  0,  0, 30,  0, 36,  0,  0, 30,  0, 21, 32,  0,  0,  0,  0,  0,  0
6, 10885, 1,N0CALL,     0.07, 3,   boost,  109.63,  98573.00,  231.64,    0.68,   11.10, 38.0, 4.12, 4.12, 4.11,-114.27,   0.26,  -3.64, -45.79,  12.26,   0.68,  -0.96,   0.36,  -0.00,   0.69, 4.12, 0.00, 0.00, 0.00, 0.03, 1, 1, 10,  42.6264277, -88.1615552,   247.0, 2023,  7, 23, 17, 32, 29,        0,        0,   0,   0,   2.0,   0.9,   1.8,  0,  0,  0,  0, 14,  0,  0,  0,  0,  0, 36, 30, 32,  0, 31,  0,  0, 30,  0, 36,  0,  0, 30,  0, 21, 32,  0,  0,  0,  0,  0,  0
6, 10885, 1,N0CALL,     0.08, 3,   boost,  106.11,  98563.00,  232.49,    1.53,   12.18, 38.0, 4.12, 4.12, 4.11,-115.82,  -3.87,   2.11, -47.81,   8.66,  -0.84,  -0.96,   0.36,  -0.00,   0.67, 4.12, 0.00, 0.00, 0.00, 0.03, 1, 1, 10,  42.6264277, -88.1615552,   247.0, 2023,  7, 23, 17, 32, 29,        0,        0,   0,   0,   2.0,   0.9,   1.8,  0,  0,  0,  0, 14,  0,  0,  0,  0,  0, 36, 30, 32,  0, 31,  0,  0, 30,  0, 36,  0,  0, 30,  0, 21, 32,  0,  0,  0,  0,  0,  0
6, 10885, 1,N0CALL,     0.09, 3,   boost,  108.63,  98563.00,  232.49,    1.53,   13.27, 38.0, 4.12, 4.12, 4.11,-114.48,   0.94,   9.10, -22.30,   4.63,  -1.70,  -0.96,   0.36,  -0.00,   0.68, 4.12, 0.00, 0.00, 0.00, 0.03, 1, 1, 10,  42.6264277, -88.1615552,   247.0, 2023,  7, 23, 17, 32, 29,        0,        0,   0,   0,   2.0,   0.9,   1.8,  0,  0,  0,  0, 14,  0,  0,  0,  0,  0, 36, 30, 32,  0, 31,  0,  0, 30,  0, 36,  0,  0, 30,  0, 21, 32,  0,  0,  0,  0,  0,  0
6, 10885, 1,N0CALL,     0.10, 3,   boost,  110.64,  98566.00,  232.24,    1.28,   14.37, 38.0, 4.12, 4.12, 4.11,-116.08,  -5.61,  -6.28, -43.60,   5.73,  -1.45,  -0.96,   0.36,   0.00,   0.69, 4.12, 0.00, 0.00, 0.00, 0.03, 1, 1, 10,  42.6264277, -88.1615552,   247.0, 2023,  7, 23, 17, 32, 29,        0,        0,   0,   0,   2.0,   0.9,   1.8,  0,  0,  0,  0, 14,  0,  0,  0,  0,  0, 36, 30, 32,  0, 31,  0,  0, 30,  0, 36,  0,  0, 30,  0, 21, 32,  0,  0,  0,  0,  0,  0
6, 10885, 1,N0CALL,     0.11, 3,   boost,  112.15,  98566.00,  232.24,    1.28,   15.48, 38.0, 4.12, 4.12, 4.11,-117.19,  -1.68,   5.93, -43.17,   3.53,  -1.52,  -0.96,   0.36,   0.00,   0.71, 4.12, 0.00, 0.00, 0.00, 0.03, 1, 1, 10,  42.6264277, -88.1615552,   247.0, 2023,  7, 23, 17, 32, 29,        0,        0,   0,   0,   2.0,   0.9,   1.8,  0,  0,  0,  0, 14,  0,  0,  0,  0,  0, 36, 30, 32,  0, 31,  0,  0, 30,  0, 36,  0,  0, 30,  0, 21, 32,  0,  0,  0,  0,  0,  0
6, 10885, 1,N0CALL,     0.12, 3,   boost,  113.66,  98578.00,  231.22,    0.26,   16.60, 38.0, 4.12, 4.12, 4.11,-119.00,   2.16,   5.59, -25.23,  -0.55,  -1.45,  -0.96,   0.36,   0.00,   0.72, 4.12, 0.00, 0.00, 0.00, 0.03, 1, 1, 10,  42.6264277, -88.1615552,   247.0, 2023,  7, 23, 17, 32, 29,        0,        0,   0,   0,   2.0,   0.9,   1.8,  0,  0,  0,  0, 14,  0,  0,  0,  0,  0, 36, 30, 32,  0, 31,  0,  0, 30,  0, 36,  0,  0, 30,  0, 21, 32,  0,  0,  0,  0,  0,  0
6, 10885, 1,N0CALL,     0.13, 3,   boost,  112.15,  98578.00,  231.22,    0.26,   17.73, 38.0, 4.12, 4.12, 4.11,-121.44,  -1.32,  -3.98,  -9.91,  -2.69,  -2.74,  -0.96,   0.36,  -0.00,   0.75, 4.12, 0.00, 0.00, 0.00, 0.03, 1, 1, 10,  42.6264277, -88.1615552,   247.0, 2023,  7, 23, 17, 32, 29,        0,        0,   0,   0,   2.0,   0.9,   1.8,  0,  0,  0,  0, 14,  0,  0,  0,  0,  0, 36, 30, 32,  0, 31,  0,  0, 30,  0, 36,  0,  0, 30,  0, 21, 32,  0,  0,  0,  0,  0,  0
6, 10885, 1,N0CALL,     0.14, 3,   boost,  114.66,  98565.00,  232.32,    1.36,   18.87, 38.0, 4.12, 4.12, 4.11,-120.21,  -3.10,  -2.62,  -3.62,  -6.35,  -1.94,  -0.96,   0.36,  -0.00,   0.77, 4.12, 0.00, 0.00, 0.00, 0.03, 1, 1, 10,  42.6264277, -88.1615552,   247.0, 2023,  7, 23, 17, 32, 29,        0,        0,   0,   0,   2.0,   0.9,   1.8,  0,  0,  0,  0, 14,  0,  0,  0,  0,  0, 36, 30, 32,  0, 31,  0,  0, 30,  0, 36,  0,  0, 30,  0, 21, 32,  0,  0,  0,  0,  0,  0
6, 10885, 1,N0CALL,     0.15, 3,   boost,  116.67,  98565.00,  232.32,    1.36,   20.02, 38.0, 4.12, 4.12, 4.11,-120.72,  -0.23,   0.52,   2.48,  -4.28,  -0.90,  -0.95,   0.37,  -0.01,   0.79, 4.12, 0.00, 0.00, 0.00, 0.03, 1, 1, 10,  42.6264277, -88.1615552,   247.0, 2023,  7, 23, 17, 32, 29,        0,        0,   0,   0,   2.0,   0.9,   1.8,  0,  0,  0,  0, 14,  0,  0,  0,  0,  0, 36, 30, 32,  0, 31,  0,  0, 30,  0, 36,  0,  0, 30,  0, 21, 32,  0,  0,  0,  0,  0,  0
6, 10885, 1,N0CALL,     0.16, 3,   boost,  115.67,  98559.00,  232.84,    1.87,   21.19, 38.0, 4.12, 4.12, 4.11,-122.03,  -0.65,  -7.55,   3.95,  -3.85,  -1.88,  -0.95,   0.36,  -0.01,   0.82, 4.12, 0.00, 0.00, 0.00, 0.03, 1, 1, 10,  42.6264277, -88.1615552,   247.0, 2023,  7, 23, 17, 32, 29,        0,        0,   0,   0,   2.0,   0.9,   1.8,  0,  0,  0,  0, 14,  0,  0,  0,  0,  0, 36, 30, 32,  0, 31,  0,  0, 30,  0, 36,  0,  0, 30,  0, 21, 32,  0,  0,  0,  0,  0,  0
6, 10885, 1,N0CALL,     0.17, 3,   boost,  115.67,  98559.00,  232.84,    1.87,   22.37, 38.0, 4.12, 4.12, 4.11,-122.55,  -2.31,  -2.27,  19.33,  -4.16,  -3.47,  -0.96,   0.36,  -0.00,   0.86, 4.12, 0.00, 0.00, 0.00, 0.03, 1, 1, 10,  42.6264277, -88.1615552,   247.0, 2023,  7, 23, 17, 32, 29,        0,        0,   0,   0,   2.0,   0.9,   1.8,  0,  0,  0,  0, 14,  0,  0,  0,  0,  0, 36, 30, 32,  0, 31,  0,  0, 30,  0, 36,  0,  0, 30,  0, 21, 32,  0,  0,  0,  0,  0,  0
6, 10885, 1,N0CALL,     0.18, 3,   boost,  122.21,  98554.00,  233.26,    2.30,   23.58, 38.0, 4.12, 4.12, 4.11,-123.98,   0.23,  -7.81,  33.86,  -0.92,  -3.16,  -0.96,   0.36,  -0.00,   0.90, 4.12, 0.00, 0.00, 0.00, 0.03, 1, 1, 10,  42.6264277, -88.1615552,   247.0, 2023,  7, 23, 17, 32, 29,        0,        0,   0,   0,   2.0,   0.9,   1.8,  0,  0,  0,  0, 14,  0,  0,  0,  0,  0, 36, 30, 32,  0, 31,  0,  0, 30,  0, 36,  0,  0, 30,  0, 21, 32,  0,  0,  0,  0,  0,  0
6, 10885, 1,N0CALL,     0.19, 3,   boost,  128.24,  98554.00,  233.26,    2.30,   24.81, 38.0, 4.12, 4.12, 4.11,-125.77,   0.43,  -2.08,  41.43,   0.85,  -3.35,  -0.96,   0.36,  -0.00,   0.93, 4.12, 0.00, 0.00, 0.00, 0.03, 1, 1, 10,  42.6264277, -88.1615552,   247.0, 2023,  7, 23, 17, 32, 29,        0,        0,   0,   0,   2.0,   0.9,   1.8,  0,  0,  0,  0, 14,  0,  0,  0,  0,  0, 36, 30, 32,  0, 31,  0,  0, 30,  0, 36,  0,  0, 30,  0, 21, 32,  0,  0,  0,  0,  0,  0
6, 10885, 1,N0CALL,     0.20, 3,   boost,  126.23,  98573.00,  231.64,    0.68,   26.06, 38.0, 4.12, 4.12, 4.11,-132.86,  -0.57,  11.93,  42.52,   7.93,  -2.49,  -0.96,   0.36,  -0.00,   0.93, 4.12, 0.00, 0.00, 0.00, 0.03, 1, 1, 10,  42.6264277, -88.1615552,   247.0, 2023,  7, 23, 17, 32, 29,        0,        0,   0,   0,   2.0,   0.9,   1.8,  0,  0,  0,  0, 14,  0,  0,  0,  0,  0, 36, 30, 32,  0, 31,  0,  0, 30,  0, 36,  0,  0, 30,  0, 21, 32,  0,  0,  0,  0,  0,  0
6, 10885, 1,N0CALL,     0.21, 3,   boost,  127.74,  98573.00,  231.64,    0.68,   27.33, 38.0, 4.12, 4.12, 4.11,-132.94,   2.22, -10.94,  40.27,   8.17,  -4.63,  -0.96,   0.36,  -0.01,   0.97, 4.12, 0.00, 0.00, 0.00, 0.03, 1, 1, 10,  42.6264277, -88.1615552,   247.0, 2023,  7, 23, 17, 32, 29,        0,        0,   0,   0,   2.0,   0.9,   1.8,  0,  0,  0,  0, 14,  0,  0,  0,  0,  0, 36, 30, 32,  0, 31,  0,  0, 30,  0, 36,  0,  0, 30,  0, 21, 32,  0,  0,  0,  0,  0,  0
6, 10885, 1,N0CALL,     0.22, 3,   boost,  129.75,  98550.00,  233.60,    2.64,   28.61, 38.0, 4.12, 4.12, 4.11,-135.25,  -4.94,   4.90,  38.37,   0.30,  -4.63,  -0.96,   0.36,  -0.01,   1.02, 4.12, 0.00, 0.00, 0.00, 0.03, 1, 1, 10,  42.6264277, -88.1615552,   247.0, 2023,  7, 23, 17, 32, 29,        0,        0,   0,   0,   2.0,   0.9,   1.8,  0,  0,  0,  0, 14,  0,  0,  0,  0,  0, 36, 30, 32,  0, 31,  0,  0, 30,  0, 36,  0,  0, 30,  0, 21, 32,  0,  0,  0,  0,  0,  0
6, 10885, 1,N0CALL,     0.23, 3,   boost,  127.23,  98550.00,  233.60,    2.64,   29.90, 38.0, 4.12, 4.12, 4.11,-136.55,  -0.93,   8.18,  33.49,   2.74,  -1.70,  -0.96,   0.36,  -0.01,   1.03, 4.12, 0.00, 0.00, 0.00, 0.03, 1, 1, 10,  42.6264277, -88.1615552,   247.0, 2023,  7, 23, 17, 32, 29,        0,        0,   0,   0,   2.0,   0.9,   1.8,  0,  0,  0,  0, 14,  0,  0,  0,  0,  0, 36, 30, 32,  0, 31,  0,  0, 30,  0, 36,  0,  0, 30,  0, 21, 32,  0,  0,  0,  0,  0,  0
6, 10885, 1,N0CALL,     0.24, 3,   boost,  132.26,  98546.00,  233.94,    2.98,   31.19, 38.0, 4.12, 4.12, 4.11,-136.27,   2.23,  -3.25,  34.04,   5.98,  -4.63,  -0.95,   0.36,  -0.01,   1.08, 4.12, 0.00, 0.00, 0.00, 0.03, 1, 1, 10,  42.6264277, -88.1615552,   247.0, 2023,  7, 23, 17, 32, 29,        0,        0,   0,   0,   2.0,   0.9,   1.8,  0,  0,  0,  0, 14,  0,  0,  0,  0,  0, 36, 30, 32,  0, 31,  0,  0, 30,  0, 36,  0,  0, 30,  0, 21, 32,  0,  0,  0,  0,  0,  0
6, 10885, 1,N0CALL,     0.25, 3,   boost,  131.26,  98546.00,  233.94,    2.98,   32.50, 38.0, 4.12, 4.12, 4.11,-138.03,  -3.98,   1.97,  34.35,   2.62,  -7.13,  -0.95,   0.36,  -0.01,   1.15, 4.12, 0.00, 0.00, 0.00, 0.03, 1, 1, 10,  42.6264277, -88.1615552,   247.0, 2023,  7, 23, 17, 32, 29,        0,        0,   0,   0,   2.0,   0.9,   1.8,  0,  0,  0,  0, 14,  0,  0,  0,  0,  0, 36, 30, 32,  0, 31,  0,  0, 30,  0, 36,  0,  0, 30,  0, 21, 32,  0,  0,  0,  0,  0,  0
6, 10885, 1,N0CALL,     0.26, 3,   boost,  130.25,  98535.00,  234.88,    3.92,   33.81, 38.0, 4.12, 4.12, 4.11,-137.47,  -1.41,   3.54,  33.19,   3.72,  -4.63,  -0.95,   0.36,  -0.01,   1.20, 4.12, 0.00, 0.00, 0.00, 0.03, 1, 1, 10,  42.6264277, -88.1615552,   247.0, 2023,  7, 23, 17, 32, 29,        0,        0,   0,   0,   2.0,   0.9,   1.8,  0,  0,  0,  0, 14,  0,  0,  0,  0,  0, 36, 30, 32,  0, 31,  0,  0, 30,  0, 36,  0,  0, 30,  0, 21, 32,  0,  0,  0,  0,  0,  0
6, 10885, 1,N0CALL,     0.27, 3,   boost,  129.25,  98535.00,  234.88,    3.92,   35.13, 38.0, 4.12, 4.12, 4.11,-137.78,   0.37,  -4.35,  31.05,   5.06,  -5.54,  -0.95,   0.35,  -0.01,   1.27, 4.12, 0.00, 0.00, 0.00, 0.03, 1, 1, 10,  42.6264277, -88.1615552,   247.0, 2023,  7, 23, 17, 32, 29,        0,        0,   0,   0,   2.0,   0.9,   1.8,  0,  0,  0,  0, 14,  0,  0,  0,  0,  0, 36, 30, 32,  0, 31,  0,  0, 30,  0, 36,  0,  0, 30,  0, 21, 32,  0,  0,  0,  0,  0,  0
6, 10885, 1,N0CALL,     0.28, 3,   boost,  135.78,  98540.00,  234.45,    3.49,   36.46, 38.0, 4.12, 4.12, 4.11,-135.98,  -2.75,   0.25,  30.07,   2.01,  -7.37,  -0.95,   0.35,  -0.01,   1.34, 4.12, 0.00, 0.00, 0.00, 0.03, 1, 1, 10,  42.6264277, -88.1615552,   247.0, 2023,  7, 23, 17, 32, 29,        0,        0,   0,   0,   2.0,   0.9,   1.8,  0,  0,  0,  0, 14,  0,  0,  0,  0,  0, 36, 30, 32,  0, 31,  0,  0, 30,  0, 36,  0,  0, 30,  0, 21, 32,  0,  0,  0,  0,  0,  0
6, 10885, 1,N0CALL,     0.29, 3,   boost,  134.78,  98540.00,  234.45,    3.49,   37.81, 38.0, 4.12, 4.12, 4.11,-141.73,  -0.83,   0.68,  29.71,   3.66,  -6.09,  -0.95,   0.36,  -0.02,   1.41, 4.12, 0.00, 0.00, 0.00, 0.03, 1, 1, 10,  42.6264277, -88.1615552,   247.0, 2023,  7, 23, 17, 32, 29,        0,        0,   0,   0,   2.0,   0.9,   1.8,  0,  0,  0,  0, 14,  0,  0,  0,  0,  0, 36, 30, 32,  0, 31,  0,  0, 30,  0, 36,  0,  0, 30,  0, 21, 32,  0,  0,  0,  0,  0,  0
6, 10885, 1,N0CALL,     0.30, 3,   boost,  137.29,  98518.00,  236.33,    5.36,   39.17, 38.0, 4.12, 4.12, 4.11,-142.75,  -0.34,  -2.62,  28.36,   4.33,  -6.09,  -0.96,   0.35,  -0.01,   1.48, 4.12, 0.00, 0.00, 0.00, 0.03, 1, 1, 10,  42.6264277, -88.1615552,   247.0, 2023,  7, 23, 17, 32, 29,        0,        0,   0,   0,   2.0,   0.9,   1.8,  0,  0,  0,  0, 14,  0,  0,  0,  0,  0, 36, 30, 32,  0, 31,  0,  0, 30,  0, 36,  0,  0, 30,  0, 21, 32,  0,  0,  0,  0,  0,  0
6, 10885, 1,N0CALL,     0.31, 3,   boost,  140.81,  98518.00,  236.33,    5.36,   40.55, 38.0, 4.12, 4.12, 4.11,-145.59,  -2.49,   2.64,  27.88,   2.44,  -6.95,  -0.96,   0.35,  -0.01,   1.55, 4.12, 0.00, 0.00, 0.00, 0.03, 1, 1, 10,  42.6264277, -88.1615552,   247.0, 2023,  7, 23, 17, 32, 29,        0,        0,   0,   0,   2.0,   0.9,   1.8,  0,  0,  0,  0, 14,  0,  0,  0,  0,  0, 36, 30, 32,  0, 31,  0,  0, 30,  0, 36,  0,  0, 30,  0, 21, 32,  0,  0,  0,  0,  0,  0
6, 10885, 1,N0CALL,     0.32, 3,   boost,  140.31,  98505.00,  237.43,    6.47,   41.95, 38.0, 4.12, 4.12, 4.11,-147.21,  -0.59,   0.62,  27.20,   3.78,  -6.28,  -0.96,   0.35,  -0.01,   1.62, 4.12, 0.00, 0.00, 0.00, 0.03, 1, 1, 10,  42.6264277, -88.1615552,   247.0, 2023,  7, 23, 17, 32, 29,        0,        0,   0,   0,   2.0,   0.9,   1.8,  0,  0,  0,  0, 14,  0,  0,  0,  0,  0, 36, 30, 32,  0, 31,  0,  0, 30,  0, 36,  0,  0, 30,  0, 21, 32,  0,  0,  0,  0,  0,  0
6, 10885, 1,N0CALL,     0.33, 3,   boost,  143.33,  98505.00,  237.43,    6.47,   43.35, 38.0, 4.12, 4.12, 4.11,-148.55,  -1.01,  -0.80,  25.56,   3.11,  -7.07,  -0.96,   0.35,  -0.01,   1.70, 4.12, 0.00, 0.00, 0.00, 0.03, 1, 1, 10,  42.6264277, -88.1615552,   247.0, 2023,  7, 23, 17, 32, 29,        0,        0,   0,   0,   2.0,   0.9,   1.8,  0,  0,  0,  0, 14,  0,  0,  0,  0,  0, 36, 30, 32,  0, 31,  0,  0, 30,  0, 36,  0,  0, 30,  0, 21, 32,  0,  0,  0,  0,  0,  0
6, 10885, 1,N0CALL,     0.34, 3,   boost,  141.82,  98508.00,  237.18,    6.22,   44.75, 38.0, 4.11, 4.12, 4.11,-149.43,  -2.30,   1.55,  24.34,   2.80,  -7.01,  -0.96,   0.35,  -0.01,   1.77, 4.12, 0.00, 0.00, 0.00, 0.00, 1, 1, 10,  42.6264277, -88.1615552,   247.0, 2023,  7, 23, 17, 32, 29,        0,        0,   0,   0,   2.0,   0.9,   1.8,  0,  0,  0,  0, 14,  0,  0,  0,  0,  0, 36, 30, 32,  0, 31,  0,  0, 30,  0, 36,  0,  0, 30,  0, 21, 32,  0,  0,  0,  0,  0,  0
6, 10885, 1,N0CALL,     0.34, 3,   boost,  141.82,  98508.00,  237.18,    6.22,   44.75, 38.0, 4.11, 4.12, 4.11,-149.43,  -2.30,   1.55,  24.34,   2.80,  -7.01,  -0.96,   0.35,  -0.01,   1.77, 4.12, 0.00, 0.00, 0.00, 0.00, 1, 1, 10,  42.6264277, -88.1615552,   247.0, 2023,  7, 23, 17, 32, 29,        0,        0,   0,   0,   2.0,   0.9,   1.8,  0,  0,  0,  0, 14,  0,  0,  0,  0,  0, 36, 30, 32,  0, 31,  0,  0, 30,  0, 36,  0,  0, 30,  0, 21, 32,  0,  0,  0,  0,  0,  0
6, 10885, 1,N0CALL,     0.35, 3,   boost,  141.82,  98508.00,  237.18,    6.22,   46.14, 38.0, 4.11, 4.12, 4.11,-147.99,  -0.63,  -1.16,  22.44,   3.66,  -6.52,  -0.96,   0.35,  -0.01,   1.84, 4.12, 0.00, 0.00, 0.00, 0.00, 1, 1, 10,  42.6264277, -88.1615552,   247.0, 2023,  7, 23, 17, 32, 29,        0,        0,   0,   0,   2.0,   0.9,   1.8,  0,  0,  0,  0, 14,  0,  0,  0,  0,  0, 36, 30, 32,  0, 31,  0,  0, 30,  0, 36,  0,  0, 30,  0, 21, 32,  0,  0,  0,  0,  0,  0
6, 10885, 1,N0CALL,     0.36, 3,   boost,  135.78,  98503.00,  237.60,    6.64,   47.51, 38.0, 4.11, 4.12, 4.11,-148.96,  -1.36,  -0.50,  21.34,   2.86,  -7.62,  -0.96,   0.35,  -0.01,   1.92, 4.12, 0.00, 0.00, 0.00, 0.00, 1, 1, 10,  42.6264277, -88.1615552,   247.0, 2023,  7, 23, 17, 32, 29,        0,        0,   0,   0,   2.0,   0.9,   1.8,  0,  0,  0,  0, 14,  0,  0,  0,  0,  0, 36, 30, 32,  0, 31,  0,  0, 30,  0, 36,  0,  0, 30,  0, 21, 32,  0,  0,  0,  0,  0,  0
6, 10885, 1,N0CALL,     0.37, 3,   boost,  116.67,  98503.00,  237.60,    6.64,   48.88, 38.0, 4.11, 4.12, 4.11,-143.96,  -2.84,   0.74,  20.18,   2.74,  -7.31,  -0.96,   0.35,  -0.02,   2.00, 4.12, 0.00, 0.00, 0.00, 0.00, 1, 1, 10,  42.6264277, -88.1615552,   247.0, 2023,  7, 23, 17, 32, 29,        0,        0,   0,   0,   2.0,   0.9,   1.8,  0,  0,  0,  0, 14,  0,  0,  0,  0,  0, 36, 30, 32,  0, 31,  0,  0, 30,  0, 36,  0,  0, 30,  0, 21, 32,  0,  0,  0,  0,  0,  0
6, 10885, 1,N0CALL,     0.38, 3,   boost,  149.36,  98484.00,  239.22,    8.26,   50.26, 38.0, 4.11, 4.12, 4.11,-132.81,  -0.22,  -1.65,  18.84,   3.11,  -7.01,  -0.96,   0.35,  -0.02,   2.08, 4.12, 0.00, 0.00, 0.00, 0.00, 1, 1, 10,  42.6264277, -88.1615552,   247.0, 2023,  7, 23, 17, 32, 29,        0,        0,   0,   0,   2.0,   0.9,   1.8,  0,  0,  0,  0, 14,  0,  0,  0,  0,  0, 36, 30, 32,  0, 31,  0,  0, 30,  0, 36,  0,  0, 30,  0, 21, 32,  0,  0,  0,  0,  0,  0
6, 10885, 1,N0CALL,     0.39, 3,   boost,  142.32,  98484.00,  239.22,    8.26,   51.64, 38.0, 4.11, 4.12, 4.11,-151.34,  -2.46,   1.40,  18.41,   2.68,  -7.50,  -0.96,   0.35,  -0.02,   2.16, 4.12, 0.00, 0.00, 0.00, 0.00, 1, 1, 10,  42.6264277, -88.1615552,   247.0, 2023,  7, 23, 17, 32, 29,        0,        0,   0,   0,   2.0,   0.9,   1.8,  0,  0,  0,  0, 14,  0,  0,  0,  0,  0, 36, 30, 32,  0, 31,  0,  0, 30,  0, 36,  0,  0, 30,  0, 21, 32,  0,  0,  0,  0,  0,  0
6, 10885, 1,N0CALL,     0.40, 3,   boost,  139.30,  98485.00,  239.14,    8.17,   53.05, 38.0, 4.11, 4.12, 4.11,-149.20,  -1.54,   1.56,  16.40,   2.68,  -6.58,  -0.96,   0.35,  -0.02,   2.23, 4.12, 0.00, 0.00, 0.00, 0.00, 1, 1, 10,  42.6264277, -88.1615552,   247.0, 2023,  7, 23, 17, 32, 29,        0,        0,   0,   0,   2.0,   0.9,   1.8,  0,  0,  0,  0, 14,  0,  0,  0,  0,  0, 36, 30, 32,  0, 31,  0,  0, 30,  0, 36,  0,  0, 30,  0, 21, 32,  0,  0,  0,  0,  0,  0
6, 10885, 1,N0CALL,     0.41, 3,   boost,  143.83,  98485.00,  239.14,    8.17,   54.48, 38.0, 4.11, 4.12, 4.11,-148.54,  -0.28,   0.18,  15.91,   3.11,  -6.95,  -0.96,   0.35,  -0.02,   2.30, 4.12, 0.00, 0.00, 0.00, 0.00, 1, 1, 10,  42.6264277, -88.1615552,   247.0, 2023,  7, 23, 17, 32, 29,        0,        0,   0,   0,   2.0,   0.9,   1.8,  0,  0,  0,  0, 14,  0,  0,  0,  0,  0, 36, 30, 32,  0, 31,  0,  0, 30,  0, 36,  0,  0, 30,  0, 21, 32,  0,  0,  0,  0,  0,  0
6, 10885, 1,N0CALL,     0.41, 3,   boost,  143.83,  98485.00,  239.14,    8.17,   54.48, 38.0, 4.11, 4.12, 4.11,-148.54,  -0.28,   0.18,  15.91,   3.11,  -6.95,  -0.96,   0.35,  -0.02,   2.30, 4.12, 0.00, 0.00, 0.00, 0.00, 1, 1, 10,  42.6264277, -88.1615552,   247.0, 2023,  7, 23, 17, 32, 29,        0,        0,   0,   0,   2.0,   0.9,   1.8,  0,  0,  0,  0, 14,  0,  0,  0,  0,  0, 36, 30, 32,  0, 31,  0,  0, 30,  0, 36,  0,  0, 30,  0, 21, 32,  0,  0,  0,  0,  0,  0
6, 10885, 1,N0CALL,     0.41, 3,   boost,  143.83,  98485.00,  239.14,    8.17,   54.48, 38.0, 4.11, 4.12, 4.11,-148.54,  -0.28,   0.18,  15.91,   3.11,  -6.95,  -0.96,   0.35,  -0.02,   2.30, 4.12, 0.00, 0.00, 0.00, 0.00, 1, 1, 10,  42.6264277, -88.1615552,   247.0, 2023,  7, 23, 17, 32, 29,        0,        0,   0,   0,   2.0,   0.9,   1.8,  0,  0,  0,  0, 14,  0,  0,  0,  0,  0, 36, 30, 32,  0, 31,  0,  0, 30,  0, 36,  0,  0, 30,  0, 21, 32,  0,  0,  0,  0,  0,  0
6, 10885, 1,N0CALL,     0.42, 3,   boost,  144.33,  98463.00,  241.01,   10.05,   55.92, 38.0, 4.11, 4.12, 4.11,-149.49,  -1.86,   0.90,  14.39,   1.70,  -6.89,  -0.96,   0.34,  -0.02,   2.38, 4.12, 0.00, 0.00, 0.00, 0.00, 1, 1, 10,  42.6264332, -88.1615107,   251.0, 2023,  7, 23, 17, 32, 30,        4,        5,  80,  47,   2.0,   0.9,   1.8,  0,  0,  0,  0, 14,  0,  0,  0,  0,  0, 26, 23, 26,  0, 24,  0,  0, 24,  0, 27,  0,  0, 30,  0, 29, 28,  0,  0,  0,  0,  0,  0
6, 10885, 1,N0CALL,     0.43, 3,   boost,  147.35,  98463.00,  241.01,   10.05,   57.39, 38.0, 4.11, 4.12, 4.11,-152.52,  -0.78,  -0.29,  12.80,   1.58,  -5.85,  -0.96,   0.34,  -0.01,   2.44, 4.12, 0.00, 0.00, 0.00, 0.00, 1, 1, 10,  42.6264332, -88.1615107,   251.0, 2023,  7, 23, 17, 32, 30,        4,        5,  80,  47,   2.0,   0.9,   1.8,  0,  0,  0,  0, 14,  0,  0,  0,  0,  0, 26, 23, 26,  0, 24,  0,  0, 24,  0, 27,  0,  0, 30,  0, 29, 28,  0,  0,  0,  0,  0,  0
6, 10885, 1,N0CALL,     0.44, 3,   boost,  150.37,  98466.00,  240.76,    9.79,   58.87, 38.0, 4.11, 4.12, 4.11,-154.44,  -1.65,  -1.11,  11.03,   0.54,  -5.91,  -0.96,   0.34,  -0.01,   2.49, 4.12, 0.00, 0.00, 0.00, 0.00, 1, 1, 10,  42.6264332, -88.1615107,   251.0, 2023,  7, 23, 17, 32, 30,        4,        5,  80,  47,   2.0,   0.9,   1.8,  0,  0,  0,  0, 14,  0,  0,  0,  0,  0, 26, 23, 26,  0, 24,  0,  0, 24,  0, 27,  0,  0, 30,  0, 29, 28,  0,  0,  0,  0,  0,  0
6, 10885, 1,N0CALL,     0.45, 3,   boost,  153.39,  98466.00,  240.76,    9.79,   60.37, 38.0, 4.11, 4.12, 4.11,-157.81,  -3.48,  -0.33,   9.81,   0.12,  -5.85,  -0.96,   0.34,  -0.02,   2.55, 4.12, 0.00, 0.00, 0.00, 0.00, 1, 1, 10,  42.6264332, -88.1615107,   251.0, 2023,  7, 23, 17, 32, 30,        4,        5,  80,  47,   2.0,   0.9,   1.8,  0,  0,  0,  0, 14,  0,  0,  0,  0,  0, 26, 23, 26,  0, 24,  0,  0, 24,  0, 27,  0,  0, 30,  0, 29, 28,  0,  0,  0,  0,  0,  0
6, 10885, 1,N0CALL,     0.46, 3,   boost,  152.38,  98463.00,  241.01,   10.05,   61.89, 38.0, 4.11, 4.12, 4.11,-159.83,  -0.93,  -0.77,   8.22,   0.12,  -5.54,  -0.96,   0.34,  -0.02,   2.60, 4.12, 0.00, 0.00, 0.00, 0.00, 1, 1, 10,  42.6264332, -88.1615107,   251.0, 2023,  7, 23, 17, 32, 30,        4,        5,  80,  47,   2.0,   0.9,   1.8,  0,  0,  0,  0, 14,  0,  0,  0,  0,  0, 26, 23, 26,  0, 24,  0,  0, 24,  0, 27,  0,  0, 30,  0, 29, 28,  0,  0,  0,  0,  0,  0
6, 10885, 1,N0CALL,     0.47, 3,   boost,  153.39,  98463.00,  241.01,   10.05,   63.41, 38.0, 4.11, 4.12, 4.11,-160.20,  -2.23,  -0.73,   6.82,  -0.55,  -6.52,  -0.96,   0.34,  -0.02,   2.66, 4.12, 0.00, 0.00, 0.00, 0.00, 1, 1, 10,  42.6264332, -88.1615107,   251.0, 2023,  7, 23, 17, 32, 30,        4,        5,  80,  47,   2.0,   0.9,   1.8,  0,  0,  0,  0, 14,  0,  0,  0,  0,  0, 26, 23, 26,  0, 24,  0,  0, 24,  0, 27,  0,  0, 30,  0, 29, 28,  0,  0,  0,  0,  0,  0
6, 10885, 1,N0CALL,     0.48, 3,   boost,  152.88,  98437.00,  243.23,   12.26,   64.94, 38.0, 4.11, 4.12, 4.11,-161.03,  -1.62,  -0.40,   6.02,  -0.74,  -5.73,  -0.96,   0.34,  -0.02,   2.72, 4.12, 0.00, 0.00, 0.00, 0.00, 1, 1, 10,  42.6264332, -88.1615107,   251.0, 2023,  7, 23, 17, 32, 30,        4,        5,  80,  47,   2.0,   0.9,   1.8,  0,  0,  0,  0, 14,  0,  0,  0,  0,  0, 26, 23, 26,  0, 24,  0,  0, 24,  0, 27,  0,  0, 30,  0, 29, 28,  0,  0,  0,  0,  0,  0
6, 10885, 1,N0CALL,     0.49, 3,   boost,  154.89,  98437.00,  243.23,   12.26,   66.48, 38.0, 4.11, 4.12, 4.11,-162.30,  -1.40,  -1.14,   4.74,  -0.74,  -5.67,  -0.96,   0.34,  -0.02,   2.77, 4.12, 0.00, 0.00, 0.00, 0.00, 1, 1, 10,  42.6264332, -88.1615107,   251.0, 2023,  7, 23, 17, 32, 30,        4,        5,  80,  47,   2.0,   0.9,   1.8,  0,  0,  0,  0, 14,  0,  0,  0,  0,  0, 26, 23, 26,  0, 24,  0,  0, 24,  0, 27,  0,  0, 30,  0, 29, 28,  0,  0,  0,  0,  0,  0
6, 10885, 1,N0CALL,     0.50, 3,   boost,  152.88,  98439.00,  243.06,   12.09,   68.02, 38.0, 4.11, 4.12, 4.11,-163.33,  -2.39,   2.96,   2.73,  -1.78,  -5.67,  -0.96,   0.34,  -0.02,   2.82, 4.12, 0.00, 0.00, 0.00, 0.00, 1, 1, 10,  42.6264332, -88.1615107,   251.0, 2023,  7, 23, 17, 32, 30,        4,        5,  80,  47,   2.0,   0.9,   1.8,  0,  0,  0,  0, 14,  0,  0,  0,  0,  0, 26, 23, 26,  0, 24,  0,  0, 24,  0, 27,  0,  0, 30,  0, 29, 28,  0,  0,  0,  0,  0,  0
6, 10885, 1,N0CALL,     0.51, 3,   boost,  157.41,  98439.00,  243.06,   12.09,   69.57, 38.0, 4.11, 4.12, 4.11,-161.70,  -1.68,   0.03,   1.51,  -1.41,  -5.06,  -0.96,   0.34,  -0.02,   2.86, 4.12, 0.00, 0.00, 0.00, 0.00, 1, 1, 10,  42.6264332, -88.1615107,   251.0, 2023,  7, 23, 17, 32, 30,        4,        5,  80,  47,   2.0,   0.9,   1.8,  0,  0,  0,  0, 14,  0,  0,  0,  0,  0, 26, 23, 26,  0, 24,  0,  0, 24,  0, 27,  0,  0, 30,  0, 29, 28,  0,  0,  0,  0,  0,  0
6, 10885, 1,N0CALL,     0.52, 3,   boost,  156.91,  98421.00,  244.59,   13.63,   71.11, 38.0, 4.11, 4.12, 4.11,-161.82,  -1.52,   0.28,  -0.20,  -3.42,  -4.87,  -0.96,   0.34,  -0.02,   2.90, 4.12, 0.00, 0.00, 0.00, 0.00, 1, 1, 10,  42.6264332, -88.1615107,   251.0, 2023,  7, 23, 17, 32, 30,        4,        5,  80,  47,   2.0,   0.9,   1.8,  0,  0,  0,  0, 14,  0,  0,  0,  0,  0, 26, 23, 26,  0, 24,  0,  0, 24,  0, 27,  0,  0, 30,  0, 29, 28,  0,  0,  0,  0,  0,  0
6, 10885, 1,N0CALL,     0.53, 3,   boost,  152.88,  98421.00,  244.59,   13.63,   72.66, 38.0, 4.11, 4.12, 4.11,-162.91,  -2.57,   0.54,  -1.36,  -4.16,  -5.30,  -0.96,   0.34,  -0.02,   2.94, 4.12, 0.00, 0.00, 0.00, 0.00, 1, 1, 10,  42.6264332, -88.1615107,   251.0, 2023,  7, 23, 17, 32, 30,        4,        5,  80,  47,   2.0,   0.9,   1.8,  0,  0,  0,  0, 14,  0,  0,  0,  0,  0, 26, 23, 26,  0, 24,  0,  0, 24,  0, 27,  0,  0, 30,  0, 29, 28,  0,  0,  0,  0,  0,  0
6, 10885, 1,N0CALL,     0.54, 3,   boost,  152.38,  98396.00,  246.72,   15.76,   74.19, 38.0, 4.11, 4.12, 4.11,-161.45,  -1.76,  -2.80,  -3.19,  -3.73,  -4.26,  -0.96,   0.34,  -0.02,   2.98, 4.12, 0.00, 0.00, 0.00, 0.00, 1, 1, 10,  42.6264332, -88.1615107,   251.0, 2023,  7, 23, 17, 32, 30,        4,        5,  80,  47,   2.0,   0.9,   1.8,  0,  0,  0,  0, 14,  0,  0,  0,  0,  0, 26, 23, 26,  0, 24,  0,  0, 24,  0, 27,  0,  0, 30,  0, 29, 28,  0,  0,  0,  0,  0,  0
6, 10885, 1,N0CALL,     0.55, 3,   boost,  154.89,  98396.00,  246.72,   15.76,   75.73, 38.0, 4.11, 4.12, 4.11,-161.45,  -2.47,  -0.60,  -5.14,  -5.44,  -4.26,  -0.96,   0.34,  -0.02,   3.01, 4.12, 0.00, 0.00, 0.00, 0.00, 1, 1, 10,  42.6264332, -88.1615107,   251.0, 2023,  7, 23, 17, 32, 30,        4,        5,  80,  47,   2.0,   0.9,   1.8,  0,  0,  0,  0, 14,  0,  0,  0,  0,  0, 26, 23, 26,  0, 24,  0,  0, 24,  0, 27,  0,  0, 30,  0, 29, 28,  0,  0,  0,  0,  0,  0
