#version,serial,flight,call,time,state,state_name,acceleration,pressure,altitude,height,speed,temperature,drogue_voltage,main_voltage,battery_voltage,accel_x,accel_y,accel_z,gyro_roll,gyro_pitch,gyro_yaw,mag_x,mag_y,mag_z,tilt,pyro,igniter_a,igniter_b,igniter_c,igniter_d,connected,locked,nsat,latitude,longitude,altitude,year,month,day,hour,minute,second,pad_dist,pad_range,pad_az,pad_el,pdop,hdop,vdop,sat01,sat02,sat03,sat04,sat05,sat06,sat07,sat08,sat09,sat10,sat11,sat12,sat13,sat14,sat15,sat16,sat17,sat18,sat19,sat20,sat21,sat22,sat23,sat24,sat25,sat26,sat27,sat28,sat29,sat30,sat31,sat32
6, 10885, 2,N0CALL,    -0.30, 3,   boost,   -0.00,  99467.00,  155.83,    1.01,    0.00, 36.7, 3.94, 3.95, 3.94,  -9.88,   0.02,   0.04,   0.27,   0.05,  -0.25,  -1.48,   0.36,  -0.31,   0.79, 3.96, 0.00, 0.00, 0.01, 0.00, 1, 1, 11,  42.6261199, -88.1604757,   255.0, 2023,  9, 30, 16, 17, 46,        0,        0, 151,   0,   1.5,   0.8,   1.2,  0,  0,  0,  0, 33,  0,  0, 21,  0, 34,  0,  0, 37,  0, 33,  0,  0, 39,  0,  0,  0,  0, 25, 32,  0,  0, 33,  0,  8,  0,  0, 40
6, 10885, 2,N0CALL,    -0.29, 3,   boost,   -0.50,  99479.00,  154.81,    0.00,    0.00, 36.7, 3.94, 3.95, 3.94,  -9.89,  -0.03,   0.07,   0.27,   0.17,  -0.19,  -1.48,   0.36,  -0.31,   0.79, 3.96, 0.00, 0.00, 0.01, 0.00, 1, 1, 11,  42.6261199, -88.1604757,   255.0, 2023,  9, 30, 16, 17, 46,        0,        0, 151,   0,   1.5,   0.8,   1.2,  0,  0,  0,  0, 33,  0,  0, 21,  0, 34,  0,  0, 37,  0, 33,  0,  0, 39,  0,  0,  0,  0, 25, 32,  0,  0, 33,  0,  8,  0,  0, 40
6, 10885, 2,N0CALL,    -0.28, 3,   boost,    0.50,  99479.00,  154.81,    0.00,    0.00, 36.7, 3.94, 3.95, 3.94,  -9.84,  -0.01,   0.09,   0.14,   0.36,   0.06,  -1.48,   0.36,  -0.31,   0.79, 3.96, 0.00, 0.00, 0.01, 0.00, 1, 1, 11,  42.6261199, -88.1604757,   255.0, 2023,  9, 30, 16, 17, 46,        0,        0, 151,   0,   1.5,   0.8,   1.2,  0,  0,  0,  0, 33,  0,  0, 21,  0, 34,  0,  0, 37,  0, 33,  0,  0, 39,  0,  0,  0,  0, 25, 32,  0,  0, 33,  0,  8,  0,  0, 40
6, 10885, 2,N0CALL,    -0.27, 3,   boost,   -0.50,  99473.00,  155.32,    0.51,    0.00, 36.7, 3.94, 3.95, 3.94,  -9.88,  -0.04,   0.11,   0.33,   0.24,   0.06,  -1.48,   0.36,  -0.31,   0.79, 3.96, 0.00, 0.00, 0.01, 0.00, 1, 1, 11,  42.6261199, -88.1604757,   255.0, 2023,  9, 30, 16, 17, 46,        0,        0, 151,   0,   1.5,   0.8,   1.2,  0,  0,  0,  0, 33,  0,  0, 21,  0, 34,  0,  0, 37,  0, 33,  0,  0, 39,  0,  0,  0,  0, 25, 32,  0,  0, 33,  0,  8,  0,  0, 40
6, 10885, 2,N0CALL,    -0.26, 3,   boost,    0.50,  99473.00,  155.32,    0.51,    0.00, 36.7, 3.94, 3.95, 3.94,  -9.89,  -0.06,   0.14,   0.63,   0.30,   0.06,  -1.48,   0.36,  -0.31,   0.79, 3.96, 0.00, 0.00, 0.01, 0.00, 1, 1, 11,  42.6261203, -88.1604760,   255.0, 2023,  9, 30, 16, 17, 47,        0,        0,   0,   0,   1.5,   0.8,   1.2,  0,  0,  0,  0, 32,  0,  0, 21,  0, 33,  0,  0, 37,  0, 33,  0,  0, 40,  0,  0,  0,  0, 25, 32,  0,  0, 33,  0,  8,  0,  0, 40
6, 10885, 2,N0CALL,    -0.25, 3,   boost,   -2.01,  99478.00,  154.90,    0.08,    0.00, 36.7, 3.94, 3.95, 3.94,  -9.86,  -0.10,   0.22,   0.45,   0.05,  -0.19,  -1.48,   0.36,  -0.31,   0.79, 3.96, 0.00, 0.00, 0.01, 0.00, 1, 1, 11,  42.6261203, -88.1604760,   255.0, 2023,  9, 30, 16, 17, 47,        0,        0,   0,   0,   1.5,   0.8,   1.2,  0,  0,  0,  0, 32,  0,  0, 21,  0, 33,  0,  0, 37,  0, 33,  0,  0, 40,  0,  0,  0,  0, 25, 32,  0,  0, 33,  0,  8,  0,  0, 40
6, 10885, 2,N0CALL,    -0.24, 3,   boost,   -1.51,  99478.00,  154.90,    0.08,    0.00, 36.7, 3.94, 3.95, 3.94,  -9.87,  -0.07,   0.22,   0.57,   0.11,  -0.25,  -1.48,   0.36,  -0.31,   0.79, 3.96, 0.00, 0.00, 0.01, 0.00, 1, 1, 11,  42.6261203, -88.1604760,   255.0, 2023,  9, 30, 16, 17, 47,        0,        0,   0,   0,   1.5,   0.8,   1.2,  0,  0,  0,  0, 32,  0,  0, 21,  0, 33,  0,  0, 37,  0, 33,  0,  0, 40,  0,  0,  0,  0, 25, 32,  0,  0, 33,  0,  8,  0,  0, 40
6, 10885, 2,N0CALL,    -0.23, 3,   boost,   -2.01,  99479.00,  154.81,    0.00,    0.00, 36.7, 3.94, 3.95, 3.94,  -9.89,  -0.05,   0.22,   0.14,  -0.01,  -0.43,  -1.48,   0.36,  -0.31,   0.79, 3.96, 0.00, 0.00, 0.01, 0.00, 1, 1, 11,  42.6261203, -88.1604760,   255.0, 2023,  9, 30, 16, 17, 47,        0,        0,   0,   0,   1.5,   0.8,   1.2,  0,  0,  0,  0, 32,  0,  0, 21,  0, 33,  0,  0, 37,  0, 33,  0,  0, 40,  0,  0,  0,  0, 25, 32,  0,  0, 33,  0,  8,  0,  0, 40
6, 10885, 2,N0CALL,    -0.22, 3,   boost,    1.51,  99479.00,  154.81,    0.00,    0.00, 36.7, 3.94, 3.95, 3.94,  -9.91,  -0.04,   0.17,   0.27,   0.11,  -0.00,  -1.48,   0.36,  -0.31,   0.79, 3.96, 0.00, 0.00, 0.01, 0.00, 1, 1, 11,  42.6261203, -88.1604760,   255.0, 2023,  9, 30, 16, 17, 47,        0,        0,   0,   0,   1.5,   0.8,   1.2,  0,  0,  0,  0, 32,  0,  0, 21,  0, 33,  0,  0, 37,  0, 33,  0,  0, 40,  0,  0,  0,  0, 25, 32,  0,  0, 33,  0,  8,  0,  0, 40
6, 10885, 2,N0CALL,    -0.21, 3,   boost,   -0.50,  99481.00,  154.64,   -0.17,    0.00, 36.8, 3.94, 3.95, 3.94,  -9.91,   0.04,   0.15,   0.20,  -0.25,  -0.19,  -1.48,   0.36,  -0.31,   0.79, 3.96, 0.00, 0.00, 0.01, 0.00, 1, 1, 11,  42.6261203, -88.1604760,   255.0, 2023,  9, 30, 16, 17, 47,        0,        0,   0,   0,   1.5,   0.8,   1.2,  0,  0,  0,  0, 32,  0,  0, 21,  0, 33,  0,  0, 37,  0, 33,  0,  0, 40,  0,  0,  0,  0, 25, 32,  0,  0, 33,  0,  8,  0,  0, 40
6, 10885, 2,N0CALL,    -0.20, 3,   boost,   -2.01,  99481.00,  154.64,   -0.17,    0.00, 36.8, 3.94, 3.95, 3.94,  -9.92,   0.07,   0.17,   0.45,   0.17,  -0.00,  -1.48,   0.36,  -0.31,   0.79, 3.96, 0.00, 0.00, 0.01, 0.00, 1, 1, 11,  42.6261203, -88.1604760,   255.0, 2023,  9, 30, 16, 17, 47,        0,        0,   0,   0,   1.5,   0.8,   1.2,  0,  0,  0,  0, 32,  0,  0, 21,  0, 33,  0,  0, 37,  0, 33,  0,  0, 40,  0,  0,  0,  0, 25, 32,  0,  0, 33,  0,  8,  0,  0, 40
6, 10885, 2,N0CALL,    -0.19, 3,   boost,   -2.01,  99475.00,  155.15,    0.34,    0.00, 36.7, 3.94, 3.95, 3.94,  -9.84,   0.02,   0.15,   0.33,  -0.01,  -0.00,  -1.48,   0.36,  -0.31,   0.79, 3.96, 0.00, 0.00, 0.01, 0.00, 1, 1, 11,  42.6261203, -88.1604760,   255.0, 2023,  9, 30, 16, 17, 47,        0,        0,   0,   0,   1.5,   0.8,   1.2,  0,  0,  0,  0, 32,  0,  0, 21,  0, 33,  0,  0, 37,  0, 33,  0,  0, 40,  0,  0,  0,  0, 25, 32,  0,  0, 33,  0,  8,  0,  0, 40
6, 10885, 2,N0CALL,    -0.18, 3,   boost,   -1.51,  99475.00,  155.15,    0.34,    0.00, 36.7, 3.94, 3.95, 3.94,  -9.87,   0.04,   0.21,  -0.04,   0.11,  -0.00,  -1.48,   0.36,  -0.31,   0.79, 3.96, 0.00, 0.00, 0.01, 0.00, 1, 1, 11,  42.6261203, -88.1604760,   255.0, 2023,  9, 30, 16, 17, 47,        0,        0,   0,   0,   1.5,   0.8,   1.2,  0,  0,  0,  0, 32,  0,  0, 21,  0, 33,  0,  0, 37,  0, 33,  0,  0, 40,  0,  0,  0,  0, 25, 32,  0,  0, 33,  0,  8,  0,  0, 40
6, 10885, 2,N0CALL,    -0.17, 3,   boost,   -1.01,  99475.00,  155.15,    0.34,    0.00, 36.7, 3.94, 3.95, 3.94,  -9.90,   0.06,   0.21,   0.08,   0.17,  -0.07,  -1.48,   0.36,  -0.31,   0.79, 3.96, 0.00, 0.00, 0.01, 0.00, 1, 1, 11,  42.6261203, -88.1604760,   255.0, 2023,  9, 30, 16, 17, 47,        0,        0,   0,   0,   1.5,   0.8,   1.2,  0,  0,  0,  0, 32,  0,  0, 21,  0, 33,  0,  0, 37,  0, 33,  0,  0, 40,  0,  0,  0,  0, 25, 32,  0,  0, 33,  0,  8,  0,  0, 40
6, 10885, 2,N0CALL,    -0.16, 3,   boost,    0.50,  99475.00,  155.15,    0.34,    0.00, 36.7, 3.94, 3.95, 3.94,  -9.92,  -0.05,   0.21,   0.08,  -0.07,  -0.13,  -1.48,   0.36,  -0.31,   0.79, 3.96, 0.00, 0.00, 0.01, 0.00, 1, 1, 11,  42.6261203, -88.1604760,   255.0, 2023,  9, 30, 16, 17, 47,        0,        0,   0,   0,   1.5,   0.8,   1.2,  0,  0,  0,  0, 32,  0,  0, 21,  0, 33,  0,  0, 37,  0, 33,  0,  0, 40,  0,  0,  0,  0, 25, 32,  0,  0, 33,  0,  8,  0,  0, 40
6, 10885, 2,N0CALL,    -0.15, 3,   boost,   -0.00,  99472.00,  155.40,    0.59,    0.00, 36.7, 3.94, 3.95, 3.94,  -9.89,  -0.03,   0.20,  -0.22,  -0.07,   0.18,  -1.48,   0.36,  -0.31,   0.79, 3.96, 0.00, 0.00, 0.01, 0.00, 1, 1, 11,  42.6261203, -88.1604760,   255.0, 2023,  9, 30, 16, 17, 47,        0,        0,   0,   0,   1.5,   0.8,   1.2,  0,  0,  0,  0, 32,  0,  0, 21,  0, 33,  0,  0, 37,  0, 33,  0,  0, 40,  0,  0,  0,  0, 25, 32,  0,  0, 33,  0,  8,  0,  0, 40
6, 10885, 2,N0CALL,    -0.14, 3,   boost,    0.50,  99472.00,  155.40,    0.59,    0.00, 36.7, 3.94, 3.95, 3.94,  -9.89,   0.04,   0.26,  -0.59,  -0.19,   0.18,  -1.48,   0.36,  -0.31,   0.79, 3.96, 0.00, 0.00, 0.01, 0.00, 1, 1, 11,  42.6261203, -88.1604760,   255.0, 2023,  9, 30, 16, 17, 47,        0,        0,   0,   0,   1.5,   0.8,   1.2,  0,  0,  0,  0, 32,  0,  0, 21,  0, 33,  0,  0, 37,  0, 33,  0,  0, 40,  0,  0,  0,  0, 25, 32,  0,  0, 33,  0,  8,  0,  0, 40
6, 10885, 2,N0CALL,    -0.13, 3,   boost,   -0.50,  99477.00,  154.98,    0.17,    0.00, 36.7, 3.94, 3.95, 3.94,  -9.89,  -0.03,   0.17,   0.08,  -0.25,  -0.13,  -1.48,   0.36,  -0.31,   0.79, 3.96, 0.00, 0.00, 0.01, 0.00, 1, 1, 11,  42.6261203, -88.1604760,   255.0, 2023,  9, 30, 16, 17, 47,        0,        0,   0,   0,   1.5,   0.8,   1.2,  0,  0,  0,  0, 32,  0,  0, 21,  0, 33,  0,  0, 37,  0, 33,  0,  0, 40,  0,  0,  0,  0, 25, 32,  0,  0, 33,  0,  8,  0,  0, 40
6, 10885, 2,N0CALL,    -0.12, 3,   boost,    0.50,  99477.00,  154.98,    0.17,    0.00, 36.7, 3.94, 3.95, 3.94,  -9.91,   0.02,   0.13,  -0.22,  -0.50,   0.42,  -1.47,   0.37,  -0.31,   0.79, 3.96, 0.00, 0.00, 0.01, 0.00, 1, 1, 11,  42.6261203, -88.1604760,   255.0, 2023,  9, 30, 16, 17, 47,        0,        0,   0,   0,   1.5,   0.8,   1.2,  0,  0,  0,  0, 32,  0,  0, 21,  0, 33,  0,  0, 37,  0, 33,  0,  0, 40,  0,  0,  0,  0, 25, 32,  0,  0, 33,  0,  8,  0,  0, 40
6, 10885, 2,N0CALL,    -0.11, 3,   boost,   -1.51,  99485.00,  154.30,   -0.51,    0.00, 36.7, 3.94, 3.95, 3.94,  -9.86,   0.01,   0.12,  -0.83,  -0.25,   0.06,  -1.48,   0.36,  -0.31,   0.79, 3.96, 0.00, 0.00, 0.01, 0.00, 1, 1, 11,  42.6261203, -88.1604760,   255.0, 2023,  9, 30, 16, 17, 47,        0,        0,   0,   0,   1.5,   0.8,   1.2,  0,  0,  0,  0, 32,  0,  0, 21,  0, 33,  0,  0, 37,  0, 33,  0,  0, 40,  0,  0,  0,  0, 25, 32,  0,  0, 33,  0,  8,  0,  0, 40
6, 10885, 2,N0CALL,    -0.10, 3,   boost,   -0.00,  99485.00,  154.30,   -0.51,    0.01, 36.7, 3.94, 3.95, 3.94,  -9.86,  -0.03,   0.11,  -0.65,  -0.07,   0.12,  -1.48,   0.36,  -0.31,   0.79, 3.96, 0.00, 0.00, 0.01, 0.00, 1, 1, 11,  42.6261203, -88.1604760,   255.0, 2023,  9, 30, 16, 17, 47,        0,        0,   0,   0,   1.5,   0.8,   1.2,  0,  0,  0,  0, 32,  0,  0, 21,  0, 33,  0,  0, 37,  0, 33,  0,  0, 40,  0,  0,  0,  0, 25, 32,  0,  0, 33,  0,  8,  0,  0, 40
6, 10885, 2,N0CALL,    -0.09, 3,   boost,   -1.01,  99479.00,  154.81,    0.00,    0.04, 36.7, 3.94, 3.95, 3.94,  -9.91,   0.06,   0.09,  -0.28,  -0.13,   0.30,  -1.47,   0.37,  -0.31,   0.79, 3.96, 0.00, 0.00, 0.01, 0.00, 1, 1, 11,  42.6261203, -88.1604760,   255.0, 2023,  9, 30, 16, 17, 47,        0,        0,   0,   0,   1.5,   0.8,   1.2,  0,  0,  0,  0, 32,  0,  0, 21,  0, 33,  0,  0, 37,  0, 33,  0,  0, 40,  0,  0,  0,  0, 25, 32,  0,  0, 33,  0,  8,  0,  0, 40
6, 10885, 2,N0CALL,    -0.08, 3,   boost,    0.50,  99479.00,  154.81,    0.00,    0.13, 36.7, 3.94, 3.95, 3.94,  -9.87,   0.02,   0.05,  -0.10,  -0.25,   0.12,  -1.47,   0.37,  -0.31,   0.79, 3.96, 0.00, 0.00, 0.01, 0.00, 1, 1, 11,  42.6261203, -88.1604760,   255.0, 2023,  9, 30, 16, 17, 47,        0,        0,   0,   0,   1.5,   0.8,   1.2,  0,  0,  0,  0, 32,  0,  0, 21,  0, 33,  0,  0, 37,  0, 33,  0,  0, 40,  0,  0,  0,  0, 25, 32,  0,  0, 33,  0,  8,  0,  0, 40
6, 10885, 2,N0CALL,    -0.07, 3,   boost,   13.58,  99484.00,  154.39,   -0.42,    0.32, 36.7, 3.94, 3.95, 3.94,  -9.89,  -0.13,   0.06,  -0.89,  -0.07,  -0.07,  -1.47,   0.37,  -0.31,   0.79, 3.96, 0.00, 0.00, 0.01, 0.00, 1, 1, 11,  42.6261203, -88.1604760,   255.0, 2023,  9, 30, 16, 17, 47,        0,        0,   0,   0,   1.5,   0.8,   1.2,  0,  0,  0,  0, 32,  0,  0, 21,  0, 33,  0,  0, 37,  0, 33,  0,  0, 40,  0,  0,  0,  0, 25, 32,  0,  0, 33,  0,  8,  0,  0, 40
6, 10885, 2,N0CALL,    -0.06, 3,   boost,   52.81,  99484.00,  154.39,   -0.42,    0.64, 36.7, 3.94, 3.95, 3.94, -26.21,  -0.35,  -0.02,   0.82,  -0.13,   0.36,  -1.47,   0.37,  -0.31,   0.79, 3.96, 0.00, 0.00, 0.01, 0.00, 1, 1, 11,  42.6261203, -88.1604760,   255.0, 2023,  9, 30, 16, 17, 47,        0,        0,   0,   0,   1.5,   0.8,   1.2,  0,  0,  0,  0, 32,  0,  0, 21,  0, 33,  0,  0, 37,  0, 33,  0,  0, 40,  0,  0,  0,  0, 25, 32,  0,  0, 33,  0,  8,  0,  0, 40
6, 10885, 2,N0CALL,    -0.05, 3,   boost,   69.40,  99482.00,  154.56,   -0.25,    1.12, 36.7, 3.94, 3.95, 3.94, -63.42,  -0.09,  -0.69,   9.36,   0.24,  -0.43,  -1.47,   0.36,  -0.31,   0.79, 3.96, 0.00, 0.00, 0.01, 0.00, 1, 1, 11,  42.6261203, -88.1604760,   255.0, 2023,  9, 30, 16, 17, 47,        0,        0,   0,   0,   1.5,   0.8,   1.2,  0,  0,  0,  0, 32,  0,  0, 21,  0, 33,  0,  0, 37,  0, 33,  0,  0, 40,  0,  0,  0,  0, 25, 32,  0,  0, 33,  0,  8,  0,  0, 40
6, 10885, 2,N0CALL,    -0.04, 3,   boost,   72.92,  99482.00,  154.56,   -0.25,    1.74, 36.7, 3.94, 3.95, 3.94, -78.13,  -0.68,  -0.78,   4.90,   1.33,  -0.13,  -1.47,   0.36,  -0.31,   0.79, 3.96, 0.00, 0.00, 0.01, 0.00, 1, 1, 11,  42.6261203, -88.1604760,   255.0, 2023,  9, 30, 16, 17, 47,        0,        0,   0,   0,   1.5,   0.8,   1.2,  0,  0,  0,  0, 32,  0,  0, 21,  0, 33,  0,  0, 37,  0, 33,  0,  0, 40,  0,  0,  0,  0, 25, 32,  0,  0, 33,  0,  8,  0,  0, 40
6, 10885, 2,N0CALL,    -0.03, 3,   boost,   80.46,  99480.00,  154.73,   -0.08,    2.46, 36.7, 3.94, 3.95, 3.94, -79.06,   0.39,   0.96,  15.71,   3.72,  -1.16,  -1.47,   0.36,  -0.31,   0.79, 3.96, 0.00, 0.00, 0.01, 0.00, 1, 1, 11,  42.6261203, -88.1604760,   255.0, 2023,  9, 30, 16, 17, 47,        0,        0,   0,   0,   1.5,   0.8,   1.2,  0,  0,  0,  0, 32,  0,  0, 21,  0, 33,  0,  0, 37,  0, 33,  0,  0, 40,  0,  0,  0,  0, 25, 32,  0,  0, 33,  0,  8,  0,  0, 40
6, 10885, 2,N0CALL,    -0.02, 3,   boost,   86.00,  99480.00,  154.73,   -0.08,    3.25, 36.7, 3.94, 3.95, 3.94, -86.24,  -0.20,  -1.03,  30.72,   2.31,   0.24,  -1.48,   0.36,  -0.31,   0.79, 3.96, 0.00, 0.00, 0.01, 0.00, 1, 1, 11,  42.6261203, -88.1604760,   255.0, 2023,  9, 30, 16, 17, 47,        0,        0,   0,   0,   1.5,   0.8,   1.2,  0,  0,  0,  0, 32,  0,  0, 21,  0, 33,  0,  0, 37,  0, 33,  0,  0, 40,  0,  0,  0,  0, 25, 32,  0,  0, 33,  0,  8,  0,  0, 40
6, 10885, 2,N0CALL,    -0.01, 3,   boost,   84.99,  99479.00,  154.81,    0.00,    4.09, 36.7, 3.94, 3.95, 3.94, -93.10,   0.57,   0.28,  45.68,   3.65,   0.61,  -1.48,   0.36,  -0.31,   0.79, 3.96, 0.00, 0.00, 0.01, 0.00, 1, 1, 11,  42.6261203, -88.1604760,   255.0, 2023,  9, 30, 16, 17, 47,        0,        0,   0,   0,   1.5,   0.8,   1.2,  0,  0,  0,  0, 32,  0,  0, 21,  0, 33,  0,  0, 37,  0, 33,  0,  0, 40,  0,  0,  0,  0, 25, 32,  0,  0, 33,  0,  8,  0,  0, 40
6, 10885, 2,N0CALL,     0.00, 3,   boost,   90.02,  99479.00,  154.81,    0.00,    4.95, 36.7, 3.94, 3.95, 3.94, -95.39,  -0.06,   2.11,  56.23,   4.75,   1.40,  -1.47,   0.36,  -0.31,   0.79, 3.96, 0.00, 0.00, 0.01, 0.00, 1, 1, 11,  42.6261203, -88.1604760,   255.0, 2023,  9, 30, 16, 17, 47,        0,        0,   0,   0,   1.5,   0.8,   1.2,  0,  0,  0,  0, 32,  0,  0, 21,  0, 33,  0,  0, 37,  0, 33,  0,  0, 40,  0,  0,  0,  0, 25, 32,  0,  0, 33,  0,  8,  0,  0, 40
6, 10885, 2,N0CALL,     0.00, 3,   boost,   90.02,  99479.00,  154.81,    0.00,    4.95, 36.7, 3.94, 3.95, 3.94, -95.39,  -0.06,   2.11,  56.23,   4.75,   1.40,  -1.47,   0.36,  -0.31,   0.79, 3.96, 0.00, 0.00, 0.01, 0.00, 1, 1, 11,  42.6261203, -88.1604760,   255.0, 2023,  9, 30, 16, 17, 47,        0,        0,   0,   0,   1.5,   0.8,   1.2,  0,  0,  0,  0, 32,  0,  0, 21,  0, 33,  0,  0, 37,  0, 33,  0,  0, 40,  0,  0,  0,  0, 25, 32,  0,  0, 33,  0,  8,  0,  0, 40
6, 10885, 2,N0CALL,     0.00, 3,   boost,   90.02,  99479.00,  154.81,    0.00,    4.95, 36.7, 3.94, 3.95, 3.94, -95.39,  -0.06,   2.11,  56.23,   4.75,   1.40,  -1.47,   0.36,  -0.31,   0.79, 3.96, 0.00, 0.00, 0.01, 0.00, 1, 1, 11,  42.6261203, -88.1604760,   255.0, 2023,  9, 30, 16, 17, 47,        0,        0,   0,   0,   1.5,   0.8,   1.2,  0,  0,  0,  0, 32,  0,  0, 21,  0, 33,  0,  0, 37,  0, 33,  0,  0, 40,  0,  0,  0,  0, 25, 32,  0,  0, 33,  0,  8,  0,  0, 40
6, 10885, 2,N0CALL,     0.00, 3,   boost,   90.02,  99479.00,  154.81,    0.00,    4.95, 36.7, 3.94, 3.95, 3.94, -95.39,  -0.06,   2.11,  56.23,   4.75,   1.40,  -1.47,   0.36,  -0.31,   0.79, 3.96, 0.00, 0.00, 0.01, 0.00, 1, 1, 11,  42.6261203, -88.1604760,   255.0, 2023,  9, 30, 16, 17, 47,        0,        0,   0,   0,   1.5,   0.8,   1.2,  0,  0,  0,  0, 32,  0,  0, 21,  0, 33,  0,  0, 37,  0, 33,  0,  0, 40,  0,  0,  0,  0, 25, 32,  0,  0, 33,  0,  8,  0,  0, 40
6, 10885, 2,N0CALL,     0.00, 3,   boost,   90.02,  99479.00,  154.81,    0.00,    4.95, 36.7, 3.94, 3.95, 3.94, -95.39,  -0.06,   2.11,  56.23,   4.75,   1.40,  -1.47,   0.36,  -0.31,   0.79, 3.96, 0.00, 0.00, 0.01, 0.00, 1, 1, 11,  42.6261203, -88.1604760,   255.0, 2023,  9, 30, 16, 17, 47,        0,        0,   0,   0,   1.5,   0.8,   1.2,  0,  0,  0,  0, 32,  0,  0, 21,  0, 33,  0,  0, 37,  0, 33,  0,  0, 40,  0,  0,  0,  0, 25, 32,  0,  0, 33,  0,  8,  0,  0, 40
6, 10885, 2,N0CALL,     0.00, 3,   boost,   90.02,  99479.00,  154.81,    0.00,    4.95, 36.7, 3.94, 3.95, 3.94, -95.39,  -0.06,   2.11,  56.23,   4.75,   1.40,  -1.47,   0.36,  -0.31,   0.79, 3.96, 0.00, 0.00, 0.01, 0.00, 1, 1, 11,  42.6261203, -88.1604760,   255.0, 2023,  9, 30, 16, 17, 47,        0,        0,   0,   0,   1.5,   0.8,   1.2,  0,  0,  0,  0, 32,  0,  0, 21,  0, 33,  0,  0, 37,  0, 33,  0,  0, 40,  0,  0,  0,  0, 25, 32,  0,  0, 33,  0,  8,  0,  0, 40
6, 10885, 2,N0CALL,     0.00, 3,   boost,   90.02,  99479.00,  154.81,    0.00,    4.95, 36.7, 3.94, 3.95, 3.94, -95.39,  -0.06,   2.11,  56.23,   4.75,   1.40,  -1.47,   0.36,  -0.31,   0.79, 3.96, 0.00, 0.00, 0.01, 0.00, 1, 1, 11,  42.6261203, -88.1604760,   255.0, 2023,  9, 30, 16, 17, 47,        0,        0,   0,   0,   1.5,   0.8,   1.2,  0,  0,  0,  0, 32,  0,  0, 21,  0, 33,  0,  0, 37,  0, 33,  0,  0, 40,  0,  0,  0,  0, 25, 32,  0,  0, 33,  0,  8,  0,  0, 40
6, 10885, 2,N0CALL,     0.00, 3,   boost,   90.02,  99479.00,  154.81,    0.00,    4.95, 36.7, 3.94, 3.95, 3.94, -95.39,  -0.06,   2.11,  56.23,   4.75,   1.40,  -1.47,   0.36,  -0.31,   0.80, 3.96, 0.00, 0.00, 0.01, 0.00, 1, 1, 11,  42.6261203, -88.1604760,   255.0, 2023,  9, 30, 16, 17, 47,        0,        0,   0,   0,   1.5,   0.8,   1.2,  0,  0,  0,  0, 32,  0,  0, 21,  0, 33,  0,  0, 37,  0, 33,  0,  0, 40,  0,  0,  0,  0, 25, 32,  0,  0, 33,  0,  8,  0,  0, 40
6, 10885, 2,N0CALL,     0.00, 3,   boost,   90.02,  99479.00,  154.81,    0.00,    4.95, 36.7, 3.94, 3.95, 3.94, -95.39,  -0.06,   2.11,  56.23,   4.75,   1.40,  -1.47,   0.36,  -0.31,   0.80, 3.96, 0.00, 0.00, 0.01, 0.00, 1, 1, 11,  42.6261203, -88.1604760,   255.0, 2023,  9, 30, 16, 17, 47,        0,        0,   0,   0,   1.5,   0.8,   1.2,  0,  0,  0,  0, 32,  0,  0, 21,  0, 33,  0,  0, 37,  0, 33,  0,  0, 40,  0,  0,  0,  0, 25, 32,  0,  0, 33,  0,  8,  0,  0, 40
6, 10885, 2,N0CALL,     0.00, 3,   boost,   90.02,  99479.00,  154.81,    0.00,    4.95, 36.7, 3.94, 3.95, 3.94, -95.39,  -0.06,   2.11,  56.23,   4.75,   1.40,  -1.47,   0.36,  -0.31,   0.80, 3.96, 0.00, 0.00, 0.01, 0.00, 1, 1, 11,  42.6261203, -88.1604760,   255.0, 2023,  9, 30, 16, 17, 47,        0,        0,   0,   0,   1.5,   0.8,   1.2,  0,  0,  0,  0, 32,  0,  0, 21,  0, 33,  0,  0, 37,  0, 33,  0,  0, 40,  0,  0,  0,  0, 25, 32,  0,  0, 33,  0,  8,  0,  0, 40
6, 10885, 2,N0CALL,     0.00, 3,   boost,   90.02,  99479.00,  154.81,    0.00,    4.95, 36.7, 3.94, 3.95, 3.94, -95.39,  -0.06,   2.11,  56.23,   4.75,   1.40,  -1.47,   0.36,  -0.31,   0.80, 3.96, 0.00, 0.00, 0.01, 0.00, 1, 1, 11,  42.6261203, -88.1604760,   255.0, 2023,  9, 30, 16, 17, 47,        0,        0,   0,   0,   1.5,   0.8,   1.2,  0,  0,  0,  0, 32,  0,  0, 21,  0, 33,  0,  0, 37,  0, 33,  0,  0, 40,  0,  0,  0,  0, 25, 32,  0,  0, 33,  0,  8,  0,  0, 40
6, 10885, 2,N0CALL,     0.00, 3,   boost,   90.02,  99479.00,  154.81,    0.00,    4.95, 36.7, 3.94, 3.95, 3.94, -95.39,  -0.06,   2.11,  56.23,   4.75,   1.40,  -1.47,   0.36,  -0.31,   0.80, 3.96, 0.00, 0.00, 0.01, 0.00, 1, 1, 11,  42.6261203, -88.1604760,   255.0, 2023,  9, 30, 16, 17, 47,        0,        0,   0,   0,   1.5,   0.8,   1.2,  0,  0,  0,  0, 32,  0,  0, 21,  0, 33,  0,  0, 37,  0, 33,  0,  0, 40,  0,  0,  0,  0, 25, 32,  0,  0, 33,  0,  8,  0,  0, 40
6, 10885, 2,N0CALL,     0.00, 3,   boost,   90.02,  99479.00,  154.81,    0.00,    4.95, 36.7, 3.94, 3.95, 3.94, -95.39,  -0.06,   2.11,  56.23,   4.75,   1.40,  -1.47,   0.36,  -0.31,   0.80, 3.96, 0.00, 0.00, 0.01, 0.00, 1, 1, 11,  42.6261203, -88.1604760,   255.0, 2023,  9, 30, 16, 17, 47,        0,        0,   0,   0,   1.5,   0.8,   1.2,  0,  0,  0,  0, 32,  0,  0, 21,  0, 33,  0,  0, 37,  0, 33,  0,  0, 40,  0,  0,  0,  0, 25, 32,  0,  0, 33,  0,  8,  0,  0, 40
6, 10885, 2,N0CALL,     0.00, 3,   boost,   90.02,  99479.00,  154.81,    0.00,    4.95, 36.7, 3.94, 3.95, 3.94, -95.39,  -0.06,   2.11,  56.23,   4.75,   1.40,  -1.47,   0.36,  -0.31,   0.80, 3.96, 0.00, 0.00, 0.01, 0.00, 1, 1, 11,  42.6261203, -88.1604760,   255.0, 2023,  9, 30, 16, 17, 47,        0,        0,   0,   0,   1.5,   0.8,   1.2,  0,  0,  0,  0, 32,  0,  0, 21,  0, 33,  0,  0, 37,  0, 33,  0,  0, 40,  0,  0,  0,  0, 25, 32,  0,  0, 33,  0,  8,  0,  0, 40
6, 10885, 2,N0CALL,     0.00, 3,   boost,   90.02,  99479.00,  154.81,    0.00,    4.95, 36.7, 3.94, 3.95, 3.94, -95.39,  -0.06,   2.11,  56.23,   4.75,   1.40,  -1.47,   0.36,  -0.31,   0.80, 3.96, 0.00, 0.00, 0.01, 0.00, 1, 1, 11,  42.6261203, -88.1604760,   255.0, 2023,  9, 30, 16, 17, 47,        0,        0,   0,   0,   1.5,   0.8,   1.2,  0,  0,  0,  0, 32,  0,  0, 21,  0, 33,  0,  0, 37,  0, 33,  0,  0, 40,  0,  0,  0,  0, 25, 32,  0,  0, 33,  0,  8,  0,  0, 40
6, 10885, 2,N0CALL,     0.00, 3,   boost,   90.02,  99479.00,  154.81,    0.00,    4.95, 36.7, 3.94, 3.95, 3.94, -95.39,  -0.06,   2.11,  56.23,   4.75,   1.40,  -1.47,   0.36,  -0.31,   0.80, 3.96, 0.00, 0.00, 0.01, 0.00, 1, 1, 11,  42.6261203, -88.1604760,   255.0, 2023,  9, 30, 16, 17, 47,        0,        0,   0,   0,   1.5,   0.8,   1.2,  0,  0,  0,  0, 32,  0,  0, 21,  0, 33,  0,  0, 37,  0, 33,  0,  0, 40,  0,  0,  0,  0, 25, 32,  0,  0, 33,  0,  8,  0,  0, 40
6, 10885, 2,N0CALL,     0.00, 3,   boost,   90.02,  99479.00,  154.81,    0.00,    4.95, 36.7, 3.94, 3.95, 3.94, -95.39,  -0.06,   2.11,  56.23,   4.75,   1.40,  -1.47,   0.36,  -0.31,   0.80, 3.96, 0.00, 0.00, 0.01, 0.00, 1, 1, 11,  42.6261203, -88.1604760,   255.0, 2023,  9, 30, 16, 17, 47,        0,        0,   0,   0,   1.5,   0.8,   1.2,  0,  0,  0,  0, 32,  0,  0, 21,  0, 33,  0,  0, 37,  0, 33,  0,  0, 40,  0,  0,  0,  0, 25, 32,  0,  0, 33,  0,  8,  0,  0, 40
6, 10885, 2,N0CALL,     0.00, 3,   boost,   90.02,  99479.00,  154.81,    0.00,    4.95, 36.7, 3.94, 3.95, 3.94, -95.39,  -0.06,   2.11,  56.23,   4.75,   1.40,  -1.47,   0.36,  -0.31,   0.80, 3.96, 0.00, 0.00, 0.01, 0.00, 1, 1, 11,  42.6261203, -88.1604760,   255.0, 2023,  9, 30, 16, 17, 47,        0,        0,   0,   0,   1.5,   0.8,   1.2,  0,  0,  0,  0, 32,  0,  0, 21,  0, 33,  0,  0, 37,  0, 33,  0,  0, 40,  0,  0,  0,  0, 25, 32,  0,  0, 33,  0,  8,  0,  0, 40
6, 10885, 2,N0CALL,     0.00, 3,   boost,   90.02,  99479.00,  154.81,    0.00,    4.95, 36.7, 3.94, 3.95, 3.94, -95.39,  -0.06,   2.11,  56.23,   4.75,   1.40,  -1.47,   0.36,  -0.31,   0.80, 3.96, 0.00, 0.00, 0.01, 0.00, 1, 1, 11,  42.6261203, -88.1604760,   255.0, 2023,  9, 30, 16, 17, 47,        0,        0,   0,   0,   1.5,   0.8,   1.2,  0,  0,  0,  0, 32,  0,  0, 21,  0, 33,  0,  0, 37,  0, 33,  0,  0, 40,  0,  0,  0,  0, 25, 32,  0,  0, 33,  0,  8,  0,  0, 40
6, 10885, 2,N0CALL,     0.00, 3,   boost,   90.02,  99479.00,  154.81,    0.00,    4.95, 36.7, 3.94, 3.95, 3.94, -95.39,  -0.06,   2.11,  56.23,   4.75,   1.40,  -1.47,   0.36,  -0.31,   0.80, 3.96, 0.00, 0.00, 0.01, 0.00, 1, 1, 11,  42.6261203, -88.1604760,   255.0, 2023,  9, 30, 16, 17, 47,        0,        0,   0,   0,   1.5,   0.8,   1.2,  0,  0,  0,  0, 32,  0,  0, 21,  0, 33,  0,  0, 37,  0, 33,  0,  0, 40,  0,  0,  0,  0, 25, 32,  0,  0, 33,  0,  8,  0,  0, 40
6, 10885, 2,N0CALL,     0.00, 3,   boost,   90.02,  99479.00,  154.81,    0.00,    4.95, 36.7, 3.94, 3.95, 3.94, -95.39,  -0.06,   2.11,  56.23,   4.75,   1.40,  -1.47,   0.36,  -0.31,   0.80, 3.96, 0.00, 0.00, 0.01, 0.00, 1, 1, 11,  42.6261203, -88.1604760,   255.0, 2023,  9, 30, 16, 17, 47,        0,        0,   0,   0,   1.5,   0.8,   1.2,  0,  0,  0,  0, 32,  0,  0, 21,  0, 33,  0,  0, 37,  0, 33,  0,  0, 40,  0,  0,  0,  0, 25, 32,  0,  0, 33,  0,  8,  0,  0, 40
6, 10885, 2,N0CALL,     0.00, 3,   boost,   90.02,  99479.00,  154.81,    0.00,    4.95, 36.7, 3.94, 3.95, 3.94, -95.39,  -0.06,   2.11,  56.23,   4.75,   1.40,  -1.47,   0.36,  -0.31,   0.80, 3.96, 0.00, 0.00, 0.01, 0.00, 1, 1, 11,  42.6261203, -88.1604760,   255.0, 2023,  9, 30, 16, 17, 47,        0,        0,   0,   0,   1.5,   0.8,   1.2,  0,  0,  0,  0, 32,  0,  0, 21,  0, 33,  0,  0, 37,  0, 33,  0,  0, 40,  0,  0,  0,  0, 25, 32,  0,  0, 33,  0,  8,  0,  0, 40
6, 10885, 2,N0CALL,     0.00, 3,   boost,   90.02,  99479.00,  154.81,    0.00,    4.95, 36.7, 3.94, 3.95, 3.94, -95.39,  -0.06,   2.11,  56.23,   4.75,   1.40,  -1.47,   0.36,  -0.31,   0.80, 3.96, 0.00, 0.00, 0.01, 0.00, 1, 1, 11,  42.6261203, -88.1604760,   255.0, 2023,  9, 30, 16, 17, 47,        0,        0,   0,   0,   1.5,   0.8,   1.2,  0,  0,  0,  0, 32,  0,  0, 21,  0, 33,  0,  0, 37,  0, 33,  0,  0, 40,  0,  0,  0,  0, 25, 32,  0,  0, 33,  0,  8,  0,  0, 40
6, 10885, 2,N0CALL,     0.00, 3,   boost,   90.02,  99479.00,  154.81,    0.00,    4.95, 36.7, 3.94, 3.95, 3.94, -95.39,  -0.06,   2.11,  56.23,   4.75,   1.40,  -1.47,   0.36,  -0.31,   0.80, 3.96, 0.00, 0.00, 0.01, 0.00, 1, 1, 11,  42.6261203, -88.1604760,   255.0, 2023,  9, 30, 16, 17, 47,        0,        0,   0,   0,   1.5,   0.8,   1.2,  0,  0,  0,  0, 32,  0,  0, 21,  0, 33,  0,  0, 37,  0, 33,  0,  0, 40,  0,  0,  0,  0, 25, 32,  0,  0, 33,  0,  8,  0,  0, 40
6, 10885, 2,N0CALL,     0.00, 3,   boost,   90.02,  99479.00,  154.81,    0.00,    4.95, 36.7, 3.94, 3.95, 3.94, -95.39,  -0.06,   2.11,  56.23,   4.75,   1.40,  -1.47,   0.36,  -0.31,   0.79, 3.96, 0.00, 0.00, 0.01, 0.00, 1, 1, 11,  42.6261203, -88.1604760,   255.0, 2023,  9, 30, 16, 17, 47,        0,        0,   0,   0,   1.5,   0.8,   1.2,  0,  0,  0,  0, 32,  0,  0, 21,  0, 33,  0,  0, 37,  0, 33,  0,  0, 40,  0,  0,  0,  0, 25, 32,  0,  0, 33,  0,  8,  0,  0, 40
6, 10885, 2,N0CALL,     0.00, 3,   boost,   90.02,  99479.00,  154.81,    0.00,    4.95, 36.7, 3.94, 3.95, 3.94, -95.39,  -0.06,   2.11,  56.23,   4.75,   1.40,  -1.47,   0.36,  -0.31,   0.79, 3.96, 0.00, 0.00, 0.01, 0.00, 1, 1, 11,  42.6261203, -88.1604760,   255.0, 2023,  9, 30, 16, 17, 47,        0,        0,   0,   0,   1.5,   0.8,   1.2,  0,  0,  0,  0, 32,  0,  0, 21,  0, 33,  0,  0, 37,  0, 33,  0,  0, 40,  0,  0,  0,  0, 25, 32,  0,  0, 33,  0,  8,  0,  0, 40
6, 10885, 2,N0CALL,     0.00, 3,   boost,   90.02,  99479.00,  154.81,    0.00,    4.95, 36.7, 3.94, 3.95, 3.94, -95.39,  -0.06,   2.11,  56.23,   4.75,   1.40,  -1.47,   0.36,  -0.31,   0.79, 3.96, 0.00, 0.00, 0.01, 0.00, 1, 1, 11,  42.6261203, -88.1604760,   255.0, 2023,  9, 30, 16, 17, 47,        0,        0,   0,   0,   1.5,   0.8,   1.2,  0,  0,  0,  0, 32,  0,  0, 21,  0, 33,  0,  0, 37,  0, 33,  0,  0, 40,  0,  0,  0,  0, 25, 32,  0,  0, 33,  0,  8,  0,  0, 40
6, 10885, 2,N0CALL,     0.00, 3,   boost,   90.02,  99479.00,  154.81,    0.00,    4.95, 36.7, 3.94, 3.95, 3.94, -95.39,  -0.06,   2.11,  56.23,   4.75,   1.40,  -1.47,   0.36,  -0.31,   0.79, 3.96, 0.00, 0.00, 0.01, 0.00, 1, 1, 11,  42.6261203, -88.1604760,   255.0, 2023,  9, 30, 16, 17, 47,        0,        0,   0,   0,   1.5,   0.8,   1.2,  0,  0,  0,  0, 32,  0,  0, 21,  0, 33,  0,  0, 37,  0, 33,  0,  0, 40,  0,  0,  0,  0, 25, 32,  0,  0, 33,  0,  8,  0,  0, 40
6, 10885, 2,N0CALL,     0.00, 3,   boost,   90.02,  99479.00,  154.81,    0.00,    4.95, 36.7, 3.94, 3.95, 3.94, -95.39,  -0.06,   2.11,  56.23,   4.75,   1.40,  -1.47,   0.36,  -0.31,   0.79, 3.96, 0.00, 0.00, 0.01, 0.00, 1, 1, 11,  42.6261203, -88.1604760,   255.0, 2023,  9, 30, 16, 17, 47,        0,        0,   0,   0,   1.5,   0.8,   1.2,  0,  0,  0,  0, 32,  0,  0, 21,  0, 33,  0,  0, 37,  0, 33,  0,  0, 40,  0,  0,  0,  0, 25, 32,  0,  0, 33,  0,  8,  0,  0, 40
6, 10885, 2,N0CALL,     0.00, 3,   boost,   90.02,  99479.00,  154.81,    0.00,    4.95, 36.7, 3.94, 3.95, 3.94, -95.39,  -0.06,   2.11,  56.23,   4.75,   1.40,  -1.47,   0.36,  -0.31,   0.79, 3.96, 0.00, 0.00, 0.01, 0.00, 1, 1, 11,  42.6261203, -88.1604760,   255.0, 2023,  9, 30, 16, 17, 47,        0,        0,   0,   0,   1.5,   0.8,   1.2,  0,  0,  0,  0, 32,  0,  0, 21,  0, 33,  0,  0, 37,  0, 33,  0,  0, 40,  0,  0,  0,  0, 25, 32,  0,  0, 33,  0,  8,  0,  0, 40
6, 10885, 2,N0CALL,     0.00, 3,   boost,   90.02,  99479.00,  154.81,    0.00,    4.95, 36.7, 3.94, 3.95, 3.94, -95.39,  -0.06,   2.11,  56.23,   4.75,   1.40,  -1.47,   0.36,  -0.31,   0.79, 3.96, 0.00, 0.00, 0.01, 0.00, 1, 1, 11,  42.6261203, -88.1604760,   255.0, 2023,  9, 30, 16, 17, 47,        0,        0,   0,   0,   1.5,   0.8,   1.2,  0,  0,  0,  0, 32,  0,  0, 21,  0, 33,  0,  0, 37,  0, 33,  0,  0, 40,  0,  0,  0,  0, 25, 32,  0,  0, 33,  0,  8,  0,  0, 40
6, 10885, 2,N0CALL,     0.00, 3,   boost,   90.02,  99479.00,  154.81,    0.00,    4.95, 36.7, 3.94, 3.95, 3.94, -95.39,  -0.06,   2.11,  56.23,   4.75,   1.40,  -1.47,   0.36,  -0.31,   0.79, 3.96, 0.00, 0.00, 0.01, 0.00, 1, 1, 11,  42.6261203, -88.1604760,   255.0, 2023,  9, 30, 16, 17, 47,        0,        0,   0,   0,   1.5,   0.8,   1.2,  0,  0,  0,  0, 32,  0,  0, 21,  0, 33,  0,  0, 37,  0, 33,  0,  0, 40,  0,  0,  0,  0, 25, 32,  0,  0, 33,  0,  8,  0,  0, 40
6, 10885, 2,N0CALL,     0.00, 3,   boost,   90.02,  99479.00,  154.81,    0.00,    4.95, 36.7, 3.94, 3.95, 3.94, -95.39,  -0.06,   2.11,  56.23,   4.75,   1.40,  -1.47,   0.36,  -0.31,   0.80, 3.96, 0.00, 0.00, 0.01, 0.00, 1, 1, 11,  42.6261203, -88.1604760,   255.0, 2023,  9, 30, 16, 17, 47,        0,        0,   0,   0,   1.5,   0.8,   1.2,  0,  0,  0,  0, 32,  0,  0, 21,  0, 33,  0,  0, 37,  0, 33,  0,  0, 40,  0,  0,  0,  0, 25, 32,  0,  0, 33,  0,  8,  0,  0, 40
6, 10885, 2,N0CALL,     0.00, 3,   boost,   90.02,  99479.00,  154.81,    0.00,    4.95, 36.7, 3.94, 3.95, 3.94, -95.39,  -0.06,   2.11,  56.23,   4.75,   1.40,  -1.47,   0.36,  -0.31,   0.83, 3.96, 0.00, 0.00, 0.01, 0.00, 1, 1, 11,  42.6261203, -88.1604760,   255.0, 2023,  9, 30, 16, 17, 47,        0,        0,   0,   0,   1.5,   0.8,   1.2,  0,  0,  0,  0, 32,  0,  0, 21,  0, 33,  0,  0, 37,  0, 33,  0,  0, 40,  0,  0,  0,  0, 25, 32,  0,  0, 33,  0,  8,  0,  0, 40
6, 10885, 2,N0CALL,     0.00, 3,   boost,   90.02,  99479.00,  154.81,    0.00,    4.95, 36.7, 3.94, 3.95, 3.94, -95.39,  -0.06,   2.11,  56.23,   4.75,   1.40,  -1.47,   0.36,  -0.31,   0.85, 3.96, 0.00, 0.00, 0.01, 0.00, 1, 1, 11,  42.6261203, -88.1604760,   255.0, 2023,  9, 30, 16, 17, 47,        0,        0,   0,   0,   1.5,   0.8,   1.2,  0,  0,  0,  0, 32,  0,  0, 21,  0, 33,  0,  0, 37,  0, 33,  0,  0, 40,  0,  0,  0,  0, 25, 32,  0,  0, 33,  0,  8,  0,  0, 40
6, 10885, 2,N0CALL,     0.00, 3,   boost,   90.02,  99479.00,  154.81,    0.00,    4.95, 36.7, 3.94, 3.95, 3.94, -95.39,  -0.06,   2.11,  56.23,   4.75,   1.40,  -1.47,   0.36,  -0.31,   0.89, 3.96, 0.00, 0.00, 0.01, 0.00, 1, 1, 11,  42.6261203, -88.1604760,   255.0, 2023,  9, 30, 16, 17, 47,        0,        0,   0,   0,   1.5,   0.8,   1.2,  0,  0,  0,  0, 32,  0,  0, 21,  0, 33,  0,  0, 37,  0, 33,  0,  0, 40,  0,  0,  0,  0, 25, 32,  0,  0, 33,  0,  8,  0,  0, 40
6, 10885, 2,N0CALL,     0.00, 3,   boost,   90.02,  99479.00,  154.81,    0.00,    4.95, 36.7, 3.94, 3.95, 3.94, -95.39,  -0.06,   2.11,  56.23,   4.75,   1.40,  -1.47,   0.36,  -0.31,   0.94, 3.96, 0.00, 0.00, 0.01, 0.00, 1, 1, 11,  42.6261203, -88.1604760,   255.0, 2023,  9, 30, 16, 17, 47,        0,        0,   0,   0,   1.5,   0.8,   1.2,  0,  0,  0,  0, 32,  0,  0, 21,  0, 33,  0,  0, 37,  0, 33,  0,  0, 40,  0,  0,  0,  0, 25, 32,  0,  0, 33,  0,  8,  0,  0, 40
6, 10885, 2,N0CALL,     0.01, 3,   boost,   90.02,  99482.00,  154.56,   -0.25,    5.82, 36.7, 3.94, 3.95, 3.94, -97.79,   0.52,   2.61,  46.90,   0.66,  -0.31,  -1.47,   0.36,  -0.31,   0.95, 3.96, 0.00, 0.00, 0.01, 0.00, 1, 1, 11,  42.6261203, -88.1604760,   255.0, 2023,  9, 30, 16, 17, 47,        0,        0,   0,   0,   1.5,   0.8,   1.2,  0,  0,  0,  0, 32,  0,  0, 21,  0, 33,  0,  0, 37,  0, 33,  0,  0, 40,  0,  0,  0,  0, 25, 32,  0,  0, 33,  0,  8,  0,  0, 40
6, 10885, 2,N0CALL,     0.01, 3,   boost,   90.02,  99482.00,  154.56,   -0.25,    5.82, 36.7, 3.94, 3.95, 3.94, -97.79,   0.52,   2.61,  46.90,   0.66,  -0.31,  -1.47,   0.36,  -0.31,   0.95, 3.96, 0.00, 0.00, 0.01, 0.00, 1, 1, 11,  42.6261203, -88.1604760,   255.0, 2023,  9, 30, 16, 17, 47,        0,        0,   0,   0,   1.5,   0.8,   1.2,  0,  0,  0,  0, 32,  0,  0, 21,  0, 33,  0,  0, 37,  0, 33,  0,  0, 40,  0,  0,  0,  0, 25, 32,  0,  0, 33,  0,  8,  0,  0, 40
6, 10885, 2,N0CALL,     0.02, 3,   boost,   88.01,  99482.00,  154.56,   -0.25,    6.70, 36.7, 3.94, 3.95, 3.94, -99.25,   0.50,   2.33,   4.05,  -0.01,   1.16,  -1.47,   0.36,  -0.31,   0.95, 3.95, 0.01, 0.02, 0.00, 0.00, 1, 1, 11,  42.6261203, -88.1604760,   255.0, 2023,  9, 30, 16, 17, 47,        0,        0,   0,   0,   1.5,   0.8,   1.2,  0,  0,  0,  0, 32,  0,  0, 21,  0, 33,  0,  0, 37,  0, 33,  0,  0, 40,  0,  0,  0,  0, 25, 32,  0,  0, 33,  0,  8,  0,  0, 40
6, 10885, 2,N0CALL,     0.02, 3,   boost,   88.01,  99482.00,  154.56,   -0.25,    6.70, 36.7, 3.94, 3.95, 3.94, -99.25,   0.50,   2.33,   4.05,  -0.01,   1.16,  -1.47,   0.36,  -0.31,   0.95, 3.95, 0.01, 0.02, 0.00, 0.00, 1, 1, 11,  42.6261203, -88.1604760,   255.0, 2023,  9, 30, 16, 17, 47,        0,        0,   0,   0,   1.5,   0.8,   1.2,  0,  0,  0,  0, 32,  0,  0, 21,  0, 33,  0,  0, 37,  0, 33,  0,  0, 40,  0,  0,  0,  0, 25, 32,  0,  0, 33,  0,  8,  0,  0, 40
6, 10885, 2,N0CALL,     0.03, 3,   boost,   84.99,  99471.00,  155.49,    0.68,    7.57, 36.7, 3.94, 3.95, 3.94, -94.50,   2.07,  -0.47, -14.32,  -2.21,   1.40,  -1.47,   0.36,  -0.31,   0.93, 3.95, 0.01, 0.02, 0.00, 0.00, 1, 1, 11,  42.6261203, -88.1604760,   255.0, 2023,  9, 30, 16, 17, 47,        0,        0,   0,   0,   1.5,   0.8,   1.2,  0,  0,  0,  0, 32,  0,  0, 21,  0, 33,  0,  0, 37,  0, 33,  0,  0, 40,  0,  0,  0,  0, 25, 32,  0,  0, 33,  0,  8,  0,  0, 40
6, 10885, 2,N0CALL,     0.04, 3,   boost,   84.99,  99471.00,  155.49,    0.68,    8.44, 36.7, 3.94, 3.95, 3.94, -93.07,  -1.82,  -0.22,  12.23,  -1.72,   5.12,  -1.48,   0.35,  -0.31,   0.94, 3.95, 0.01, 0.02, 0.00, 0.00, 1, 1, 11,  42.6261203, -88.1604760,   255.0, 2023,  9, 30, 16, 17, 47,        0,        0,   0,   0,   1.5,   0.8,   1.2,  0,  0,  0,  0, 32,  0,  0, 21,  0, 33,  0,  0, 37,  0, 33,  0,  0, 40,  0,  0,  0,  0, 25, 32,  0,  0, 33,  0,  8,  0,  0, 40
6, 10885, 2,N0CALL,     0.05, 3,   boost,   87.00,  99468.00,  155.74,    0.93,    9.31, 36.7, 3.94, 3.95, 3.94, -93.02,   1.47,  -0.11,  68.50,  -1.90,   3.23,  -1.48,   0.35,  -0.31,   0.93, 3.95, 0.01, 0.02, 0.00, 0.00, 1, 1, 11,  42.6261203, -88.1604760,   255.0, 2023,  9, 30, 16, 17, 47,        0,        0,   0,   0,   1.5,   0.8,   1.2,  0,  0,  0,  0, 32,  0,  0, 21,  0, 33,  0,  0, 37,  0, 33,  0,  0, 40,  0,  0,  0,  0, 25, 32,  0,  0, 33,  0,  8,  0,  0, 40
6, 10885, 2,N0CALL,     0.06, 3,   boost,   89.01,  99468.00,  155.74,    0.93,   10.19, 36.7, 3.94, 3.95, 3.94, -95.54,  -0.17,   0.93, 106.47,  -1.66,   5.24,  -1.47,   0.35,  -0.31,   0.94, 3.95, 0.01, 0.02, 0.00, 0.00, 1, 1, 11,  42.6261203, -88.1604760,   255.0, 2023,  9, 30, 16, 17, 47,        0,        0,   0,   0,   1.5,   0.8,   1.2,  0,  0,  0,  0, 32,  0,  0, 21,  0, 33,  0,  0, 37,  0, 33,  0,  0, 40,  0,  0,  0,  0, 25, 32,  0,  0, 33,  0,  8,  0,  0, 40
6, 10885, 2,N0CALL,     0.07, 3,   boost,   84.99,  99472.00,  155.40,    0.59,   11.08, 36.7, 3.94, 3.95, 3.94, -95.98,  -1.54,  -0.03,  97.92,  -2.08,   6.77,  -1.47,   0.35,  -0.31,   0.96, 3.95, 0.01, 0.02, 0.00, 0.00, 1, 1, 11,  42.6261203, -88.1604760,   255.0, 2023,  9, 30, 16, 17, 47,        0,        0,   0,   0,   1.5,   0.8,   1.2,  0,  0,  0,  0, 32,  0,  0, 21,  0, 33,  0,  0, 37,  0, 33,  0,  0, 40,  0,  0,  0,  0, 25, 32,  0,  0, 33,  0,  8,  0,  0, 40
6, 10885, 2,N0CALL,     0.08, 3,   boost,   93.54,  99472.00,  155.40,    0.59,   11.98, 36.7, 3.94, 3.95, 3.94, -95.90,  -1.77,   1.06,  45.00,  -0.74,   5.61,  -1.48,   0.35,  -0.31,   0.99, 3.95, 0.01, 0.02, 0.00, 0.00, 1, 1, 11,  42.6261203, -88.1604760,   255.0, 2023,  9, 30, 16, 17, 47,        0,        0,   0,   0,   1.5,   0.8,   1.2,  0,  0,  0,  0, 32,  0,  0, 21,  0, 33,  0,  0, 37,  0, 33,  0,  0, 40,  0,  0,  0,  0, 25, 32,  0,  0, 33,  0,  8,  0,  0, 40
6, 10885, 2,N0CALL,     0.09, 3,   boost,   97.06,  99454.00,  156.92,    2.11,   12.90, 36.7, 3.94, 3.95, 3.94, -99.99,  -6.12,   2.19,   2.46,   0.79,   6.47,  -1.48,   0.35,  -0.31,   1.03, 3.95, 0.01, 0.02, 0.00, 0.00, 1, 1, 11,  42.6261203, -88.1604760,   255.0, 2023,  9, 30, 16, 17, 47,        0,        0,   0,   0,   1.5,   0.8,   1.2,  0,  0,  0,  0, 32,  0,  0, 21,  0, 33,  0,  0, 37,  0, 33,  0,  0, 40,  0,  0,  0,  0, 25, 32,  0,  0, 33,  0,  8,  0,  0, 40
6, 10885, 2,N0CALL,     0.10, 3,   boost,   92.53,  99454.00,  156.92,    2.11,   13.83, 36.7, 3.94, 3.95, 3.94,-103.49,  -5.96,   2.12,  14.00,   0.85,   2.62,  -1.48,   0.35,  -0.31,   1.06, 3.95, 0.01, 0.02, 0.00, 0.00, 1, 1, 11,  42.6261203, -88.1604760,   255.0, 2023,  9, 30, 16, 17, 47,        0,        0,   0,   0,   1.5,   0.8,   1.2,  0,  0,  0,  0, 32,  0,  0, 21,  0, 33,  0,  0, 37,  0, 33,  0,  0, 40,  0,  0,  0,  0, 25, 32,  0,  0, 33,  0,  8,  0,  0, 40
6, 10885, 2,N0CALL,     0.11, 3,   boost,   93.04,  99456.00,  156.75,    1.94,   14.76, 36.7, 3.94, 3.95, 3.94,-100.63,  -2.83,  -0.27,   8.20,  -0.80,  -3.67,  -1.48,   0.35,  -0.31,   1.03, 3.95, 0.01, 0.02, 0.00, 0.00, 1, 1, 11,  42.6261203, -88.1604760,   255.0, 2023,  9, 30, 16, 17, 47,        0,        0,   0,   0,   1.5,   0.8,   1.2,  0,  0,  0,  0, 32,  0,  0, 21,  0, 33,  0,  0, 37,  0, 33,  0,  0, 40,  0,  0,  0,  0, 25, 32,  0,  0, 33,  0,  8,  0,  0, 40
6, 10885, 2,N0CALL,     0.12, 3,   boost,   90.52,  99456.00,  156.75,    1.94,   15.70, 36.7, 3.94, 3.95, 3.94,-101.16,  -3.95,  -0.97, -54.18,   1.52,  -4.77,  -1.48,   0.35,  -0.31,   1.01, 3.95, 0.01, 0.02, 0.00, 0.00, 1, 1, 11,  42.6261203, -88.1604760,   255.0, 2023,  9, 30, 16, 17, 47,        0,        0,   0,   0,   1.5,   0.8,   1.2,  0,  0,  0,  0, 32,  0,  0, 21,  0, 33,  0,  0, 37,  0, 33,  0,  0, 40,  0,  0,  0,  0, 25, 32,  0,  0, 33,  0,  8,  0,  0, 40
6, 10885, 2,N0CALL,     0.13, 3,   boost,   94.04,  99447.00,  157.52,    2.70,   16.65, 36.7, 3.94, 3.95, 3.94,-101.89,  -1.03,   0.38, -85.98,   5.42,  -7.57,  -1.47,   0.36,  -0.31,   1.01, 3.95, 0.01, 0.02, 0.00, 0.00, 1, 1, 11,  42.6261203, -88.1604760,   255.0, 2023,  9, 30, 16, 17, 47,        0,        0,   0,   0,   1.5,   0.8,   1.2,  0,  0,  0,  0, 32,  0,  0, 21,  0, 33,  0,  0, 37,  0, 33,  0,  0, 40,  0,  0,  0,  0, 25, 32,  0,  0, 33,  0,  8,  0,  0, 40
6, 10885, 2,N0CALL,     0.14, 3,   boost,  102.09,  99447.00,  157.52,    2.70,   17.63, 36.7, 3.94, 3.95, 3.94,-101.50,   1.47,  -0.34, -83.35,   4.08,  -8.31,  -1.47,   0.36,  -0.31,   1.00, 3.95, 0.01, 0.02, 0.00, 0.00, 1, 1, 11,  42.6261203, -88.1604760,   255.0, 2023,  9, 30, 16, 17, 47,        0,        0,   0,   0,   1.5,   0.8,   1.2,  0,  0,  0,  0, 32,  0,  0, 21,  0, 33,  0,  0, 37,  0, 33,  0,  0, 40,  0,  0,  0,  0, 25, 32,  0,  0, 33,  0,  8,  0,  0, 40
6, 10885, 2,N0CALL,     0.15, 3,   boost,   95.05,  99454.00,  156.92,    2.11,   18.63, 36.7, 3.94, 3.95, 3.94,-106.67,  -1.85,   0.50,-103.43,   6.71,  -4.03,  -1.47,   0.36,  -0.31,   1.05, 3.95, 0.01, 0.02, 0.00, 0.00, 1, 1, 11,  42.6261203, -88.1604760,   255.0, 2023,  9, 30, 16, 17, 47,        0,        0,   0,   0,   1.5,   0.8,   1.2,  0,  0,  0,  0, 32,  0,  0, 21,  0, 33,  0,  0, 37,  0, 33,  0,  0, 40,  0,  0,  0,  0, 25, 32,  0,  0, 33,  0,  8,  0,  0, 40
6, 10885, 2,N0CALL,     0.16, 3,   boost,  109.13,  99454.00,  156.92,    2.11,   19.65, 36.7, 3.94, 3.95, 3.94,-106.49,   0.42,   0.69,-117.04,   8.41,  -6.66,  -1.48,   0.36,  -0.31,   1.11, 3.95, 0.01, 0.02, 0.00, 0.00, 1, 1, 11,  42.6261203, -88.1604760,   255.0, 2023,  9, 30, 16, 17, 47,        0,        0,   0,   0,   1.5,   0.8,   1.2,  0,  0,  0,  0, 32,  0,  0, 21,  0, 33,  0,  0, 37,  0, 33,  0,  0, 40,  0,  0,  0,  0, 25, 32,  0,  0, 33,  0,  8,  0,  0, 40
6, 10885, 2,N0CALL,     0.17, 3,   boost,  110.64,  99450.00,  157.26,    2.45,   20.69, 36.7, 3.94, 3.95, 3.94,-118.13,   1.39,  -3.38,-119.00,   4.51,  -5.50,  -1.48,   0.37,  -0.31,   1.14, 3.95, 0.01, 0.02, 0.00, 0.00, 1, 1, 11,  42.6261203, -88.1604760,   255.0, 2023,  9, 30, 16, 17, 47,        0,        0,   0,   0,   1.5,   0.8,   1.2,  0,  0,  0,  0, 32,  0,  0, 21,  0, 33,  0,  0, 37,  0, 33,  0,  0, 40,  0,  0,  0,  0, 25, 32,  0,  0, 33,  0,  8,  0,  0, 40
6, 10885, 2,N0CALL,     0.18, 3,   boost,  106.62,  99450.00,  157.26,    2.45,   21.74, 36.7, 3.94, 3.95, 3.94,-116.64,   0.21,   2.31,-112.59,  14.27,  -1.23,  -1.48,   0.37,  -0.30,   1.28, 3.95, 0.01, 0.02, 0.00, 0.00, 1, 1, 11,  42.6261203, -88.1604760,   255.0, 2023,  9, 30, 16, 17, 47,        0,        0,   0,   0,   1.5,   0.8,   1.2,  0,  0,  0,  0, 32,  0,  0, 21,  0, 33,  0,  0, 37,  0, 33,  0,  0, 40,  0,  0,  0,  0, 25, 32,  0,  0, 33,  0,  8,  0,  0, 40
6, 10885, 2,N0CALL,     0.19, 3,   boost,   97.56,  99433.00,  158.70,    3.89,   22.79, 36.8, 3.94, 3.95, 3.94,-111.58,  -2.07,  -4.46,-153.54,  15.01,   5.00,  -1.48,   0.37,  -0.30,   1.43, 3.95, 0.01, 0.02, 0.00, 0.00, 1, 1, 11,  42.6261203, -88.1604760,   255.0, 2023,  9, 30, 16, 17, 47,        0,        0,   0,   0,   1.5,   0.8,   1.2,  0,  0,  0,  0, 32,  0,  0, 21,  0, 33,  0,  0, 37,  0, 33,  0,  0, 40,  0,  0,  0,  0, 25, 32,  0,  0, 33,  0,  8,  0,  0, 40
6, 10885, 2,N0CALL,     0.20, 3,   boost,  106.11,  99433.00,  158.70,    3.89,   23.84, 36.8, 3.94, 3.95, 3.94,-116.18,   7.00,  -5.02,-185.40,  19.77,   6.89,  -1.48,   0.38,  -0.30,   1.64, 3.95, 0.01, 0.02, 0.00, 0.00, 1, 1, 11,  42.6261203, -88.1604760,   255.0, 2023,  9, 30, 16, 17, 47,        0,        0,   0,   0,   1.5,   0.8,   1.2,  0,  0,  0,  0, 32,  0,  0, 21,  0, 33,  0,  0, 37,  0, 33,  0,  0, 40,  0,  0,  0,  0, 25, 32,  0,  0, 33,  0,  8,  0,  0, 40
6, 10885, 2,N0CALL,     0.21, 3,   boost,  104.10,  99440.00,  158.11,    3.30,   24.90, 36.7, 3.94, 3.95, 3.94,-116.18,  -0.40,  -0.26,-182.53,  30.69,  15.80,  -1.48,   0.38,  -0.30,   1.97, 3.95, 0.01, 0.02, 0.00, 0.00, 1, 1, 11,  42.6261203, -88.1604760,   255.0, 2023,  9, 30, 16, 17, 47,        0,        0,   0,   0,   1.5,   0.8,   1.2,  0,  0,  0,  0, 32,  0,  0, 21,  0, 33,  0,  0, 37,  0, 33,  0,  0, 40,  0,  0,  0,  0, 25, 32,  0,  0, 33,  0,  8,  0,  0, 40
6, 10885, 2,N0CALL,     0.22, 3,   boost,  107.62,  99440.00,  158.11,    3.30,   25.97, 36.7, 3.94, 3.95, 3.94,-110.33,   1.03,  -2.59, -14.57,  32.58,  14.22,  -1.48,   0.37,  -0.30,   2.31, 3.95, 0.01, 0.02, 0.00, 0.00, 1, 1, 11,  42.6261203, -88.1604760,   255.0, 2023,  9, 30, 16, 17, 47,        0,        0,   0,   0,   1.5,   0.8,   1.2,  0,  0,  0,  0, 32,  0,  0, 21,  0, 33,  0,  0, 37,  0, 33,  0,  0, 40,  0,  0,  0,  0, 25, 32,  0,  0, 33,  0,  8,  0,  0, 40
6, 10885, 2,N0CALL,     0.23, 3,   boost,  115.67,  99425.00,  159.37,    4.56,   27.06, 36.7, 3.94, 3.95, 3.94,-116.89,  -3.17, -24.35, 402.24, -22.47,  31.61,  -1.48,   0.37,  -0.30,   2.18, 3.95, 0.01, 0.02, 0.00, 0.00, 1, 1, 11,  42.6261203, -88.1604760,   255.0, 2023,  9, 30, 16, 17, 47,        0,        0,   0,   0,   1.5,   0.8,   1.2,  0,  0,  0,  0, 32,  0,  0, 21,  0, 33,  0,  0, 37,  0, 33,  0,  0, 40,  0,  0,  0,  0, 25, 32,  0,  0, 33,  0,  8,  0,  0, 40
6, 10885, 2,N0CALL,     0.24, 3,   boost,  109.13,  99425.00,  159.37,    4.56,   28.15, 36.7, 3.94, 3.95, 3.94,-125.30,  -1.03,  20.29, 387.17,  49.86,  24.17,  -1.48,   0.36,  -0.30,   2.73, 3.95, 0.01, 0.02, 0.00, 0.00, 1, 1, 11,  42.6261203, -88.1604760,   255.0, 2023,  9, 30, 16, 17, 47,        0,        0,   0,   0,   1.5,   0.8,   1.2,  0,  0,  0,  0, 32,  0,  0, 21,  0, 33,  0,  0, 37,  0, 33,  0,  0, 40,  0,  0,  0,  0, 25, 32,  0,  0, 33,  0,  8,  0,  0, 40
6, 10885, 2,N0CALL,     0.25, 3,   boost,  112.15,  99422.00,  159.63,    4.82,   29.25, 36.7, 3.94, 3.95, 3.94,-112.16,   1.20, -14.91, 371.91,  -1.11,  21.36,  -1.48,   0.35,  -0.29,   2.83, 3.95, 0.01, 0.02, 0.00, 0.00, 1, 1, 11,  42.6261203, -88.1604760,   255.0, 2023,  9, 30, 16, 17, 47,        0,        0,   0,   0,   1.5,   0.8,   1.2,  0,  0,  0,  0, 32,  0,  0, 21,  0, 33,  0,  0, 37,  0, 33,  0,  0, 40,  0,  0,  0,  0, 25, 32,  0,  0, 33,  0,  8,  0,  0, 40
6, 10885, 2,N0CALL,     0.26, 3,   boost,  106.11,  99422.00,  159.63,    4.82,   30.34, 36.7, 3.94, 3.95, 3.94,-120.22,  -2.05,   6.07, 368.73,  19.83,  31.25,  -1.48,   0.35,  -0.29,   3.18, 3.95, 0.01, 0.02, 0.00, 0.00, 1, 1, 11,  42.6261203, -88.1604760,   255.0, 2023,  9, 30, 16, 17, 47,        0,        0,   0,   0,   1.5,   0.8,   1.2,  0,  0,  0,  0, 32,  0,  0, 21,  0, 33,  0,  0, 37,  0, 33,  0,  0, 40,  0,  0,  0,  0, 25, 32,  0,  0, 33,  0,  8,  0,  0, 40
6, 10885, 2,N0CALL,     0.27, 3,   boost,  108.63,  99413.00,  160.39,    5.58,   31.43, 36.7, 3.94, 3.95, 3.94,-114.64,   1.64,   1.02, 360.80,  21.96,  28.32,  -1.48,   0.33,  -0.29,   3.53, 3.95, 0.01, 0.02, 0.00, 0.00, 1, 1, 11,  42.6261203, -88.1604760,   255.0, 2023,  9, 30, 16, 17, 47,        0,        0,   0,   0,   1.5,   0.8,   1.2,  0,  0,  0,  0, 32,  0,  0, 21,  0, 33,  0,  0, 37,  0, 33,  0,  0, 40,  0,  0,  0,  0, 25, 32,  0,  0, 33,  0,  8,  0,  0, 40
6, 10885, 2,N0CALL,     0.28, 3,   boost,  110.64,  99413.00,  160.39,    5.58,   32.51, 36.7, 3.94, 3.95, 3.94,-116.02,  -0.29,  -6.94, 354.33,   5.85,  32.10,  -1.48,   0.33,  -0.29,   3.81, 3.95, 0.01, 0.02, 0.00, 0.00, 1, 1, 11,  42.6261203, -88.1604760,   255.0, 2023,  9, 30, 16, 17, 47,        0,        0,   0,   0,   1.5,   0.8,   1.2,  0,  0,  0,  0, 32,  0,  0, 21,  0, 33,  0,  0, 37,  0, 33,  0,  0, 40,  0,  0,  0,  0, 25, 32,  0,  0, 33,  0,  8,  0,  0, 40
6, 10885, 2,N0CALL,     0.29, 3,   boost,  104.60,  99418.00,  159.97,    5.16,   33.60, 36.7, 3.94, 3.95, 3.94,-118.13,  -1.17,   6.79, 349.39,  25.57,  35.52,  -1.48,   0.33,  -0.29,   4.25, 3.95, 0.01, 0.02, 0.00, 0.00, 1, 1, 11,  42.6261203, -88.1604760,   255.0, 2023,  9, 30, 16, 17, 47,        0,        0,   0,   0,   1.5,   0.8,   1.2,  0,  0,  0,  0, 32,  0,  0, 21,  0, 33,  0,  0, 37,  0, 33,  0,  0, 40,  0,  0,  0,  0, 25, 32,  0,  0, 33,  0,  8,  0,  0, 40
6, 10885, 2,N0CALL,     0.30, 3,   boost,  109.63,  99418.00,  159.97,    5.16,   34.68, 36.7, 3.94, 3.95, 3.94,-117.14,   1.17,  -4.86, 340.90,  12.63,  34.11,  -1.48,   0.31,  -0.28,   4.60, 3.95, 0.01, 0.02, 0.00, 0.00, 1, 1, 11,  42.6261203, -88.1604760,   255.0, 2023,  9, 30, 16, 17, 47,        0,        0,   0,   0,   1.5,   0.8,   1.2,  0,  0,  0,  0, 32,  0,  0, 21,  0, 33,  0,  0, 37,  0, 33,  0,  0, 40,  0,  0,  0,  0, 25, 32,  0,  0, 33,  0,  8,  0,  0, 40
6, 10885, 2,N0CALL,     0.31, 3,   boost,  111.14,  99409.00,  160.73,    5.92,   35.76, 36.7, 3.94, 3.95, 3.94,-116.98,  -1.13,   0.23, 334.80,  14.09,  38.08,  -1.48,   0.31,  -0.28,   5.00, 3.95, 0.01, 0.02, 0.00, 0.00, 1, 1, 11,  42.6261203, -88.1604760,   255.0, 2023,  9, 30, 16, 17, 47,        0,        0,   0,   0,   1.5,   0.8,   1.2,  0,  0,  0,  0, 32,  0,  0, 21,  0, 33,  0,  0, 37,  0, 33,  0,  0, 40,  0,  0,  0,  0, 25, 32,  0,  0, 33,  0,  8,  0,  0, 40
6, 10885, 2,N0CALL,     0.32, 3,   boost,  106.11,  99409.00,  160.73,    5.92,   36.84, 36.7, 3.94, 3.95, 3.94,-115.68,  -0.61,   2.31, 327.29,  19.77,  39.73,  -1.49,   0.30,  -0.27,   5.45, 3.95, 0.01, 0.02, 0.00, 0.00, 1, 1, 11,  42.6261203, -88.1604760,   255.0, 2023,  9, 30, 16, 17, 47,        0,        0,   0,   0,   1.5,   0.8,   1.2,  0,  0,  0,  0, 32,  0,  0, 21,  0, 33,  0,  0, 37,  0, 33,  0,  0, 40,  0,  0,  0,  0, 25, 32,  0,  0, 33,  0,  8,  0,  0, 40
6, 10885, 2,N0CALL,     0.33, 3,   boost,  108.12,  99382.00,  163.01,    8.20,   37.93, 36.7, 3.94, 3.95, 3.94,-115.66,   0.81,  -4.50, 321.49,  11.59,  38.87,  -1.49,   0.29,  -0.27,   5.85, 3.95, 0.01, 0.02, 0.00, 0.00, 1, 1, 11,  42.6261203, -88.1604760,   255.0, 2023,  9, 30, 16, 17, 47,        0,        0,   0,   0,   1.5,   0.8,   1.2,  0,  0,  0,  0, 32,  0,  0, 21,  0, 33,  0,  0, 37,  0, 33,  0,  0, 40,  0,  0,  0,  0, 25, 32,  0,  0, 33,  0,  8,  0,  0, 40
6, 10885, 2,N0CALL,     0.34, 3,   boost,  111.14,  99382.00,  163.01,    8.20,   39.02, 36.7, 3.95, 3.95, 3.94,-118.53,  -1.96,   1.99, 316.31,  16.53,  42.48,  -1.49,   0.29,  -0.27,   6.31, 3.97, 0.00, 0.00, 0.00, 0.00, 1, 1, 11,  42.6261203, -88.1604760,   255.0, 2023,  9, 30, 16, 17, 47,        0,        0,   0,   0,   1.5,   0.8,   1.2,  0,  0,  0,  0, 32,  0,  0, 21,  0, 33,  0,  0, 37,  0, 33,  0,  0, 40,  0,  0,  0,  0, 25, 32,  0,  0, 33,  0,  8,  0,  0, 40
6, 10885, 2,N0CALL,     0.34, 3,   boost,  111.14,  99382.00,  163.01,    8.20,   39.02, 36.7, 3.95, 3.95, 3.94,-118.53,  -1.96,   1.99, 316.31,  16.53,  42.48,  -1.49,   0.29,  -0.27,   6.31, 3.97, 0.00, 0.00, 0.00, 0.00, 1, 1, 11,  42.6261203, -88.1604760,   255.0, 2023,  9, 30, 16, 17, 47,        0,        0,   0,   0,   1.5,   0.8,   1.2,  0,  0,  0,  0, 32,  0,  0, 21,  0, 33,  0,  0, 37,  0, 33,  0,  0, 40,  0,  0,  0,  0, 25, 32,  0,  0, 33,  0,  8,  0,  0, 40
6, 10885, 2,N0CALL,     0.35, 3,   boost,  110.14,  99387.00,  162.59,    7.78,   40.12, 36.7, 3.95, 3.95, 3.94,-117.08,   0.34,  -0.40, 309.96,  15.80,  42.11,  -1.48,   0.29,  -0.27,   6.76, 3.97, 0.00, 0.00, 0.00, 0.00, 1, 1, 11,  42.6261203, -88.1604760,   255.0, 2023,  9, 30, 16, 17, 47,        0,        0,   0,   0,   1.5,   0.8,   1.2,  0,  0,  0,  0, 32,  0,  0, 21,  0, 33,  0,  0, 37,  0, 33,  0,  0, 40,  0,  0,  0,  0, 25, 32,  0,  0, 33,  0,  8,  0,  0, 40
6, 10885, 2,N0CALL,     0.36, 3,   boost,  113.15,  99387.00,  162.59,    7.78,   41.23, 36.7, 3.95, 3.95, 3.94,-118.43,   0.17,  -2.66, 303.43,  12.14,  42.60,  -1.49,   0.28,  -0.26,   7.20, 3.97, 0.00, 0.00, 0.00, 0.00, 1, 1, 11,  42.6261203, -88.1604760,   255.0, 2023,  9, 30, 16, 17, 47,        0,        0,   0,   0,   1.5,   0.8,   1.2,  0,  0,  0,  0, 32,  0,  0, 21,  0, 33,  0,  0, 37,  0, 33,  0,  0, 40,  0,  0,  0,  0, 25, 32,  0,  0, 33,  0,  8,  0,  0, 40
6, 10885, 2,N0CALL,     0.37, 3,   boost,  115.17,  99382.00,  163.01,    8.20,   42.35, 36.7, 3.95, 3.95, 3.94,-120.95,  -1.50,   1.54, 297.02,  15.80,  45.28,  -1.49,   0.28,  -0.26,   7.67, 3.97, 0.00, 0.00, 0.00, 0.00, 1, 1, 11,  42.6261203, -88.1604760,   255.0, 2023,  9, 30, 16, 17, 47,        0,        0,   0,   0,   1.5,   0.8,   1.2,  0,  0,  0,  0, 32,  0,  0, 21,  0, 33,  0,  0, 37,  0, 33,  0,  0, 40,  0,  0,  0,  0, 25, 32,  0,  0, 33,  0,  8,  0,  0, 40
6, 10885, 2,N0CALL,     0.38, 3,   boost,  114.66,  99382.00,  163.01,    8.20,   43.49, 36.7, 3.95, 3.95, 3.94,-121.43,   0.37,  -1.21, 289.69,  13.91,  44.25,  -1.49,   0.28,  -0.25,   8.13, 3.97, 0.00, 0.00, 0.00, 0.00, 1, 1, 11,  42.6261203, -88.1604760,   255.0, 2023,  9, 30, 16, 17, 47,        0,        0,   0,   0,   1.5,   0.8,   1.2,  0,  0,  0,  0, 32,  0,  0, 21,  0, 33,  0,  0, 37,  0, 33,  0,  0, 40,  0,  0,  0,  0, 25, 32,  0,  0, 33,  0,  8,  0,  0, 40
6, 10885, 2,N0CALL,     0.39, 3,   boost,  114.16,  99371.00,  163.94,    9.13,   44.64, 36.7, 3.95, 3.95, 3.94,-119.13,  -0.19,  -1.52, 284.20,  12.02,  44.37,  -1.49,   0.27,  -0.25,   8.58, 3.97, 0.00, 0.00, 0.00, 0.00, 1, 1, 11,  42.6261203, -88.1604760,   255.0, 2023,  9, 30, 16, 17, 47,        0,        0,   0,   0,   1.5,   0.8,   1.2,  0,  0,  0,  0, 32,  0,  0, 21,  0, 33,  0,  0, 37,  0, 33,  0,  0, 40,  0,  0,  0,  0, 25, 32,  0,  0, 33,  0,  8,  0,  0, 40
6, 10885, 2,N0CALL,     0.40, 3,   boost,  122.21,  99371.00,  163.94,    9.13,   45.81, 36.7, 3.95, 3.95, 3.94,-121.84,  -1.18,   0.88, 278.46,  14.76,  46.02,  -1.49,   0.27,  -0.25,   9.05, 3.97, 0.00, 0.00, 0.00, 0.00, 1, 1, 11,  42.6261203, -88.1604760,   255.0, 2023,  9, 30, 16, 17, 47,        0,        0,   0,   0,   1.5,   0.8,   1.2,  0,  0,  0,  0, 32,  0,  0, 21,  0, 33,  0,  0, 37,  0, 33,  0,  0, 40,  0,  0,  0,  0, 25, 32,  0,  0, 33,  0,  8,  0,  0, 40
6, 10885, 2,N0CALL,     0.41, 3,   boost,  118.69,  99353.00,  165.46,   10.65,   47.00, 36.7, 3.95, 3.95, 3.94,-122.14,   0.43,  -1.19, 271.38,  13.36,  44.55,  -1.49,   0.27,  -0.24,   9.50, 3.97, 0.00, 0.00, 0.00, 0.00, 1, 1, 11,  42.6261203, -88.1604760,   255.0, 2023,  9, 30, 16, 17, 47,        0,        0,   0,   0,   1.5,   0.8,   1.2,  0,  0,  0,  0, 32,  0,  0, 21,  0, 33,  0,  0, 37,  0, 33,  0,  0, 40,  0,  0,  0,  0, 25, 32,  0,  0, 33,  0,  8,  0,  0, 40
6, 10885, 2,N0CALL,     0.42, 3,   boost,  132.77,  99353.00,  165.46,   10.65,   48.19, 36.7, 3.95, 3.95, 3.94,-123.45,  -0.55,  -1.02, 265.95,  11.95,  44.18,  -1.49,   0.27,  -0.24,   9.94, 3.97, 0.00, 0.00, 0.00, 0.00, 1, 1, 11,  42.6261203, -88.1604760,   255.0, 2023,  9, 30, 16, 17, 47,        0,        0,   0,   0,   1.5,   0.8,   1.2,  0,  0,  0,  0, 32,  0,  0, 21,  0, 33,  0,  0, 37,  0, 33,  0,  0, 40,  0,  0,  0,  0, 25, 32,  0,  0, 33,  0,  8,  0,  0, 40
6, 10885, 2,N0CALL,     0.43, 3,   boost,  118.18,  99329.00,  167.49,   12.68,   49.38, 36.7, 3.95, 3.95, 3.94,-124.40,  -0.56,   0.40, 259.73,  14.03,  44.80,  -1.49,   0.26,  -0.23,  10.38, 3.97, 0.00, 0.00, 0.00, 0.00, 1, 1, 11,  42.6261203, -88.1604760,   255.0, 2023,  9, 30, 16, 17, 47,        0,        0,   0,   0,   1.5,   0.8,   1.2,  0,  0,  0,  0, 32,  0,  0, 21,  0, 33,  0,  0, 37,  0, 33,  0,  0, 40,  0,  0,  0,  0, 25, 32,  0,  0, 33,  0,  8,  0,  0, 40
6, 10885, 2,N0CALL,     0.44, 3,   boost,  117.68,  99329.00,  167.49,   12.68,   50.57, 36.7, 3.95, 3.95, 3.94,-126.31,   0.21,  -1.21, 250.45,  12.26,  43.21,  -1.50,   0.26,  -0.23,  10.80, 3.97, 0.00, 0.00, 0.00, 0.00, 1, 1, 11,  42.6261203, -88.1604760,   255.0, 2023,  9, 30, 16, 17, 47,        0,        0,   0,   0,   1.5,   0.8,   1.2,  0,  0,  0,  0, 32,  0,  0, 21,  0, 33,  0,  0, 37,  0, 33,  0,  0, 40,  0,  0,  0,  0, 25, 32,  0,  0, 33,  0,  8,  0,  0, 40
6, 10885, 2,N0CALL,     0.45, 3,   boost,  119.69,  99314.00,  168.76,   13.95,   51.76, 36.7, 3.95, 3.95, 3.94,-124.38,  -0.55,  -0.23, 244.16,  13.54,  42.29,  -1.50,   0.26,  -0.23,  11.20, 3.97, 0.00, 0.00, 0.00, 0.00, 1, 1, 11,  42.6261203, -88.1604760,   255.0, 2023,  9, 30, 16, 17, 47,        0,        0,   0,   0,   1.5,   0.8,   1.2,  0,  0,  0,  0, 32,  0,  0, 21,  0, 33,  0,  0, 37,  0, 33,  0,  0, 40,  0,  0,  0,  0, 25, 32,  0,  0, 33,  0,  8,  0,  0, 40
6, 10885, 2,N0CALL,     0.46, 3,   boost,  122.71,  99314.00,  168.76,   13.95,   52.93, 36.7, 3.95, 3.95, 3.94,-125.23,  -0.50,  -0.59, 237.57,  14.27,  41.56,  -1.49,   0.26,  -0.22,  11.60, 3.97, 0.00, 0.00, 0.00, 0.00, 1, 1, 11,  42.6261203, -88.1604760,   255.0, 2023,  9, 30, 16, 17, 47,        0,        0,   0,   0,   1.5,   0.8,   1.2,  0,  0,  0,  0, 32,  0,  0, 21,  0, 33,  0,  0, 37,  0, 33,  0,  0, 40,  0,  0,  0,  0, 25, 32,  0,  0, 33,  0,  8,  0,  0, 40
6, 10885, 2,N0CALL,     0.47, 3,   boost,  117.68,  99296.00,  170.28,   15.47,   54.11, 36.8, 3.95, 3.95, 3.94,-123.82,  -0.16,  -1.14, 231.34,  14.03,  39.73,  -1.49,   0.26,  -0.22,  11.97, 3.97, 0.00, 0.00, 0.00, 0.00, 1, 1, 11,  42.6261203, -88.1604760,   255.0, 2023,  9, 30, 16, 17, 47,        0,        0,   0,   0,   1.5,   0.8,   1.2,  0,  0,  0,  0, 32,  0,  0, 21,  0, 33,  0,  0, 37,  0, 33,  0,  0, 40,  0,  0,  0,  0, 25, 32,  0,  0, 33,  0,  8,  0,  0, 40
6, 10885, 2,N0CALL,     0.48, 3,   boost,  120.70,  99296.00,  170.28,   15.47,   55.27, 36.8, 3.95, 3.95, 3.94,-124.32,  -0.22,  -0.35, 225.42,  15.43,  38.69,  -1.49,   0.26,  -0.22,  12.32, 3.97, 0.00, 0.00, 0.00, 0.00, 1, 1, 11,  42.6261203, -88.1604760,   255.0, 2023,  9, 30, 16, 17, 47,        0,        0,   0,   0,   1.5,   0.8,   1.2,  0,  0,  0,  0, 32,  0,  0, 21,  0, 33,  0,  0, 37,  0, 33,  0,  0, 40,  0,  0,  0,  0, 25, 32,  0,  0, 33,  0,  8,  0,  0, 40
6, 10885, 2,N0CALL,     0.49, 3,   boost,  120.70,  99281.00,  171.55,   16.74,   56.44, 36.7, 3.95, 3.95, 3.94,-124.38,  -0.24,  -0.90, 219.75,  17.20,  37.23,  -1.50,   0.26,  -0.21,  12.65, 3.97, 0.00, 0.00, 0.00, 0.00, 1, 1, 11,  42.6261203, -88.1604760,   255.0, 2023,  9, 30, 16, 17, 47,        0,        0,   0,   0,   1.5,   0.8,   1.2,  0,  0,  0,  0, 32,  0,  0, 21,  0, 33,  0,  0, 37,  0, 33,  0,  0, 40,  0,  0,  0,  0, 25, 32,  0,  0, 33,  0,  8,  0,  0, 40
6, 10885, 2,N0CALL,     0.50, 3,   boost,  120.19,  99281.00,  171.55,   16.74,   57.59, 36.7, 3.95, 3.95, 3.94,-127.16,  -0.28,  -1.00, 214.56,  17.88,  35.64,  -1.50,   0.26,  -0.20,  12.96, 3.97, 0.00, 0.00, 0.00, 0.00, 1, 1, 11,  42.6261203, -88.1604760,   255.0, 2023,  9, 30, 16, 17, 47,        0,        0,   0,   0,   1.5,   0.8,   1.2,  0,  0,  0,  0, 32,  0,  0, 21,  0, 33,  0,  0, 37,  0, 33,  0,  0, 40,  0,  0,  0,  0, 25, 32,  0,  0, 33,  0,  8,  0,  0, 40
6, 10885, 2,N0CALL,     0.51, 3,   boost,  115.17,  99263.00,  173.08,   18.27,   58.73, 36.7, 3.95, 3.95, 3.94,-126.33,  -0.04,   0.42, 209.01,  20.19,  33.14,  -1.50,   0.26,  -0.20,  13.24, 3.97, 0.00, 0.00, 0.00, 0.00, 1, 1, 11,  42.6261203, -88.1604760,   255.0, 2023,  9, 30, 16, 17, 47,        0,        0,   0,   0,   1.5,   0.8,   1.2,  0,  0,  0,  0, 32,  0,  0, 21,  0, 33,  0,  0, 37,  0, 33,  0,  0, 40,  0,  0,  0,  0, 25, 32,  0,  0, 33,  0,  8,  0,  0, 40
6, 10885, 2,N0CALL,     0.52, 3,   boost,  113.66,  99263.00,  173.08,   18.27,   59.86, 36.7, 3.95, 3.95, 3.94,-122.33,  -0.48,  -1.40, 200.09,  21.84,  32.16,  -1.50,   0.26,  -0.20,  13.49, 3.97, 0.00, 0.00, 0.00, 0.00, 1, 1, 11,  42.6261203, -88.1604760,   255.0, 2023,  9, 30, 16, 17, 47,        0,        0,   0,   0,   1.5,   0.8,   1.2,  0,  0,  0,  0, 32,  0,  0, 21,  0, 33,  0,  0, 37,  0, 33,  0,  0, 40,  0,  0,  0,  0, 25, 32,  0,  0, 33,  0,  8,  0,  0, 40
6, 10885, 2,N0CALL,     0.53, 3,   boost,  114.16,  99252.00,  174.01,   19.20,   60.98, 36.7, 3.95, 3.95, 3.94,-121.49,   0.11,  -1.35, 195.88,  22.27,  29.72,  -1.50,   0.26,  -0.19,  13.72, 3.97, 0.00, 0.00, 0.00, 0.00, 1, 1, 11,  42.6261203, -88.1604760,   255.0, 2023,  9, 30, 16, 17, 47,        0,        0,   0,   0,   1.5,   0.8,   1.2,  0,  0,  0,  0, 32,  0,  0, 21,  0, 33,  0,  0, 37,  0, 33,  0,  0, 40,  0,  0,  0,  0, 25, 32,  0,  0, 33,  0,  8,  0,  0, 40
6, 10885, 2,N0CALL,     0.54, 3,   boost,  114.16,  99252.00,  174.01,   19.20,   62.10, 36.7, 3.95, 3.95, 3.94,-122.75,  -0.22,   0.40, 191.12,  25.93,  27.40,  -1.50,   0.26,  -0.19,  13.91, 3.97, 0.00, 0.00, 0.00, 0.00, 1, 1, 11,  42.6261203, -88.1604760,   255.0, 2023,  9, 30, 16, 17, 47,        0,        0,   0,   0,   1.5,   0.8,   1.2,  0,  0,  0,  0, 32,  0,  0, 21,  0, 33,  0,  0, 37,  0, 33,  0,  0, 40,  0,  0,  0,  0, 25, 32,  0,  0, 33,  0,  8,  0,  0, 40
6, 10885, 2,N0CALL,     0.55, 3,   boost,  117.18,  99224.00,  176.38,   21.57,   63.21, 36.7, 3.95, 3.95, 3.94,-120.51,  -0.30,  -1.92, 187.70,  27.03,  25.69,  -1.50,   0.26,  -0.18,  14.08, 3.97, 0.00, 0.00, 0.00, 0.00, 1, 1, 11,  42.6261203, -88.1604760,   255.0, 2023,  9, 30, 16, 17, 47,        0,        0,   0,   0,   1.5,   0.8,   1.2,  0,  0,  0,  0, 32,  0,  0, 21,  0, 33,  0,  0, 37,  0, 33,  0,  0, 40,  0,  0,  0,  0, 25, 32,  0,  0, 33,  0,  8,  0,  0, 40
