#version,serial,flight,call,time,state,state_name,acceleration,pressure,altitude,height,speed,temperature,drogue_voltage,main_voltage,battery_voltage,accel_x,accel_y,accel_z,gyro_roll,gyro_pitch,gyro_yaw,mag_x,mag_y,mag_z,tilt,pyro,igniter_a,igniter_b,igniter_c,igniter_d,connected,locked,nsat,latitude,longitude,altitude,year,month,day,hour,minute,second,pad_dist,pad_range,pad_az,pad_el,pdop,hdop,vdop,sat01,sat02,sat03,sat04,sat05,sat06,sat07,sat08,sat09,sat10,sat11,sat12,sat13,sat14,sat15,sat16,sat17,sat18,sat19,sat20,sat21,sat22,sat23,sat24,sat25,sat26,sat27,sat28,sat29,sat30,sat31,sat32
6, 10885, 3,N0CALL,    -0.30, 3,   boost,   -0.50,  97900.00,  289.09,    0.43,    0.00, 20.6, 3.87, 3.88, 3.87,  -9.86,  -0.39,   0.11,  -0.31,   0.00,  -0.18,  -1.44,   0.21,   0.05,   0.97, 3.90, 0.00, 0.00, 0.00, 0.00, 1, 1, 10,  37.1659264, -97.7384691,   380.0, 2023, 11, 11, 20, 28, 20,        0,        0,   0,   0,   1.4,   0.8,   1.1,  0,  0, 30, 32,  0,  0, 37,  0, 32,  0,  0,  0,  0,  0,  0, 31,  0,  0,  0,  0,  0,  0,  0,  0,  0, 33, 32, 36, 38,  0, 30,  0
6, 10885, 3,N0CALL,    -0.29, 3,   boost,   -1.01,  97900.00,  289.09,    0.43,    0.00, 20.6, 3.87, 3.88, 3.87,  -9.85,  -0.28,   0.02,  -0.07,   0.00,  -0.18,  -1.44,   0.21,   0.05,   0.97, 3.90, 0.00, 0.00, 0.00, 0.00, 1, 1, 10,  37.1659264, -97.7384691,   380.0, 2023, 11, 11, 20, 28, 20,        0,        0,   0,   0,   1.4,   0.8,   1.1,  0,  0, 30, 32,  0,  0, 37,  0, 32,  0,  0,  0,  0,  0,  0, 31,  0,  0,  0,  0,  0,  0,  0,  0,  0, 33, 32, 36, 38,  0, 30,  0
6, 10885, 3,N0CALL,    -0.28, 3,   boost,   -1.01,  97911.00,  288.15,   -0.51,    0.00, 20.6, 3.87, 3.88, 3.87,  -9.86,  -0.04,  -0.09,  -0.13,  -0.24,  -0.24,  -1.44,   0.21,   0.05,   0.97, 3.90, 0.00, 0.00, 0.00, 0.00, 1, 1, 10,  37.1659264, -97.7384691,   380.0, 2023, 11, 11, 20, 28, 20,        0,        0,   0,   0,   1.4,   0.8,   1.1,  0,  0, 30, 32,  0,  0, 37,  0, 32,  0,  0,  0,  0,  0,  0, 31,  0,  0,  0,  0,  0,  0,  0,  0,  0, 33, 32, 36, 38,  0, 30,  0
6, 10885, 3,N0CALL,    -0.27, 3,   boost,    0.50,  97911.00,  288.15,   -0.51,    0.00, 20.6, 3.87, 3.88, 3.87,  -9.84,  -0.01,  -0.12,  -0.13,  -0.06,  -0.18,  -1.44,   0.21,   0.05,   0.97, 3.90, 0.00, 0.00, 0.00, 0.00, 1, 1, 10,  37.1659264, -97.7384691,   380.0, 2023, 11, 11, 20, 28, 20,        0,        0,   0,   0,   1.4,   0.8,   1.1,  0,  0, 30, 32,  0,  0, 37,  0, 32,  0,  0,  0,  0,  0,  0, 31,  0,  0,  0,  0,  0,  0,  0,  0,  0, 33, 32, 36, 38,  0, 30,  0
6, 10885, 3,N0CALL,    -0.26, 3,   boost,   -0.50,  97904.00,  288.75,    0.09,    0.00, 20.6, 3.87, 3.88, 3.87,  -9.83,  -0.09,   0.01,   0.05,   0.00,  -0.12,  -1.44,   0.21,   0.05,   0.97, 3.90, 0.00, 0.00, 0.00, 0.00, 1, 1, 10,  37.1659264, -97.7384691,   380.0, 2023, 11, 11, 20, 28, 20,        0,        0,   0,   0,   1.4,   0.8,   1.1,  0,  0, 30, 32,  0,  0, 37,  0, 32,  0,  0,  0,  0,  0,  0, 31,  0,  0,  0,  0,  0,  0,  0,  0,  0, 33, 32, 36, 38,  0, 30,  0
6, 10885, 3,N0CALL,    -0.25, 3,   boost,    0.50,  97904.00,  288.75,    0.09,    0.00, 20.6, 3.87, 3.88, 3.87,  -9.83,  -0.10,  -0.01,  -0.07,   0.13,  -0.37,  -1.44,   0.21,   0.05,   0.97, 3.90, 0.00, 0.00, 0.00, 0.00, 1, 1, 10,  37.1659264, -97.7384691,   380.0, 2023, 11, 11, 20, 28, 20,        0,        0,   0,   0,   1.4,   0.8,   1.1,  0,  0, 30, 32,  0,  0, 37,  0, 32,  0,  0,  0,  0,  0,  0, 31,  0,  0,  0,  0,  0,  0,  0,  0,  0, 33, 32, 36, 38,  0, 30,  0
6, 10885, 3,N0CALL,    -0.24, 3,   boost,   -0.50,  97902.00,  288.92,    0.26,    0.00, 20.6, 3.87, 3.88, 3.87,  -9.84,  -0.07,  -0.07,   0.18,   0.25,  -0.37,  -1.44,   0.21,   0.05,   0.97, 3.90, 0.00, 0.00, 0.00, 0.00, 1, 1, 10,  37.1659264, -97.7384691,   380.0, 2023, 11, 11, 20, 28, 20,        0,        0,   0,   0,   1.4,   0.8,   1.1,  0,  0, 30, 32,  0,  0, 37,  0, 32,  0,  0,  0,  0,  0,  0, 31,  0,  0,  0,  0,  0,  0,  0,  0,  0, 33, 32, 36, 38,  0, 30,  0
6, 10885, 3,N0CALL,    -0.23, 3,   boost,    1.01,  97902.00,  288.92,    0.26,    0.00, 20.6, 3.87, 3.88, 3.87,  -9.82,  -0.22,   0.04,   0.11,   0.00,  -0.00,  -1.44,   0.21,   0.05,   0.97, 3.90, 0.00, 0.00, 0.00, 0.00, 1, 1, 10,  37.1659264, -97.7384691,   380.0, 2023, 11, 11, 20, 28, 20,        0,        0,   0,   0,   1.4,   0.8,   1.1,  0,  0, 30, 32,  0,  0, 37,  0, 32,  0,  0,  0,  0,  0,  0, 31,  0,  0,  0,  0,  0,  0,  0,  0,  0, 33, 32, 36, 38,  0, 30,  0
6, 10885, 3,N0CALL,    -0.22, 3,   boost,   -1.01,  97914.00,  287.89,   -0.77,    0.00, 20.6, 3.87, 3.88, 3.87,  -9.84,  -0.33,   0.09,   0.11,   0.00,  -0.24,  -1.44,   0.21,   0.05,   0.97, 3.90, 0.00, 0.00, 0.00, 0.00, 1, 1, 10,  37.1659264, -97.7384691,   380.0, 2023, 11, 11, 20, 28, 20,        0,        0,   0,   0,   1.4,   0.8,   1.1,  0,  0, 30, 32,  0,  0, 37,  0, 32,  0,  0,  0,  0,  0,  0, 31,  0,  0,  0,  0,  0,  0,  0,  0,  0, 33, 32, 36, 38,  0, 30,  0
6, 10885, 3,N0CALL,    -0.21, 3,   boost,   -1.51,  97914.00,  287.89,   -0.77,    0.00, 20.6, 3.87, 3.88, 3.87,  -9.84,  -0.18,   0.08,  -0.07,  -0.30,  -0.18,  -1.44,   0.21,   0.05,   0.97, 3.90, 0.00, 0.00, 0.00, 0.00, 1, 1, 10,  37.1659264, -97.7384691,   380.0, 2023, 11, 11, 20, 28, 20,        0,        0,   0,   0,   1.4,   0.8,   1.1,  0,  0, 30, 32,  0,  0, 37,  0, 32,  0,  0,  0,  0,  0,  0, 31,  0,  0,  0,  0,  0,  0,  0,  0,  0, 33, 32, 36, 38,  0, 30,  0
6, 10885, 3,N0CALL,    -0.20, 3,   boost,    0.50,  97897.00,  289.34,    0.68,    0.00, 20.6, 3.87, 3.88, 3.87,  -9.84,  -0.01,  -0.07,  -0.13,  -0.30,  -0.12,  -1.44,   0.21,   0.05,   0.97, 3.90, 0.00, 0.00, 0.00, 0.00, 1, 1, 10,  37.1659264, -97.7384691,   380.0, 2023, 11, 11, 20, 28, 20,        0,        0,   0,   0,   1.4,   0.8,   1.1,  0,  0, 30, 32,  0,  0, 37,  0, 32,  0,  0,  0,  0,  0,  0, 31,  0,  0,  0,  0,  0,  0,  0,  0,  0, 33, 32, 36, 38,  0, 30,  0
6, 10885, 3,N0CALL,    -0.19, 3,   boost,    0.50,  97897.00,  289.34,    0.68,    0.00, 20.6, 3.87, 3.88, 3.87,  -9.82,   0.05,  -0.10,  -0.19,  -0.36,  -0.31,  -1.44,   0.21,   0.05,   0.97, 3.90, 0.00, 0.00, 0.00, 0.00, 1, 1, 10,  37.1659264, -97.7384691,   380.0, 2023, 11, 11, 20, 28, 20,        0,        0,   0,   0,   1.4,   0.8,   1.1,  0,  0, 30, 32,  0,  0, 37,  0, 32,  0,  0,  0,  0,  0,  0, 31,  0,  0,  0,  0,  0,  0,  0,  0,  0, 33, 32, 36, 38,  0, 30,  0
6, 10885, 3,N0CALL,    -0.18, 3,   boost,   -0.50,  97907.00,  288.49,   -0.17,    0.00, 20.6, 3.87, 3.88, 3.87,  -9.86,  -0.02,  -0.14,   0.24,   0.00,  -0.12,  -1.44,   0.21,   0.05,   0.97, 3.90, 0.00, 0.00, 0.00, 0.00, 1, 1, 10,  37.1659264, -97.7384691,   380.0, 2023, 11, 11, 20, 28, 20,        0,        0,   0,   0,   1.4,   0.8,   1.1,  0,  0, 30, 32,  0,  0, 37,  0, 32,  0,  0,  0,  0,  0,  0, 31,  0,  0,  0,  0,  0,  0,  0,  0,  0, 33, 32, 36, 38,  0, 30,  0
6, 10885, 3,N0CALL,    -0.17, 3,   boost,   -1.01,  97907.00,  288.49,   -0.17,    0.00, 20.6, 3.87, 3.88, 3.87,  -9.82,   0.10,  -0.18,   0.18,  -0.42,  -0.12,  -1.44,   0.21,   0.05,   0.97, 3.90, 0.00, 0.00, 0.00, 0.00, 1, 1, 10,  37.1659264, -97.7384691,   380.0, 2023, 11, 11, 20, 28, 20,        0,        0,   0,   0,   1.4,   0.8,   1.1,  0,  0, 30, 32,  0,  0, 37,  0, 32,  0,  0,  0,  0,  0,  0, 31,  0,  0,  0,  0,  0,  0,  0,  0,  0, 33, 32, 36, 38,  0, 30,  0
6, 10885, 3,N0CALL,    -0.16, 3,   boost,    0.50,  97901.00,  289.00,    0.34,    0.00, 20.6, 3.87, 3.88, 3.87,  -9.84,   0.05,  -0.26,   0.11,  -0.24,   0.06,  -1.44,   0.21,   0.05,   0.97, 3.90, 0.00, 0.00, 0.00, 0.00, 1, 1, 10,  37.1659264, -97.7384691,   380.0, 2023, 11, 11, 20, 28, 20,        0,        0,   0,   0,   1.4,   0.8,   1.1,  0,  0, 30, 32,  0,  0, 37,  0, 32,  0,  0,  0,  0,  0,  0, 31,  0,  0,  0,  0,  0,  0,  0,  0,  0, 33, 32, 36, 38,  0, 30,  0
6, 10885, 3,N0CALL,    -0.15, 3,   boost,   -2.01,  97901.00,  289.00,    0.34,    0.00, 20.6, 3.87, 3.88, 3.87,  -9.85,  -0.20,  -0.17,   0.05,  -0.12,   0.24,  -1.44,   0.21,   0.05,   0.97, 3.90, 0.00, 0.00, 0.00, 0.00, 1, 1, 10,  37.1659264, -97.7384691,   380.0, 2023, 11, 11, 20, 28, 20,        0,        0,   0,   0,   1.4,   0.8,   1.1,  0,  0, 30, 32,  0,  0, 37,  0, 32,  0,  0,  0,  0,  0,  0, 31,  0,  0,  0,  0,  0,  0,  0,  0,  0, 33, 32, 36, 38,  0, 30,  0
6, 10885, 3,N0CALL,    -0.14, 3,   boost,   -1.51,  97909.00,  288.32,   -0.34,    0.00, 20.6, 3.87, 3.88, 3.87,  -9.85,  -0.26,  -0.06,   0.05,  -0.06,   0.43,  -1.44,   0.21,   0.05,   0.97, 3.90, 0.00, 0.00, 0.00, 0.00, 1, 1, 10,  37.1659264, -97.7384691,   380.0, 2023, 11, 11, 20, 28, 20,        0,        0,   0,   0,   1.4,   0.8,   1.1,  0,  0, 30, 32,  0,  0, 37,  0, 32,  0,  0,  0,  0,  0,  0, 31,  0,  0,  0,  0,  0,  0,  0,  0,  0, 33, 32, 36, 38,  0, 30,  0
6, 10885, 3,N0CALL,    -0.13, 3,   boost,    0.50,  97909.00,  288.32,   -0.34,    0.00, 20.6, 3.87, 3.88, 3.87,  -9.85,  -0.24,  -0.11,  -0.01,  -0.18,   0.30,  -1.44,   0.21,   0.05,   0.97, 3.90, 0.00, 0.00, 0.00, 0.00, 1, 1, 10,  37.1659264, -97.7384691,   380.0, 2023, 11, 11, 20, 28, 20,        0,        0,   0,   0,   1.4,   0.8,   1.1,  0,  0, 30, 32,  0,  0, 37,  0, 32,  0,  0,  0,  0,  0,  0, 31,  0,  0,  0,  0,  0,  0,  0,  0,  0, 33, 32, 36, 38,  0, 30,  0
6, 10885, 3,N0CALL,    -0.12, 3,   boost,   -2.01,  97899.00,  289.17,    0.51,    0.00, 20.6, 3.87, 3.88, 3.87,  -9.82,  -0.21,  -0.09,   0.05,  -0.18,   0.18,  -1.44,   0.21,   0.05,   0.97, 3.90, 0.00, 0.00, 0.00, 0.00, 1, 1, 10,  37.1659264, -97.7384691,   380.0, 2023, 11, 11, 20, 28, 20,        0,        0,   0,   0,   1.4,   0.8,   1.1,  0,  0, 30, 32,  0,  0, 37,  0, 32,  0,  0,  0,  0,  0,  0, 31,  0,  0,  0,  0,  0,  0,  0,  0,  0, 33, 32, 36, 38,  0, 30,  0
6, 10885, 3,N0CALL,    -0.11, 3,   boost,   -2.01,  97899.00,  289.17,    0.51,    0.00, 20.6, 3.87, 3.88, 3.87,  -9.85,  -0.29,  -0.08,   0.11,  -0.06,  -0.06,  -1.44,   0.21,   0.05,   0.97, 3.90, 0.00, 0.00, 0.00, 0.00, 1, 1, 10,  37.1659264, -97.7384691,   380.0, 2023, 11, 11, 20, 28, 20,        0,        0,   0,   0,   1.4,   0.8,   1.1,  0,  0, 30, 32,  0,  0, 37,  0, 32,  0,  0,  0,  0,  0,  0, 31,  0,  0,  0,  0,  0,  0,  0,  0,  0, 33, 32, 36, 38,  0, 30,  0
6, 10885, 3,N0CALL,    -0.10, 3,   boost,   -1.51,  97900.00,  289.09,    0.43,    0.00, 20.6, 3.87, 3.88, 3.87,  -9.83,  -0.22,  -0.06,   0.11,  -0.12,   0.12,  -1.44,   0.21,   0.05,   0.97, 3.90, 0.00, 0.00, 0.00, 0.00, 1, 1, 10,  37.1659264, -97.7384691,   380.0, 2023, 11, 11, 20, 28, 20,        0,        0,   0,   0,   1.4,   0.8,   1.1,  0,  0, 30, 32,  0,  0, 37,  0, 32,  0,  0,  0,  0,  0,  0, 31,  0,  0,  0,  0,  0,  0,  0,  0,  0, 33, 32, 36, 38,  0, 30,  0
6, 10885, 3,N0CALL,    -0.09, 3,   boost,    0.50,  97900.00,  289.09,    0.43,    0.00, 20.6, 3.87, 3.88, 3.87,  -9.84,  -0.06,  -0.20,  -0.01,   0.13,   0.12,  -1.44,   0.21,   0.05,   0.97, 3.90, 0.00, 0.00, 0.00, 0.00, 1, 1, 10,  37.1659264, -97.7384691,   380.0, 2023, 11, 11, 20, 28, 20,        0,        0,   0,   0,   1.4,   0.8,   1.1,  0,  0, 30, 32,  0,  0, 37,  0, 32,  0,  0,  0,  0,  0,  0, 31,  0,  0,  0,  0,  0,  0,  0,  0,  0, 33, 32, 36, 38,  0, 30,  0
6, 10885, 3,N0CALL,    -0.08, 3,   boost,    0.50,  97911.00,  288.15,   -0.51,    0.00, 20.6, 3.87, 3.88, 3.87,  -9.80,  -0.19,  -0.13,   0.11,   0.62,   0.12,  -1.44,   0.21,   0.05,   0.97, 3.90, 0.00, 0.00, 0.00, 0.00, 1, 1, 10,  37.1659264, -97.7384691,   380.0, 2023, 11, 11, 20, 28, 20,        0,        0,   0,   0,   1.4,   0.8,   1.1,  0,  0, 30, 32,  0,  0, 37,  0, 32,  0,  0,  0,  0,  0,  0, 31,  0,  0,  0,  0,  0,  0,  0,  0,  0, 33, 32, 36, 38,  0, 30,  0
6, 10885, 3,N0CALL,    -0.07, 3,   boost,   -0.50,  97911.00,  288.15,   -0.51,    0.00, 20.6, 3.87, 3.88, 3.87,  -9.86,  -0.30,  -0.08,  -0.13,  -0.12,  -0.12,  -1.44,   0.21,   0.05,   0.97, 3.90, 0.00, 0.00, 0.00, 0.00, 1, 1, 10,  37.1659264, -97.7384691,   380.0, 2023, 11, 11, 20, 28, 20,        0,        0,   0,   0,   1.4,   0.8,   1.1,  0,  0, 30, 32,  0,  0, 37,  0, 32,  0,  0,  0,  0,  0,  0, 31,  0,  0,  0,  0,  0,  0,  0,  0,  0, 33, 32, 36, 38,  0, 30,  0
6, 10885, 3,N0CALL,    -0.06, 3,   boost,    0.50,  97908.00,  288.40,   -0.26,    0.00, 20.6, 3.87, 3.88, 3.87,  -9.85,  -0.30,  -0.11,  -0.19,   0.13,  -0.06,  -1.44,   0.21,   0.05,   0.97, 3.90, 0.00, 0.00, 0.00, 0.00, 1, 1, 10,  37.1659264, -97.7384691,   380.0, 2023, 11, 11, 20, 28, 20,        0,        0,   0,   0,   1.4,   0.8,   1.1,  0,  0, 30, 32,  0,  0, 37,  0, 32,  0,  0,  0,  0,  0,  0, 31,  0,  0,  0,  0,  0,  0,  0,  0,  0, 33, 32, 36, 38,  0, 30,  0
6, 10885, 3,N0CALL,    -0.05, 3,   boost,   -0.50,  97908.00,  288.40,   -0.26,    0.02, 20.6, 3.87, 3.88, 3.87,  -9.79,  -0.30,  -0.06,   0.11,   0.25,   0.12,  -1.44,   0.21,   0.05,   0.97, 3.90, 0.00, 0.00, 0.00, 0.00, 1, 1, 10,  37.1659264, -97.7384691,   380.0, 2023, 11, 11, 20, 28, 20,        0,        0,   0,   0,   1.4,   0.8,   1.1,  0,  0, 30, 32,  0,  0, 37,  0, 32,  0,  0,  0,  0,  0,  0, 31,  0,  0,  0,  0,  0,  0,  0,  0,  0, 33, 32, 36, 38,  0, 30,  0
6, 10885, 3,N0CALL,    -0.04, 3,   boost,    0.50,  97904.00,  288.75,    0.09,    0.13, 20.6, 3.87, 3.88, 3.87,  -9.89,  -0.32,   0.14,   0.05,   0.19,  -0.12,  -1.44,   0.21,   0.05,   0.97, 3.90, 0.00, 0.00, 0.00, 0.00, 1, 1, 10,  37.1659264, -97.7384691,   380.0, 2023, 11, 11, 20, 28, 20,        0,        0,   0,   0,   1.4,   0.8,   1.1,  0,  0, 30, 32,  0,  0, 37,  0, 32,  0,  0,  0,  0,  0,  0, 31,  0,  0,  0,  0,  0,  0,  0,  0,  0, 33, 32, 36, 38,  0, 30,  0
6, 10885, 3,N0CALL,    -0.03, 3,   boost,    0.50,  97904.00,  288.75,    0.09,    0.47, 20.6, 3.87, 3.88, 3.87,  -9.88,  -0.29,   0.12,  -0.19,   0.07,  -0.61,  -1.44,   0.21,   0.05,   0.97, 3.90, 0.00, 0.00, 0.00, 0.00, 1, 1, 10,  37.1659264, -97.7384691,   380.0, 2023, 11, 11, 20, 28, 20,        0,        0,   0,   0,   1.4,   0.8,   1.1,  0,  0, 30, 32,  0,  0, 37,  0, 32,  0,  0,  0,  0,  0,  0, 31,  0,  0,  0,  0,  0,  0,  0,  0,  0, 33, 32, 36, 38,  0, 30,  0
6, 10885, 3,N0CALL,    -0.02, 3,   boost,    0.50,  97906.00,  288.57,   -0.09,    1.22, 20.6, 3.87, 3.88, 3.87,  -9.88,  -0.04,  -0.06,   0.91,  -0.06,  -0.18,  -1.44,   0.21,   0.05,   0.97, 3.90, 0.00, 0.00, 0.00, 0.00, 1, 1, 10,  37.1659264, -97.7384691,   380.0, 2023, 11, 11, 20, 28, 20,        0,        0,   0,   0,   1.4,   0.8,   1.1,  0,  0, 30, 32,  0,  0, 37,  0, 32,  0,  0,  0,  0,  0,  0, 31,  0,  0,  0,  0,  0,  0,  0,  0,  0, 33, 32, 36, 38,  0, 30,  0
6, 10885, 3,N0CALL,    -0.01, 3,   boost,  217.26,  97906.00,  288.57,   -0.09,    2.54, 20.6, 3.87, 3.88, 3.87, -12.72,   0.05,  -0.08,  -0.01,  -0.06,  -0.55,  -1.44,   0.21,   0.05,   0.97, 3.90, 0.00, 0.00, 0.00, 0.00, 1, 1, 10,  37.1659264, -97.7384691,   380.0, 2023, 11, 11, 20, 28, 20,        0,        0,   0,   0,   1.4,   0.8,   1.1,  0,  0, 30, 32,  0,  0, 37,  0, 32,  0,  0,  0,  0,  0,  0, 31,  0,  0,  0,  0,  0,  0,  0,  0,  0, 33, 32, 36, 38,  0, 30,  0
6, 10885, 3,N0CALL,     0.00, 3,   boost,  268.55,  97913.00,  287.98,   -0.68,    4.50, 20.6, 3.87, 3.88, 3.87,-214.78,  -9.87,   7.88,  -8.19,   1.71,   0.79,  -1.44,   0.21,   0.05,   0.97, 3.90, 0.00, 0.00, 0.00, 0.00, 1, 1, 10,  37.1659264, -97.7384691,   380.0, 2023, 11, 11, 20, 28, 20,        0,        0,   0,   0,   1.4,   0.8,   1.1,  0,  0, 30, 32,  0,  0, 37,  0, 32,  0,  0,  0,  0,  0,  0, 31,  0,  0,  0,  0,  0,  0,  0,  0,  0, 33, 32, 36, 38,  0, 30,  0
6, 10885, 3,N0CALL,     0.00, 3,   boost,  268.55,  97913.00,  287.98,   -0.68,    4.50, 20.6, 3.87, 3.88, 3.87,-214.78,  -9.87,   7.88,  -8.19,   1.71,   0.79,  -1.44,   0.21,   0.05,   0.97, 3.90, 0.00, 0.00, 0.00, 0.00, 1, 1, 10,  37.1659264, -97.7384691,   380.0, 2023, 11, 11, 20, 28, 20,        0,        0,   0,   0,   1.4,   0.8,   1.1,  0,  0, 30, 32,  0,  0, 37,  0, 32,  0,  0,  0,  0,  0,  0, 31,  0,  0,  0,  0,  0,  0,  0,  0,  0, 33, 32, 36, 38,  0, 30,  0
6, 10885, 3,N0CALL,     0.00, 3,   boost,  268.55,  97913.00,  287.98,   -0.68,    4.50, 20.6, 3.87, 3.88, 3.87,-214.78,  -9.87,   7.88,  -8.19,   1.71,   0.79,  -1.44,   0.21,   0.05,   0.97, 3.90, 0.00, 0.00, 0.00, 0.00, 1, 1, 10,  37.1659264, -97.7384691,   380.0, 2023, 11, 11, 20, 28, 20,        0,        0,   0,   0,   1.4,   0.8,   1.1,  0,  0, 30, 32,  0,  0, 37,  0, 32,  0,  0,  0,  0,  0,  0, 31,  0,  0,  0,  0,  0,  0,  0,  0,  0, 33, 32, 36, 38,  0, 30,  0
6, 10885, 3,N0CALL,     0.00, 3,   boost,  268.55,  97913.00,  287.98,   -0.68,    4.50, 20.6, 3.87, 3.88, 3.87,-214.78,  -9.87,   7.88,  -8.19,   1.71,   0.79,  -1.44,   0.21,   0.05,   0.97, 3.90, 0.00, 0.00, 0.00, 0.00, 1, 1, 10,  37.1659264, -97.7384691,   380.0, 2023, 11, 11, 20, 28, 20,        0,        0,   0,   0,   1.4,   0.8,   1.1,  0,  0, 30, 32,  0,  0, 37,  0, 32,  0,  0,  0,  0,  0,  0, 31,  0,  0,  0,  0,  0,  0,  0,  0,  0, 33, 32, 36, 38,  0, 30,  0
6, 10885, 3,N0CALL,     0.00, 3,   boost,  268.55,  97913.00,  287.98,   -0.68,    4.50, 20.6, 3.87, 3.88, 3.87,-214.78,  -9.87,   7.88,  -8.19,   1.71,   0.79,  -1.44,   0.21,   0.05,   0.97, 3.90, 0.00, 0.00, 0.00, 0.00, 1, 1, 10,  37.1659264, -97.7384691,   380.0, 2023, 11, 11, 20, 28, 20,        0,        0,   0,   0,   1.4,   0.8,   1.1,  0,  0, 30, 32,  0,  0, 37,  0, 32,  0,  0,  0,  0,  0,  0, 31,  0,  0,  0,  0,  0,  0,  0,  0,  0, 33, 32, 36, 38,  0, 30,  0
6, 10885, 3,N0CALL,     0.00, 3,   boost,  268.55,  97913.00,  287.98,   -0.68,    4.50, 20.6, 3.87, 3.88, 3.87,-214.78,  -9.87,   7.88,  -8.19,   1.71,   0.79,  -1.44,   0.21,   0.05,   0.97, 3.90, 0.00, 0.00, 0.00, 0.00, 1, 1, 10,  37.1659264, -97.7384691,   380.0, 2023, 11, 11, 20, 28, 20,        0,        0,   0,   0,   1.4,   0.8,   1.1,  0,  0, 30, 32,  0,  0, 37,  0, 32,  0,  0,  0,  0,  0,  0, 31,  0,  0,  0,  0,  0,  0,  0,  0,  0, 33, 32, 36, 38,  0, 30,  0
6, 10885, 3,N0CALL,     0.00, 3,   boost,  268.55,  97913.00,  287.98,   -0.68,    4.50, 20.6, 3.87, 3.88, 3.87,-214.78,  -9.87,   7.88,  -8.19,   1.71,   0.79,  -1.44,   0.21,   0.05,   0.97, 3.90, 0.00, 0.00, 0.00, 0.00, 1, 1, 10,  37.1659264, -97.7384691,   380.0, 2023, 11, 11, 20, 28, 20,        0,        0,   0,   0,   1.4,   0.8,   1.1,  0,  0, 30, 32,  0,  0, 37,  0, 32,  0,  0,  0,  0,  0,  0, 31,  0,  0,  0,  0,  0,  0,  0,  0,  0, 33, 32, 36, 38,  0, 30,  0
6, 10885, 3,N0CALL,     0.00, 3,   boost,  268.55,  97913.00,  287.98,   -0.68,    4.50, 20.6, 3.87, 3.88, 3.87,-214.78,  -9.87,   7.88,  -8.19,   1.71,   0.79,  -1.44,   0.21,   0.05,   0.97, 3.90, 0.00, 0.00, 0.00, 0.00, 1, 1, 10,  37.1659264, -97.7384691,   380.0, 2023, 11, 11, 20, 28, 20,        0,        0,   0,   0,   1.4,   0.8,   1.1,  0,  0, 30, 32,  0,  0, 37,  0, 32,  0,  0,  0,  0,  0,  0, 31,  0,  0,  0,  0,  0,  0,  0,  0,  0, 33, 32, 36, 38,  0, 30,  0
6, 10885, 3,N0CALL,     0.00, 3,   boost,  268.55,  97913.00,  287.98,   -0.68,    4.50, 20.6, 3.87, 3.88, 3.87,-214.78,  -9.87,   7.88,  -8.19,   1.71,   0.79,  -1.44,   0.21,   0.05,   0.97, 3.90, 0.00, 0.00, 0.00, 0.00, 1, 1, 10,  37.1659264, -97.7384691,   380.0, 2023, 11, 11, 20, 28, 20,        0,        0,   0,   0,   1.4,   0.8,   1.1,  0,  0, 30, 32,  0,  0, 37,  0, 32,  0,  0,  0,  0,  0,  0, 31,  0,  0,  0,  0,  0,  0,  0,  0,  0, 33, 32, 36, 38,  0, 30,  0
6, 10885, 3,N0CALL,     0.00, 3,   boost,  268.55,  97913.00,  287.98,   -0.68,    4.50, 20.6, 3.87, 3.88, 3.87,-214.78,  -9.87,   7.88,  -8.19,   1.71,   0.79,  -1.44,   0.21,   0.05,   0.97, 3.90, 0.00, 0.00, 0.00, 0.00, 1, 1, 10,  37.1659264, -97.7384691,   380.0, 2023, 11, 11, 20, 28, 20,        0,        0,   0,   0,   1.4,   0.8,   1.1,  0,  0, 30, 32,  0,  0, 37,  0, 32,  0,  0,  0,  0,  0,  0, 31,  0,  0,  0,  0,  0,  0,  0,  0,  0, 33, 32, 36, 38,  0, 30,  0
6, 10885, 3,N0CALL,     0.00, 3,   boost,  268.55,  97913.00,  287.98,   -0.68,    4.50, 20.6, 3.87, 3.88, 3.87,-214.78,  -9.87,   7.88,  -8.19,   1.71,   0.79,  -1.44,   0.21,   0.05,   0.97, 3.90, 0.00, 0.00, 0.00, 0.00, 1, 1, 10,  37.1659264, -97.7384691,   380.0, 2023, 11, 11, 20, 28, 20,        0,        0,   0,   0,   1.4,   0.8,   1.1,  0,  0, 30, 32,  0,  0, 37,  0, 32,  0,  0,  0,  0,  0,  0, 31,  0,  0,  0,  0,  0,  0,  0,  0,  0, 33, 32, 36, 38,  0, 30,  0
6, 10885, 3,N0CALL,     0.00, 3,   boost,  268.55,  97913.00,  287.98,   -0.68,    4.50, 20.6, 3.87, 3.88, 3.87,-214.78,  -9.87,   7.88,  -8.19,   1.71,   0.79,  -1.44,   0.21,   0.05,   0.96, 3.90, 0.00, 0.00, 0.00, 0.00, 1, 1, 10,  37.1659264, -97.7384691,   380.0, 2023, 11, 11, 20, 28, 20,        0,        0,   0,   0,   1.4,   0.8,   1.1,  0,  0, 30, 32,  0,  0, 37,  0, 32,  0,  0,  0,  0,  0,  0, 31,  0,  0,  0,  0,  0,  0,  0,  0,  0, 33, 32, 36, 38,  0, 30,  0
6, 10885, 3,N0CALL,     0.00, 3,   boost,  268.55,  97913.00,  287.98,   -0.68,    4.50, 20.6, 3.87, 3.88, 3.87,-214.78,  -9.87,   7.88,  -8.19,   1.71,   0.79,  -1.44,   0.21,   0.05,   0.96, 3.90, 0.00, 0.00, 0.00, 0.00, 1, 1, 10,  37.1659264, -97.7384691,   380.0, 2023, 11, 11, 20, 28, 20,        0,        0,   0,   0,   1.4,   0.8,   1.1,  0,  0, 30, 32,  0,  0, 37,  0, 32,  0,  0,  0,  0,  0,  0, 31,  0,  0,  0,  0,  0,  0,  0,  0,  0, 33, 32, 36, 38,  0, 30,  0
6, 10885, 3,N0CALL,     0.00, 3,   boost,  268.55,  97913.00,  287.98,   -0.68,    4.50, 20.6, 3.87, 3.88, 3.87,-214.78,  -9.87,   7.88,  -8.19,   1.71,   0.79,  -1.44,   0.21,   0.05,   0.96, 3.90, 0.00, 0.00, 0.00, 0.00, 1, 1, 10,  37.1659264, -97.7384691,   380.0, 2023, 11, 11, 20, 28, 20,        0,        0,   0,   0,   1.4,   0.8,   1.1,  0,  0, 30, 32,  0,  0, 37,  0, 32,  0,  0,  0,  0,  0,  0, 31,  0,  0,  0,  0,  0,  0,  0,  0,  0, 33, 32, 36, 38,  0, 30,  0
6, 10885, 3,N0CALL,     0.00, 3,   boost,  268.55,  97913.00,  287.98,   -0.68,    4.50, 20.6, 3.87, 3.88, 3.87,-214.78,  -9.87,   7.88,  -8.19,   1.71,   0.79,  -1.44,   0.21,   0.05,   0.96, 3.90, 0.00, 0.00, 0.00, 0.00, 1, 1, 10,  37.1659264, -97.7384691,   380.0, 2023, 11, 11, 20, 28, 20,        0,        0,   0,   0,   1.4,   0.8,   1.1,  0,  0, 30, 32,  0,  0, 37,  0, 32,  0,  0,  0,  0,  0,  0, 31,  0,  0,  0,  0,  0,  0,  0,  0,  0, 33, 32, 36, 38,  0, 30,  0
6, 10885, 3,N0CALL,     0.00, 3,   boost,  268.55,  97913.00,  287.98,   -0.68,    4.50, 20.6, 3.87, 3.88, 3.87,-214.78,  -9.87,   7.88,  -8.19,   1.71,   0.79,  -1.44,   0.21,   0.05,   0.96, 3.90, 0.00, 0.00, 0.00, 0.00, 1, 1, 10,  37.1659264, -97.7384691,   380.0, 2023, 11, 11, 20, 28, 20,        0,        0,   0,   0,   1.4,   0.8,   1.1,  0,  0, 30, 32,  0,  0, 37,  0, 32,  0,  0,  0,  0,  0,  0, 31,  0,  0,  0,  0,  0,  0,  0,  0,  0, 33, 32, 36, 38,  0, 30,  0
6, 10885, 3,N0CALL,     0.00, 3,   boost,  268.55,  97913.00,  287.98,   -0.68,    4.50, 20.6, 3.87, 3.88, 3.87,-214.78,  -9.87,   7.88,  -8.19,   1.71,   0.79,  -1.44,   0.21,   0.05,   0.96, 3.90, 0.00, 0.00, 0.00, 0.00, 1, 1, 10,  37.1659264, -97.7384691,   380.0, 2023, 11, 11, 20, 28, 20,        0,        0,   0,   0,   1.4,   0.8,   1.1,  0,  0, 30, 32,  0,  0, 37,  0, 32,  0,  0,  0,  0,  0,  0, 31,  0,  0,  0,  0,  0,  0,  0,  0,  0, 33, 32, 36, 38,  0, 30,  0
6, 10885, 3,N0CALL,     0.00, 3,   boost,  268.55,  97913.00,  287.98,   -0.68,    4.50, 20.6, 3.87, 3.88, 3.87,-214.78,  -9.87,   7.88,  -8.19,   1.71,   0.79,  -1.44,   0.21,   0.05,   0.96, 3.90, 0.00, 0.00, 0.00, 0.00, 1, 1, 10,  37.1659264, -97.7384691,   380.0, 2023, 11, 11, 20, 28, 20,        0,        0,   0,   0,   1.4,   0.8,   1.1,  0,  0, 30, 32,  0,  0, 37,  0, 32,  0,  0,  0,  0,  0,  0, 31,  0,  0,  0,  0,  0,  0,  0,  0,  0, 33, 32, 36, 38,  0, 30,  0
6, 10885, 3,N0CALL,     0.00, 3,   boost,  268.55,  97913.00,  287.98,   -0.68,    4.50, 20.6, 3.87, 3.88, 3.87,-214.78,  -9.87,   7.88,  -8.19,   1.71,   0.79,  -1.44,   0.21,   0.05,   0.95, 3.90, 0.00, 0.00, 0.00, 0.00, 1, 1, 10,  37.1659264, -97.7384691,   380.0, 2023, 11, 11, 20, 28, 20,        0,        0,   0,   0,   1.4,   0.8,   1.1,  0,  0, 30, 32,  0,  0, 37,  0, 32,  0,  0,  0,  0,  0,  0, 31,  0,  0,  0,  0,  0,  0,  0,  0,  0, 33, 32, 36, 38,  0, 30,  0
6, 10885, 3,N0CALL,     0.00, 3,   boost,  268.55,  97913.00,  287.98,   -0.68,    4.50, 20.6, 3.87, 3.88, 3.87,-214.78,  -9.87,   7.88,  -8.19,   1.71,   0.79,  -1.44,   0.21,   0.05,   0.96, 3.90, 0.00, 0.00, 0.00, 0.00, 1, 1, 10,  37.1659264, -97.7384691,   380.0, 2023, 11, 11, 20, 28, 20,        0,        0,   0,   0,   1.4,   0.8,   1.1,  0,  0, 30, 32,  0,  0, 37,  0, 32,  0,  0,  0,  0,  0,  0, 31,  0,  0,  0,  0,  0,  0,  0,  0,  0, 33, 32, 36, 38,  0, 30,  0
6, 10885, 3,N0CALL,     0.00, 3,   boost,  268.55,  97913.00,  287.98,   -0.68,    4.50, 20.6, 3.87, 3.88, 3.87,-214.78,  -9.87,   7.88,  -8.19,   1.71,   0.79,  -1.44,   0.21,   0.05,   0.96, 3.90, 0.00, 0.00, 0.00, 0.00, 1, 1, 10,  37.1659264, -97.7384691,   380.0, 2023, 11, 11, 20, 28, 20,        0,        0,   0,   0,   1.4,   0.8,   1.1,  0,  0, 30, 32,  0,  0, 37,  0, 32,  0,  0,  0,  0,  0,  0, 31,  0,  0,  0,  0,  0,  0,  0,  0,  0, 33, 32, 36, 38,  0, 30,  0
6, 10885, 3,N0CALL,     0.00, 3,   boost,  268.55,  97913.00,  287.98,   -0.68,    4.50, 20.6, 3.87, 3.88, 3.87,-214.78,  -9.87,   7.88,  -8.19,   1.71,   0.79,  -1.44,   0.21,   0.05,   0.96, 3.90, 0.00, 0.00, 0.00, 0.00, 1, 1, 10,  37.1659264, -97.7384691,   380.0, 2023, 11, 11, 20, 28, 20,        0,        0,   0,   0,   1.4,   0.8,   1.1,  0,  0, 30, 32,  0,  0, 37,  0, 32,  0,  0,  0,  0,  0,  0, 31,  0,  0,  0,  0,  0,  0,  0,  0,  0, 33, 32, 36, 38,  0, 30,  0
6, 10885, 3,N0CALL,     0.00, 3,   boost,  268.55,  97913.00,  287.98,   -0.68,    4.50, 20.6, 3.87, 3.88, 3.87,-214.78,  -9.87,   7.88,  -8.19,   1.71,   0.79,  -1.44,   0.21,   0.05,   0.96, 3.90, 0.00, 0.00, 0.00, 0.00, 1, 1, 10,  37.1659264, -97.7384691,   380.0, 2023, 11, 11, 20, 28, 20,        0,        0,   0,   0,   1.4,   0.8,   1.1,  0,  0, 30, 32,  0,  0, 37,  0, 32,  0,  0,  0,  0,  0,  0, 31,  0,  0,  0,  0,  0,  0,  0,  0,  0, 33, 32, 36, 38,  0, 30,  0
6, 10885, 3,N0CALL,     0.00, 3,   boost,  268.55,  97913.00,  287.98,   -0.68,    4.50, 20.6, 3.87, 3.88, 3.87,-214.78,  -9.87,   7.88,  -8.19,   1.71,   0.79,  -1.44,   0.21,   0.05,   0.97, 3.90, 0.00, 0.00, 0.00, 0.00, 1, 1, 10,  37.1659264, -97.7384691,   380.0, 2023, 11, 11, 20, 28, 20,        0,        0,   0,   0,   1.4,   0.8,   1.1,  0,  0, 30, 32,  0,  0, 37,  0, 32,  0,  0,  0,  0,  0,  0, 31,  0,  0,  0,  0,  0,  0,  0,  0,  0, 33, 32, 36, 38,  0, 30,  0
6, 10885, 3,N0CALL,     0.00, 3,   boost,  268.55,  97913.00,  287.98,   -0.68,    4.50, 20.6, 3.87, 3.88, 3.87,-214.78,  -9.87,   7.88,  -8.19,   1.71,   0.79,  -1.44,   0.21,   0.05,   0.97, 3.90, 0.00, 0.00, 0.00, 0.00, 1, 1, 10,  37.1659264, -97.7384691,   380.0, 2023, 11, 11, 20, 28, 20,        0,        0,   0,   0,   1.4,   0.8,   1.1,  0,  0, 30, 32,  0,  0, 37,  0, 32,  0,  0,  0,  0,  0,  0, 31,  0,  0,  0,  0,  0,  0,  0,  0,  0, 33, 32, 36, 38,  0, 30,  0
6, 10885, 3,N0CALL,     0.00, 3,   boost,  268.55,  97913.00,  287.98,   -0.68,    4.50, 20.6, 3.87, 3.88, 3.87,-214.78,  -9.87,   7.88,  -8.19,   1.71,   0.79,  -1.44,   0.21,   0.05,   0.97, 3.90, 0.00, 0.00, 0.00, 0.00, 1, 1, 10,  37.1659264, -97.7384691,   380.0, 2023, 11, 11, 20, 28, 20,        0,        0,   0,   0,   1.4,   0.8,   1.1,  0,  0, 30, 32,  0,  0, 37,  0, 32,  0,  0,  0,  0,  0,  0, 31,  0,  0,  0,  0,  0,  0,  0,  0,  0, 33, 32, 36, 38,  0, 30,  0
6, 10885, 3,N0CALL,     0.00, 3,   boost,  268.55,  97913.00,  287.98,   -0.68,    4.50, 20.6, 3.87, 3.88, 3.87,-214.78,  -9.87,   7.88,  -8.19,   1.71,   0.79,  -1.44,   0.21,   0.05,   0.97, 3.90, 0.00, 0.00, 0.00, 0.00, 1, 1, 10,  37.1659264, -97.7384691,   380.0, 2023, 11, 11, 20, 28, 20,        0,        0,   0,   0,   1.4,   0.8,   1.1,  0,  0, 30, 32,  0,  0, 37,  0, 32,  0,  0,  0,  0,  0,  0, 31,  0,  0,  0,  0,  0,  0,  0,  0,  0, 33, 32, 36, 38,  0, 30,  0
6, 10885, 3,N0CALL,     0.00, 3,   boost,  268.55,  97913.00,  287.98,   -0.68,    4.50, 20.6, 3.87, 3.88, 3.87,-214.78,  -9.87,   7.88,  -8.19,   1.71,   0.79,  -1.44,   0.21,   0.05,   0.97, 3.90, 0.00, 0.00, 0.00, 0.00, 1, 1, 10,  37.1659264, -97.7384691,   380.0, 2023, 11, 11, 20, 28, 20,        0,        0,   0,   0,   1.4,   0.8,   1.1,  0,  0, 30, 32,  0,  0, 37,  0, 32,  0,  0,  0,  0,  0,  0, 31,  0,  0,  0,  0,  0,  0,  0,  0,  0, 33, 32, 36, 38,  0, 30,  0
6, 10885, 3,N0CALL,     0.00, 3,   boost,  268.55,  97913.00,  287.98,   -0.68,    4.50, 20.6, 3.87, 3.88, 3.87,-214.78,  -9.87,   7.88,  -8.19,   1.71,   0.79,  -1.44,   0.21,   0.05,   0.97, 3.90, 0.00, 0.00, 0.00, 0.00, 1, 1, 10,  37.1659264, -97.7384691,   380.0, 2023, 11, 11, 20, 28, 20,        0,        0,   0,   0,   1.4,   0.8,   1.1,  0,  0, 30, 32,  0,  0, 37,  0, 32,  0,  0,  0,  0,  0,  0, 31,  0,  0,  0,  0,  0,  0,  0,  0,  0, 33, 32, 36, 38,  0, 30,  0
6, 10885, 3,N0CALL,     0.00, 3,   boost,  268.55,  97913.00,  287.98,   -0.68,    4.50, 20.6, 3.87, 3.88, 3.87,-214.78,  -9.87,   7.88,  -8.19,   1.71,   0.79,  -1.44,   0.21,   0.05,   0.97, 3.90, 0.00, 0.00, 0.00, 0.00, 1, 1, 10,  37.1659264, -97.7384691,   380.0, 2023, 11, 11, 20, 28, 20,        0,        0,   0,   0,   1.4,   0.8,   1.1,  0,  0, 30, 32,  0,  0, 37,  0, 32,  0,  0,  0,  0,  0,  0, 31,  0,  0,  0,  0,  0,  0,  0,  0,  0, 33, 32, 36, 38,  0, 30,  0
6, 10885, 3,N0CALL,     0.00, 3,   boost,  268.55,  97913.00,  287.98,   -0.68,    4.50, 20.6, 3.87, 3.88, 3.87,-214.78,  -9.87,   7.88,  -8.19,   1.71,   0.79,  -1.44,   0.21,   0.05,   0.97, 3.90, 0.00, 0.00, 0.00, 0.00, 1, 1, 10,  37.1659264, -97.7384691,   380.0, 2023, 11, 11, 20, 28, 20,        0,        0,   0,   0,   1.4,   0.8,   1.1,  0,  0, 30, 32,  0,  0, 37,  0, 32,  0,  0,  0,  0,  0,  0, 31,  0,  0,  0,  0,  0,  0,  0,  0,  0, 33, 32, 36, 38,  0, 30,  0
6, 10885, 3,N0CALL,     0.00, 3,   boost,  268.55,  97913.00,  287.98,   -0.68,    4.50, 20.6, 3.87, 3.88, 3.87,-214.78,  -9.87,   7.88,  -8.19,   1.71,   0.79,  -1.44,   0.21,   0.05,   0.97, 3.90, 0.00, 0.00, 0.00, 0.00, 1, 1, 10,  37.1659264, -97.7384691,   380.0, 2023, 11, 11, 20, 28, 20,        0,        0,   0,   0,   1.4,   0.8,   1.1,  0,  0, 30, 32,  0,  0, 37,  0, 32,  0,  0,  0,  0,  0,  0, 31,  0,  0,  0,  0,  0,  0,  0,  0,  0, 33, 32, 36, 38,  0, 30,  0
6, 10885, 3,N0CALL,     0.00, 3,   boost,  268.55,  97913.00,  287.98,   -0.68,    4.50, 20.6, 3.87, 3.88, 3.87,-214.78,  -9.87,   7.88,  -8.19,   1.71,   0.79,  -1.44,   0.21,   0.05,   0.97, 3.90, 0.00, 0.00, 0.00, 0.00, 1, 1, 10,  37.1659264, -97.7384691,   380.0, 2023, 11, 11, 20, 28, 20,        0,        0,   0,   0,   1.4,   0.8,   1.1,  0,  0, 30, 32,  0,  0, 37,  0, 32,  0,  0,  0,  0,  0,  0, 31,  0,  0,  0,  0,  0,  0,  0,  0,  0, 33, 32, 36, 38,  0, 30,  0
6, 10885, 3,N0CALL,     0.00, 3,   boost,  268.55,  97913.00,  287.98,   -0.68,    4.50, 20.6, 3.87, 3.88, 3.87,-214.78,  -9.87,   7.88,  -8.19,   1.71,   0.79,  -1.44,   0.21,   0.05,   0.96, 3.90, 0.00, 0.00, 0.00, 0.00, 1, 1, 10,  37.1659264, -97.7384691,   380.0, 2023, 11, 11, 20, 28, 20,        0,        0,   0,   0,   1.4,   0.8,   1.1,  0,  0, 30, 32,  0,  0, 37,  0, 32,  0,  0,  0,  0,  0,  0, 31,  0,  0,  0,  0,  0,  0,  0,  0,  0, 33, 32, 36, 38,  0, 30,  0
6, 10885, 3,N0CALL,     0.00, 3,   boost,  268.55,  97913.00,  287.98,   -0.68,    4.50, 20.6, 3.87, 3.88, 3.87,-214.78,  -9.87,   7.88,  -8.19,   1.71,   0.79,  -1.44,   0.21,   0.05,   0.96, 3.90, 0.00, 0.00, 0.00, 0.00, 1, 1, 10,  37.1659264, -97.7384691,   380.0, 2023, 11, 11, 20, 28, 20,        0,        0,   0,   0,   1.4,   0.8,   1.1,  0,  0, 30, 32,  0,  0, 37,  0, 32,  0,  0,  0,  0,  0,  0, 31,  0,  0,  0,  0,  0,  0,  0,  0,  0, 33, 32, 36, 38,  0, 30,  0
6, 10885, 3,N0CALL,     0.00, 3,   boost,  268.55,  97913.00,  287.98,   -0.68,    4.50, 20.6, 3.87, 3.88, 3.87,-214.78,  -9.87,   7.88,  -8.19,   1.71,   0.79,  -1.44,   0.21,   0.05,   0.95, 3.90, 0.00, 0.00, 0.00, 0.00, 1, 1, 10,  37.1659264, -97.7384691,   380.0, 2023, 11, 11, 20, 28, 20,        0,        0,   0,   0,   1.4,   0.8,   1.1,  0,  0, 30, 32,  0,  0, 37,  0, 32,  0,  0,  0,  0,  0,  0, 31,  0,  0,  0,  0,  0,  0,  0,  0,  0, 33, 32, 36, 38,  0, 30,  0
6, 10885, 3,N0CALL,     0.00, 3,   boost,  268.55,  97913.00,  287.98,   -0.68,    4.50, 20.6, 3.87, 3.88, 3.87,-214.78,  -9.87,   7.88,  -8.19,   1.71,   0.79,  -1.44,   0.21,   0.05,   0.95, 3.90, 0.00, 0.00, 0.00, 0.00, 1, 1, 10,  37.1659264, -97.7384691,   380.0, 2023, 11, 11, 20, 28, 20,        0,        0,   0,   0,   1.4,   0.8,   1.1,  0,  0, 30, 32,  0,  0, 37,  0, 32,  0,  0,  0,  0,  0,  0, 31,  0,  0,  0,  0,  0,  0,  0,  0,  0, 33, 32, 36, 38,  0, 30,  0
6, 10885, 3,N0CALL,     0.01, 3,   boost,  323.87,  97913.00,  287.98,   -0.68,    7.06, 20.6, 3.87, 3.88, 3.87,-227.82,   3.66, -11.19, -18.62,  -7.56,  -6.17,  -1.44,   0.21,   0.05,   0.94, 3.90, 0.00, 0.00, 0.00, 0.00, 1, 1, 10,  37.1659264, -97.7384691,   380.0, 2023, 11, 11, 20, 28, 20,        0,        0,   0,   0,   1.4,   0.8,   1.1,  0,  0, 30, 32,  0,  0, 37,  0, 32,  0,  0,  0,  0,  0,  0, 31,  0,  0,  0,  0,  0,  0,  0,  0,  0, 33, 32, 36, 38,  0, 30,  0
6, 10885, 3,N0CALL,     0.01, 3,   boost,  323.87,  97913.00,  287.98,   -0.68,    7.06, 20.6, 3.87, 3.88, 3.87,-227.82,   3.66, -11.19, -18.62,  -7.56,  -6.17,  -1.44,   0.21,   0.05,   0.94, 3.90, 0.00, 0.00, 0.00, 0.00, 1, 1, 10,  37.1659264, -97.7384691,   380.0, 2023, 11, 11, 20, 28, 20,        0,        0,   0,   0,   1.4,   0.8,   1.1,  0,  0, 30, 32,  0,  0, 37,  0, 32,  0,  0,  0,  0,  0,  0, 31,  0,  0,  0,  0,  0,  0,  0,  0,  0, 33, 32, 36, 38,  0, 30,  0
6, 10885, 3,N0CALL,     0.02, 3,   boost,  357.06,  97914.00,  287.89,   -0.77,   10.05, 20.6, 3.87, 3.88, 3.88,-235.42, -17.57,  -1.30,  19.34,  10.87,   4.76,  -1.44,   0.22,   0.05,   0.93, 3.88, 0.01, 0.00, 0.00, 0.02, 1, 1, 10,  37.1659264, -97.7384691,   380.0, 2023, 11, 11, 20, 28, 20,        0,        0,   0,   0,   1.4,   0.8,   1.1,  0,  0, 30, 32,  0,  0, 37,  0, 32,  0,  0,  0,  0,  0,  0, 31,  0,  0,  0,  0,  0,  0,  0,  0,  0, 33, 32, 36, 38,  0, 30,  0
6, 10885, 3,N0CALL,     0.02, 3,   boost,  357.06,  97914.00,  287.89,   -0.77,   10.05, 20.6, 3.87, 3.88, 3.88,-235.42, -17.57,  -1.30,  19.34,  10.87,   4.76,  -1.44,   0.22,   0.05,   0.93, 3.88, 0.01, 0.00, 0.00, 0.02, 1, 1, 10,  37.1659264, -97.7384691,   380.0, 2023, 11, 11, 20, 28, 20,        0,        0,   0,   0,   1.4,   0.8,   1.1,  0,  0, 30, 32,  0,  0, 37,  0, 32,  0,  0,  0,  0,  0,  0, 31,  0,  0,  0,  0,  0,  0,  0,  0,  0, 33, 32, 36, 38,  0, 30,  0
6, 10885, 3,N0CALL,     0.03, 3,   boost,  347.51,  97914.00,  287.89,   -0.77,   13.28, 20.6, 3.87, 3.88, 3.88,-235.27,  -5.22,  46.89, 137.26,  26.49,  -3.48,  -1.44,   0.22,   0.05,   0.82, 3.88, 0.01, 0.00, 0.00, 0.02, 1, 1, 10,  37.1659264, -97.7384691,   380.0, 2023, 11, 11, 20, 28, 20,        0,        0,   0,   0,   1.4,   0.8,   1.1,  0,  0, 30, 32,  0,  0, 37,  0, 32,  0,  0,  0,  0,  0,  0, 31,  0,  0,  0,  0,  0,  0,  0,  0,  0, 33, 32, 36, 38,  0, 30,  0
6, 10885, 3,N0CALL,     0.04, 3,   boost,  340.47,  97874.00,  291.31,    2.65,   16.58, 20.6, 3.87, 3.88, 3.88,-233.51,  -9.79,   0.01,  -9.71, -20.50,  -8.18,  -1.44,   0.22,   0.05,   0.80, 3.88, 0.01, 0.00, 0.00, 0.02, 1, 1, 10,  37.1659264, -97.7384691,   380.0, 2023, 11, 11, 20, 28, 20,        0,        0,   0,   0,   1.4,   0.8,   1.1,  0,  0, 30, 32,  0,  0, 37,  0, 32,  0,  0,  0,  0,  0,  0, 31,  0,  0,  0,  0,  0,  0,  0,  0,  0, 33, 32, 36, 38,  0, 30,  0
6, 10885, 3,N0CALL,     0.05, 3,   boost,  346.50,  97874.00,  291.31,    2.65,   19.85, 20.6, 3.87, 3.88, 3.88,-235.42,  11.05,   3.02,  74.03, -26.18, -20.08,  -1.44,   0.21,   0.04,   0.80, 3.88, 0.01, 0.00, 0.00, 0.02, 1, 1, 10,  37.1659264, -97.7384691,   380.0, 2023, 11, 11, 20, 28, 20,        0,        0,   0,   0,   1.4,   0.8,   1.1,  0,  0, 30, 32,  0,  0, 37,  0, 32,  0,  0,  0,  0,  0,  0, 31,  0,  0,  0,  0,  0,  0,  0,  0,  0, 33, 32, 36, 38,  0, 30,  0
6, 10885, 3,N0CALL,     0.06, 3,   boost,  238.88,  97871.00,  291.57,    2.91,   23.08, 20.6, 3.87, 3.88, 3.88,-235.42,  -3.00, -23.61,-214.91, -30.57,  -8.91,  -1.44,   0.20,   0.04,   1.01, 3.88, 0.01, 0.00, 0.00, 0.02, 1, 1, 10,  37.1659264, -97.7384691,   380.0, 2023, 11, 11, 20, 28, 20,        0,        0,   0,   0,   1.4,   0.8,   1.1,  0,  0, 30, 32,  0,  0, 37,  0, 32,  0,  0,  0,  0,  0,  0, 31,  0,  0,  0,  0,  0,  0,  0,  0,  0, 33, 32, 36, 38,  0, 30,  0
6, 10885, 3,N0CALL,     0.07, 3,   boost,  341.98,  97871.00,  291.57,    2.91,   26.29, 20.6, 3.87, 3.88, 3.88,-232.18,   0.30,  -1.62, -78.74,  -8.48,  -7.51,  -1.45,   0.20,   0.04,   1.05, 3.88, 0.01, 0.00, 0.00, 0.02, 1, 1, 10,  37.1659264, -97.7384691,   380.0, 2023, 11, 11, 20, 28, 20,        0,        0,   0,   0,   1.4,   0.8,   1.1,  0,  0, 30, 32,  0,  0, 37,  0, 32,  0,  0,  0,  0,  0,  0, 31,  0,  0,  0,  0,  0,  0,  0,  0,  0, 33, 32, 36, 38,  0, 30,  0
6, 10885, 3,N0CALL,     0.08, 3,   boost,  337.45,  97857.00,  292.77,    4.11,   29.54, 20.6, 3.87, 3.88, 3.88,-235.42,   2.27, -23.26, -32.54, -11.90,  -7.94,  -1.45,   0.21,   0.05,   1.14, 3.88, 0.01, 0.00, 0.00, 0.02, 1, 1, 10,  37.1659264, -97.7384691,   380.0, 2023, 11, 11, 20, 28, 20,        0,        0,   0,   0,   1.4,   0.8,   1.1,  0,  0, 30, 32,  0,  0, 37,  0, 32,  0,  0,  0,  0,  0,  0, 31,  0,  0,  0,  0,  0,  0,  0,  0,  0, 33, 32, 36, 38,  0, 30,  0
6, 10885, 3,N0CALL,     0.09, 3,   boost,  338.46,  97857.00,  292.77,    4.11,   32.86, 20.6, 3.87, 3.88, 3.88,-235.31,   1.01,   9.65, 194.51,  20.21,   3.36,  -1.45,   0.21,   0.05,   0.96, 3.88, 0.01, 0.00, 0.00, 0.02, 1, 1, 10,  37.1659264, -97.7384691,   380.0, 2023, 11, 11, 20, 28, 20,        0,        0,   0,   0,   1.4,   0.8,   1.1,  0,  0, 30, 32,  0,  0, 37,  0, 32,  0,  0,  0,  0,  0,  0, 31,  0,  0,  0,  0,  0,  0,  0,  0,  0, 33, 32, 36, 38,  0, 30,  0
6, 10885, 3,N0CALL,     0.10, 3,   boost,  346.00,  97862.00,  292.34,    3.68,   36.22, 20.6, 3.87, 3.88, 3.88,-235.42,   8.16,  -3.33, 243.22,   5.86,   0.06,  -1.44,   0.22,   0.05,   0.90, 3.88, 0.01, 0.00, 0.00, 0.02, 1, 1, 10,  37.1659264, -97.7384691,   380.0, 2023, 11, 11, 20, 28, 20,        0,        0,   0,   0,   1.4,   0.8,   1.1,  0,  0, 30, 32,  0,  0, 37,  0, 32,  0,  0,  0,  0,  0,  0, 31,  0,  0,  0,  0,  0,  0,  0,  0,  0, 33, 32, 36, 38,  0, 30,  0
6, 10885, 3,N0CALL,     0.11, 3,   boost,  337.95,  97862.00,  292.34,    3.68,   39.63, 20.6, 3.87, 3.88, 3.88,-235.42,  -7.72,   2.22,  31.24,  32.11,  11.41,  -1.44,   0.22,   0.05,   0.67, 3.88, 0.01, 0.00, 0.00, 0.02, 1, 1, 10,  37.1659264, -97.7384691,   380.0, 2023, 11, 11, 20, 28, 20,        0,        0,   0,   0,   1.4,   0.8,   1.1,  0,  0, 30, 32,  0,  0, 37,  0, 32,  0,  0,  0,  0,  0,  0, 31,  0,  0,  0,  0,  0,  0,  0,  0,  0, 33, 32, 36, 38,  0, 30,  0
6, 10885, 3,N0CALL,     0.12, 3,   boost,  347.51,  97845.00,  293.80,    5.14,   43.06, 20.6, 3.87, 3.88, 3.88,-235.42,   4.36, -27.77, 129.88,  -4.51,  12.39,  -1.44,   0.23,   0.05,   0.79, 3.88, 0.01, 0.00, 0.00, 0.02, 1, 1, 10,  37.1659264, -97.7384691,   380.0, 2023, 11, 11, 20, 28, 20,        0,        0,   0,   0,   1.4,   0.8,   1.1,  0,  0, 30, 32,  0,  0, 37,  0, 32,  0,  0,  0,  0,  0,  0, 31,  0,  0,  0,  0,  0,  0,  0,  0,  0, 33, 32, 36, 38,  0, 30,  0
6, 10885, 3,N0CALL,     0.13, 3,   boost,  339.96,  97845.00,  293.80,    5.14,   46.50, 20.6, 3.87, 3.88, 3.88,-235.42,  -1.62,  25.01, 173.82,  42.42,  16.72,  -1.44,   0.24,   0.06,   0.71, 3.88, 0.01, 0.00, 0.00, 0.02, 1, 1, 10,  37.1659264, -97.7384691,   380.0, 2023, 11, 11, 20, 28, 20,        0,        0,   0,   0,   1.4,   0.8,   1.1,  0,  0, 30, 32,  0,  0, 37,  0, 32,  0,  0,  0,  0,  0,  0, 31,  0,  0,  0,  0,  0,  0,  0,  0,  0, 33, 32, 36, 38,  0, 30,  0
6, 10885, 3,N0CALL,     0.14, 3,   boost,  344.99,  97829.00,  295.17,    6.51,   49.95, 20.6, 3.87, 3.88, 3.88,-235.42,   6.15, -30.31, 168.57,   3.06,  11.29,  -1.44,   0.24,   0.06,   0.81, 3.88, 0.01, 0.00, 0.00, 0.02, 1, 1, 10,  37.1659264, -97.7384691,   380.0, 2023, 11, 11, 20, 28, 20,        0,        0,   0,   0,   1.4,   0.8,   1.1,  0,  0, 30, 32,  0,  0, 37,  0, 32,  0,  0,  0,  0,  0,  0, 31,  0,  0,  0,  0,  0,  0,  0,  0,  0, 33, 32, 36, 38,  0, 30,  0
6, 10885, 3,N0CALL,     0.15, 3,   boost,  349.52,  97829.00,  295.17,    6.51,   53.42, 20.6, 3.87, 3.88, 3.88,-235.42,  -4.33,  17.48, 172.60,  41.45,  23.31,  -1.44,   0.26,   0.06,   1.05, 3.88, 0.01, 0.00, 0.00, 0.02, 1, 1, 10,  37.1659264, -97.7384691,   380.0, 2023, 11, 11, 20, 28, 20,        0,        0,   0,   0,   1.4,   0.8,   1.1,  0,  0, 30, 32,  0,  0, 37,  0, 32,  0,  0,  0,  0,  0,  0, 31,  0,  0,  0,  0,  0,  0,  0,  0,  0, 33, 32, 36, 38,  0, 30,  0
6, 10885, 3,N0CALL,     0.16, 3,   boost,  348.51,  97839.00,  294.31,    5.65,   56.91, 20.6, 3.87, 3.88, 3.88,-235.42,   4.58, -14.88, 165.52,  26.19,  18.68,  -1.44,   0.26,   0.07,   1.30, 3.88, 0.01, 0.00, 0.00, 0.02, 1, 1, 10,  37.1659264, -97.7384691,   380.0, 2023, 11, 11, 20, 28, 20,        0,        0,   0,   0,   1.4,   0.8,   1.1,  0,  0, 30, 32,  0,  0, 37,  0, 32,  0,  0,  0,  0,  0,  0, 31,  0,  0,  0,  0,  0,  0,  0,  0,  0, 33, 32, 36, 38,  0, 30,  0
6, 10885, 3,N0CALL,     0.17, 3,   boost,  352.03,  97839.00,  294.31,    5.65,   60.43, 20.6, 3.87, 3.88, 3.88,-235.42,  -1.70,  -3.78, 164.42,  26.74,  25.39,  -1.44,   0.27,   0.07,   1.64, 3.88, 0.01, 0.00, 0.00, 0.02, 1, 1, 10,  37.1659264, -97.7384691,   380.0, 2023, 11, 11, 20, 28, 20,        0,        0,   0,   0,   1.4,   0.8,   1.1,  0,  0, 30, 32,  0,  0, 37,  0, 32,  0,  0,  0,  0,  0,  0, 31,  0,  0,  0,  0,  0,  0,  0,  0,  0, 33, 32, 36, 38,  0, 30,  0
6, 10885, 3,N0CALL,     0.18, 3,   boost,  359.58,  97810.00,  296.79,    8.13,   63.98, 20.6, 3.87, 3.88, 3.88,-235.42,   2.82,   7.03, 159.84,  44.99,  26.43,  -1.44,   0.27,   0.07,   2.08, 3.88, 0.01, 0.00, 0.00, 0.02, 1, 1, 10,  37.1659264, -97.7384691,   380.0, 2023, 11, 11, 20, 28, 20,        0,        0,   0,   0,   1.4,   0.8,   1.1,  0,  0, 30, 32,  0,  0, 37,  0, 32,  0,  0,  0,  0,  0,  0, 31,  0,  0,  0,  0,  0,  0,  0,  0,  0, 33, 32, 36, 38,  0, 30,  0
6, 10885, 3,N0CALL,     0.19, 3,   boost,  360.08,  97810.00,  296.79,    8.13,   67.56, 20.6, 3.87, 3.88, 3.88,-235.42,   1.72, -17.51, 154.72,  23.50,  27.53,  -1.44,   0.28,   0.08,   2.44, 3.88, 0.01, 0.00, 0.00, 0.02, 1, 1, 10,  37.1659264, -97.7384691,   380.0, 2023, 11, 11, 20, 28, 20,        0,        0,   0,   0,   1.4,   0.8,   1.1,  0,  0, 30, 32,  0,  0, 37,  0, 32,  0,  0,  0,  0,  0,  0, 31,  0,  0,  0,  0,  0,  0,  0,  0,  0, 33, 32, 36, 38,  0, 30,  0
6, 10885, 3,N0CALL,     0.20, 3,   boost,  361.59,  97783.00,  299.11,   10.45,   71.18, 20.6, 3.87, 3.88, 3.88,-235.42,  -1.83,   9.77, 154.35,  43.89,  34.91,  -1.43,   0.29,   0.08,   2.97, 3.88, 0.01, 0.00, 0.00, 0.02, 1, 1, 10,  37.1659264, -97.7384691,   380.0, 2023, 11, 11, 20, 28, 20,        0,        0,   0,   0,   1.4,   0.8,   1.1,  0,  0, 30, 32,  0,  0, 37,  0, 32,  0,  0,  0,  0,  0,  0, 31,  0,  0,  0,  0,  0,  0,  0,  0,  0, 33, 32, 36, 38,  0, 30,  0
6, 10885, 3,N0CALL,     0.21, 3,   boost,  367.12,  97783.00,  299.11,   10.45,   74.82, 20.6, 3.87, 3.88, 3.88,-235.42,   5.40, -10.77, 148.37,  35.65,  30.76,  -1.43,   0.30,   0.08,   3.42, 3.88, 0.01, 0.00, 0.00, 0.02, 1, 1, 10,  37.1659264, -97.7384691,   380.0, 2023, 11, 11, 20, 28, 20,        0,        0,   0,   0,   1.4,   0.8,   1.1,  0,  0, 30, 32,  0,  0, 37,  0, 32,  0,  0,  0,  0,  0,  0, 31,  0,  0,  0,  0,  0,  0,  0,  0,  0, 33, 32, 36, 38,  0, 30,  0
6, 10885, 3,N0CALL,     0.22, 3,   boost,  365.61,  97753.00,  301.68,   13.02,   78.51, 20.6, 3.87, 3.88, 3.88,-235.42,  -3.25,  -1.62, 146.90,  32.11,  38.82,  -1.43,   0.30,   0.08,   3.92, 3.88, 0.01, 0.00, 0.00, 0.02, 1, 1, 10,  37.1659264, -97.7384691,   380.0, 2023, 11, 11, 20, 28, 20,        0,        0,   0,   0,   1.4,   0.8,   1.1,  0,  0, 30, 32,  0,  0, 37,  0, 32,  0,  0,  0,  0,  0,  0, 31,  0,  0,  0,  0,  0,  0,  0,  0,  0, 33, 32, 36, 38,  0, 30,  0
6, 10885, 3,N0CALL,     0.23, 3,   boost,  382.21,  97753.00,  301.68,   13.02,   82.24, 20.6, 3.87, 3.88, 3.88,-235.42,   3.95,   4.27, 139.03,  43.22,  37.96,  -1.43,   0.31,   0.08,   4.48, 3.88, 0.01, 0.00, 0.00, 0.02, 1, 1, 10,  37.1659264, -97.7384691,   380.0, 2023, 11, 11, 20, 28, 20,        0,        0,   0,   0,   1.4,   0.8,   1.1,  0,  0, 30, 32,  0,  0, 37,  0, 32,  0,  0,  0,  0,  0,  0, 31,  0,  0,  0,  0,  0,  0,  0,  0,  0, 33, 32, 36, 38,  0, 30,  0
6, 10885, 3,N0CALL,     0.24, 3,   boost,  386.73,  97723.00,  304.25,   15.59,   85.99, 20.6, 3.87, 3.88, 3.88,-235.42,   0.01, -12.50, 133.78,  26.92,  37.05,  -1.42,   0.32,   0.08,   4.94, 3.88, 0.01, 0.00, 0.00, 0.02, 1, 1, 10,  37.1659264, -97.7384691,   380.0, 2023, 11, 11, 20, 28, 20,        0,        0,   0,   0,   1.4,   0.8,   1.1,  0,  0, 30, 32,  0,  0, 37,  0, 32,  0,  0,  0,  0,  0,  0, 31,  0,  0,  0,  0,  0,  0,  0,  0,  0, 33, 32, 36, 38,  0, 30,  0
6, 10885, 3,N0CALL,     0.25, 3,   boost,  376.17,  97723.00,  304.25,   15.59,   89.76, 20.6, 3.87, 3.88, 3.88,-235.42,   0.50,   6.72, 124.44,  37.24,  43.70,  -1.42,   0.32,   0.08,   5.51, 3.88, 0.01, 0.00, 0.00, 0.02, 1, 1, 10,  37.1659264, -97.7384691,   380.0, 2023, 11, 11, 20, 28, 20,        0,        0,   0,   0,   1.4,   0.8,   1.1,  0,  0, 30, 32,  0,  0, 37,  0, 32,  0,  0,  0,  0,  0,  0, 31,  0,  0,  0,  0,  0,  0,  0,  0,  0, 33, 32, 36, 38,  0, 30,  0
6, 10885, 3,N0CALL,     0.26, 3,   boost,  381.20,  97672.00,  308.62,   19.96,   93.55, 20.6, 3.87, 3.88, 3.88,-235.42,   6.10,  -6.34, 109.37,  29.73,  37.41,  -1.42,   0.34,   0.08,   5.98, 3.88, 0.01, 0.00, 0.00, 0.02, 1, 1, 10,  37.1659264, -97.7384691,   380.0, 2023, 11, 11, 20, 28, 20,        0,        0,   0,   0,   1.4,   0.8,   1.1,  0,  0, 30, 32,  0,  0, 37,  0, 32,  0,  0,  0,  0,  0,  0, 31,  0,  0,  0,  0,  0,  0,  0,  0,  0, 33, 32, 36, 38,  0, 30,  0
6, 10885, 3,N0CALL,     0.27, 3,   boost,  382.71,  97672.00,  308.62,   19.96,   97.33, 20.6, 3.87, 3.88, 3.88,-235.42,  -1.06,  -2.19,  99.36,  23.14,  46.08,  -1.42,   0.35,   0.08,   6.50, 3.88, 0.01, 0.00, 0.00, 0.02, 1, 1, 10,  37.1659264, -97.7384691,   380.0, 2023, 11, 11, 20, 28, 20,        0,        0,   0,   0,   1.4,   0.8,   1.1,  0,  0, 30, 32,  0,  0, 37,  0, 32,  0,  0,  0,  0,  0,  0, 31,  0,  0,  0,  0,  0,  0,  0,  0,  0, 33, 32, 36, 38,  0, 30,  0
6, 10885, 3,N0CALL,     0.28, 3,   boost,  375.17,  97637.00,  311.62,   22.96,  101.11, 20.6, 3.87, 3.88, 3.88,-235.42,   4.91,   1.08,  93.80,  28.02,  42.05,  -1.42,   0.35,   0.08,   7.00, 3.88, 0.01, 0.00, 0.00, 0.02, 1, 1, 10,  37.1659264, -97.7384691,   380.0, 2023, 11, 11, 20, 28, 20,        0,        0,   0,   0,   1.4,   0.8,   1.1,  0,  0, 30, 32,  0,  0, 37,  0, 32,  0,  0,  0,  0,  0,  0, 31,  0,  0,  0,  0,  0,  0,  0,  0,  0, 33, 32, 36, 38,  0, 30,  0
6, 10885, 3,N0CALL,     0.29, 3,   boost,  382.21,  97637.00,  311.62,   22.96,  104.89, 20.6, 3.87, 3.88, 3.88,-235.42,  -0.90,  -7.72,  79.95,  14.84,  44.25,  -1.42,   0.36,   0.08,   7.46, 3.88, 0.01, 0.00, 0.00, 0.02, 1, 1, 10,  37.1659264, -97.7384691,   380.0, 2023, 11, 11, 20, 28, 20,        0,        0,   0,   0,   1.4,   0.8,   1.1,  0,  0, 30, 32,  0,  0, 37,  0, 32,  0,  0,  0,  0,  0,  0, 31,  0,  0,  0,  0,  0,  0,  0,  0,  0, 33, 32, 36, 38,  0, 30,  0
6, 10885, 3,N0CALL,     0.30, 3,   boost,  383.21,  97591.00,  315.57,   26.91,  108.69, 20.6, 3.87, 3.88, 3.88,-235.42,   4.35,   4.69,  59.56,  21.67,  43.58,  -1.42,   0.36,   0.08,   7.95, 3.88, 0.01, 0.00, 0.00, 0.02, 1, 1, 10,  37.1659264, -97.7384691,   380.0, 2023, 11, 11, 20, 28, 20,        0,        0,   0,   0,   1.4,   0.8,   1.1,  0,  0, 30, 32,  0,  0, 37,  0, 32,  0,  0,  0,  0,  0,  0, 31,  0,  0,  0,  0,  0,  0,  0,  0,  0, 33, 32, 36, 38,  0, 30,  0
6, 10885, 3,N0CALL,     0.31, 3,   boost,  386.23,  97591.00,  315.57,   26.91,  112.50, 20.6, 3.87, 3.88, 3.88,-235.42,   1.72, -10.78,  57.61,  12.21,  42.66,  -1.42,   0.37,   0.09,   8.38, 3.88, 0.01, 0.00, 0.00, 0.02, 1, 1, 10,  37.1659264, -97.7384691,   380.0, 2023, 11, 11, 20, 28, 20,        0,        0,   0,   0,   1.4,   0.8,   1.1,  0,  0, 30, 32,  0,  0, 37,  0, 32,  0,  0,  0,  0,  0,  0, 31,  0,  0,  0,  0,  0,  0,  0,  0,  0, 33, 32, 36, 38,  0, 30,  0
6, 10885, 3,N0CALL,     0.32, 3,   boost,  391.76,  97523.00,  321.41,   32.75,  116.32, 20.6, 3.87, 3.88, 3.88,-235.42,   3.25,  -0.56,  37.29,  11.17,  39.73,  -1.42,   0.37,   0.09,   8.79, 3.88, 0.01, 0.00, 0.00, 0.02, 1, 1, 10,  37.1659264, -97.7384691,   380.0, 2023, 11, 11, 20, 28, 20,        0,        0,   0,   0,   1.4,   0.8,   1.1,  0,  0, 30, 32,  0,  0, 37,  0, 32,  0,  0,  0,  0,  0,  0, 31,  0,  0,  0,  0,  0,  0,  0,  0,  0, 33, 32, 36, 38,  0, 30,  0
6, 10885, 3,N0CALL,     0.33, 3,   boost,  389.25,  97523.00,  321.41,   32.75,  120.14, 20.6, 3.87, 3.88, 3.88,-235.42,   2.99,  -3.43,  14.64,  14.04,  36.86,  -1.42,   0.37,   0.09,   9.18, 3.88, 0.01, 0.00, 0.00, 0.02, 1, 1, 10,  37.1659264, -97.7384691,   380.0, 2023, 11, 11, 20, 28, 20,        0,        0,   0,   0,   1.4,   0.8,   1.1,  0,  0, 30, 32,  0,  0, 37,  0, 32,  0,  0,  0,  0,  0,  0, 31,  0,  0,  0,  0,  0,  0,  0,  0,  0, 33, 32, 36, 38,  0, 30,  0
6, 10885, 3,N0CALL,     0.34, 3,   boost,  388.75,  97455.00,  327.25,   38.59,  123.96, 20.6, 3.86, 3.87, 3.86,-235.42,   4.41,  -8.70,  -3.85,   4.70,  34.06,  -1.42,   0.37,   0.08,   9.51, 3.90, 0.00, 0.01, 0.01, 0.00, 1, 1, 10,  37.1659264, -97.7384691,   380.0, 2023, 11, 11, 20, 28, 20,        0,        0,   0,   0,   1.4,   0.8,   1.1,  0,  0, 30, 32,  0,  0, 37,  0, 32,  0,  0,  0,  0,  0,  0, 31,  0,  0,  0,  0,  0,  0,  0,  0,  0, 33, 32, 36, 38,  0, 30,  0
6, 10885, 3,N0CALL,     0.34, 3,   boost,  388.75,  97455.00,  327.25,   38.59,  123.96, 20.6, 3.86, 3.87, 3.86,-235.42,   4.41,  -8.70,  -3.85,   4.70,  34.06,  -1.42,   0.37,   0.08,   9.51, 3.90, 0.00, 0.01, 0.01, 0.00, 1, 1, 10,  37.1659264, -97.7384691,   380.0, 2023, 11, 11, 20, 28, 20,        0,        0,   0,   0,   1.4,   0.8,   1.1,  0,  0, 30, 32,  0,  0, 37,  0, 32,  0,  0,  0,  0,  0,  0, 31,  0,  0,  0,  0,  0,  0,  0,  0,  0, 33, 32, 36, 38,  0, 30,  0
6, 10885, 3,N0CALL,     0.35, 3,   boost,  379.19,  97455.00,  327.25,   38.59,  127.77, 20.6, 3.86, 3.87, 3.86,-235.42,  -0.12,   2.42,  -7.51,   9.77,  30.33,  -1.41,   0.38,   0.08,   9.83, 3.90, 0.00, 0.01, 0.01, 0.00, 1, 1, 10,  37.1659264, -97.7384691,   380.0, 2023, 11, 11, 20, 28, 20,        0,        0,   0,   0,   1.4,   0.8,   1.1,  0,  0, 30, 32,  0,  0, 37,  0, 32,  0,  0,  0,  0,  0,  0, 31,  0,  0,  0,  0,  0,  0,  0,  0,  0, 33, 32, 36, 38,  0, 30,  0
6, 10885, 3,N0CALL,     0.36, 3,   boost,  386.73,  97390.00,  332.83,   44.17,  131.57, 20.6, 3.86, 3.87, 3.86,-235.42,   3.33,  -9.31, -11.18,   2.87,  23.44,  -1.41,   0.38,   0.08,  10.05, 3.90, 0.00, 0.01, 0.01, 0.00, 1, 1, 10,  37.1659264, -97.7384691,   380.0, 2023, 11, 11, 20, 28, 20,        0,        0,   0,   0,   1.4,   0.8,   1.1,  0,  0, 30, 32,  0,  0, 37,  0, 32,  0,  0,  0,  0,  0,  0, 31,  0,  0,  0,  0,  0,  0,  0,  0,  0, 33, 32, 36, 38,  0, 30,  0
6, 10885, 3,N0CALL,     0.37, 3,   boost,  390.76,  97390.00,  332.83,   44.17,  135.36, 20.6, 3.86, 3.87, 3.86,-235.42,   1.29,  -1.84, -19.36,  -0.61,  15.26,  -1.41,   0.38,   0.09,  10.19, 3.90, 0.00, 0.01, 0.01, 0.00, 1, 1, 10,  37.1659264, -97.7384691,   380.0, 2023, 11, 11, 20, 28, 20,        0,        0,   0,   0,   1.4,   0.8,   1.1,  0,  0, 30, 32,  0,  0, 37,  0, 32,  0,  0,  0,  0,  0,  0, 31,  0,  0,  0,  0,  0,  0,  0,  0,  0, 33, 32, 36, 38,  0, 30,  0
6, 10885, 3,N0CALL,     0.38, 3,   boost,  381.70,  97327.00,  338.25,   49.59,  139.14, 20.6, 3.86, 3.87, 3.86,-235.42,   3.87,  -2.68, -30.95,   2.32,  10.50,  -1.41,   0.37,   0.09,  10.30, 3.90, 0.00, 0.01, 0.01, 0.00, 1, 1, 10,  37.1659264, -97.7384691,   380.0, 2023, 11, 11, 20, 28, 20,        0,        0,   0,   0,   1.4,   0.8,   1.1,  0,  0, 30, 32,  0,  0, 37,  0, 32,  0,  0,  0,  0,  0,  0, 31,  0,  0,  0,  0,  0,  0,  0,  0,  0, 33, 32, 36, 38,  0, 30,  0
6, 10885, 3,N0CALL,     0.39, 3,   boost,  380.70,  97327.00,  338.25,   49.59,  142.91, 20.6, 3.86, 3.87, 3.86,-235.42,   1.99,  -8.15, -67.08,  -7.81,   0.79,  -1.41,   0.37,   0.09,  10.27, 3.90, 0.00, 0.01, 0.01, 0.00, 1, 1, 10,  37.1659264, -97.7384691,   380.0, 2023, 11, 11, 20, 28, 20,        0,        0,   0,   0,   1.4,   0.8,   1.1,  0,  0, 30, 32,  0,  0, 37,  0, 32,  0,  0,  0,  0,  0,  0, 31,  0,  0,  0,  0,  0,  0,  0,  0,  0, 33, 32, 36, 38,  0, 30,  0
6, 10885, 3,N0CALL,     0.40, 3,   boost,  377.68,  97268.00,  343.32,   54.66,  146.68, 20.6, 3.86, 3.87, 3.86,-235.42,   2.24,  -0.24, -95.83,  -2.07,  -2.50,  -1.41,   0.36,   0.09,  10.24, 3.90, 0.00, 0.01, 0.01, 0.00, 1, 1, 10,  37.1659264, -97.7384691,   380.0, 2023, 11, 11, 20, 28, 20,        0,        0,   0,   0,   1.4,   0.8,   1.1,  0,  0, 30, 32,  0,  0, 37,  0, 32,  0,  0,  0,  0,  0,  0, 31,  0,  0,  0,  0,  0,  0,  0,  0,  0, 33, 32, 36, 38,  0, 30,  0
6, 10885, 3,N0CALL,     0.41, 3,   boost,  383.21,  97268.00,  343.32,   54.66,  150.46, 20.6, 3.86, 3.87, 3.86,-235.42,   2.98,  -7.65,-129.46,  -7.26,  -7.94,  -1.41,   0.35,   0.09,  10.14, 3.90, 0.00, 0.01, 0.01, 0.00, 1, 1, 10,  37.1659264, -97.7384691,   380.0, 2023, 11, 11, 20, 28, 20,        0,        0,   0,   0,   1.4,   0.8,   1.1,  0,  0, 30, 32,  0,  0, 37,  0, 32,  0,  0,  0,  0,  0,  0, 31,  0,  0,  0,  0,  0,  0,  0,  0,  0, 33, 32, 36, 38,  0, 30,  0
6, 10885, 3,N0CALL,     0.42, 3,   boost,  390.76,  97217.00,  347.71,   59.05,  154.25, 20.6, 3.86, 3.87, 3.86,-235.42,   1.52,  -1.56,-159.61, -11.41, -13.86,  -1.42,   0.34,   0.09,   9.96, 3.90, 0.00, 0.01, 0.01, 0.00, 1, 1, 10,  37.1659264, -97.7384691,   380.0, 2023, 11, 11, 20, 28, 20,        0,        0,   0,   0,   1.4,   0.8,   1.1,  0,  0, 30, 32,  0,  0, 37,  0, 32,  0,  0,  0,  0,  0,  0, 31,  0,  0,  0,  0,  0,  0,  0,  0,  0, 33, 32, 36, 38,  0, 30,  0
6, 10885, 3,N0CALL,     0.43, 3,   boost,  386.23,  97217.00,  347.71,   59.05,  158.06, 20.6, 3.86, 3.87, 3.86,-235.42,   2.71,  -6.90,-184.21, -13.42, -20.94,  -1.42,   0.33,   0.10,   9.72, 3.90, 0.00, 0.01, 0.01, 0.00, 1, 1, 10,  37.1659264, -97.7384691,   380.0, 2023, 11, 11, 20, 28, 20,        0,        0,   0,   0,   1.4,   0.8,   1.1,  0,  0, 30, 32,  0,  0, 37,  0, 32,  0,  0,  0,  0,  0,  0, 31,  0,  0,  0,  0,  0,  0,  0,  0,  0, 33, 32, 36, 38,  0, 30,  0
6, 10885, 3,N0CALL,     0.44, 3,   boost,  393.77,  97168.00,  351.93,   63.27,  161.90, 20.6, 3.86, 3.87, 3.86,-235.42,   0.80,  -5.70,-199.29, -21.97, -24.60,  -1.42,   0.33,   0.10,   9.39, 3.90, 0.00, 0.01, 0.01, 0.00, 1, 1, 10,  37.1659264, -97.7384691,   380.0, 2023, 11, 11, 20, 28, 20,        0,        0,   0,   0,   1.4,   0.8,   1.1,  0,  0, 30, 32,  0,  0, 37,  0, 32,  0,  0,  0,  0,  0,  0, 31,  0,  0,  0,  0,  0,  0,  0,  0,  0, 33, 32, 36, 38,  0, 30,  0
6, 10885, 3,N0CALL,     0.45, 3,   boost,  384.72,  97168.00,  351.93,   63.27,  165.76, 20.6, 3.86, 3.87, 3.86,-235.42,   6.38,  -1.23,-208.99, -21.30, -25.27,  -1.42,   0.32,   0.10,   9.07, 3.90, 0.00, 0.01, 0.01, 0.00, 1, 1, 10,  37.1659264, -97.7384691,   380.0, 2023, 11, 11, 20, 28, 20,        0,        0,   0,   0,   1.4,   0.8,   1.1,  0,  0, 30, 32,  0,  0, 37,  0, 32,  0,  0,  0,  0,  0,  0, 31,  0,  0,  0,  0,  0,  0,  0,  0,  0, 33, 32, 36, 38,  0, 30,  0
6, 10885, 3,N0CALL,     0.46, 3,   boost,  394.78,  97143.00,  354.09,   65.43,  169.65, 20.6, 3.86, 3.87, 3.86,-235.42,   2.08,  -7.80,-213.14, -29.72, -27.59,  -1.42,   0.30,   0.10,   8.68, 3.90, 0.00, 0.01, 0.01, 0.00, 1, 1, 10,  37.1659264, -97.7384691,   380.0, 2023, 11, 11, 20, 28, 20,        0,        0,   0,   0,   1.4,   0.8,   1.1,  0,  0, 30, 32,  0,  0, 37,  0, 32,  0,  0,  0,  0,  0,  0, 31,  0,  0,  0,  0,  0,  0,  0,  0,  0, 33, 32, 36, 38,  0, 30,  0
6, 10885, 3,N0CALL,     0.47, 3,   boost,  401.82,  97143.00,  354.09,   65.43,  173.56, 20.6, 3.86, 3.87, 3.86,-235.42,   3.49,  -0.79,-221.99, -35.21, -22.71,  -1.42,   0.30,   0.10,   8.29, 3.90, 0.00, 0.01, 0.01, 0.00, 1, 1, 10,  37.1659264, -97.7384691,   380.0, 2023, 11, 11, 20, 28, 20,        0,        0,   0,   0,   1.4,   0.8,   1.1,  0,  0, 30, 32,  0,  0, 37,  0, 32,  0,  0,  0,  0,  0,  0, 31,  0,  0,  0,  0,  0,  0,  0,  0,  0, 33, 32, 36, 38,  0, 30,  0
6, 10885, 3,N0CALL,     0.48, 3,   boost,  404.34,  97102.00,  357.62,   68.96,  177.50, 20.6, 3.86, 3.87, 3.86,-235.42,   4.61,  -4.28,-232.86, -36.19, -25.45,  -1.42,   0.28,   0.09,   7.88, 3.90, 0.00, 0.01, 0.01, 0.00, 1, 1, 10,  37.1659264, -97.7384691,   380.0, 2023, 11, 11, 20, 28, 20,        0,        0,   0,   0,   1.4,   0.8,   1.1,  0,  0, 30, 32,  0,  0, 37,  0, 32,  0,  0,  0,  0,  0,  0, 31,  0,  0,  0,  0,  0,  0,  0,  0,  0, 33, 32, 36, 38,  0, 30,  0
6, 10885, 3,N0CALL,     0.49, 3,   boost,  393.27,  97102.00,  357.62,   68.96,  181.46, 20.6, 3.86, 3.87, 3.86,-235.42,   0.53,  -4.39,-244.39, -45.65, -20.63,  -1.42,   0.27,   0.09,   7.45, 3.90, 0.00, 0.01, 0.01, 0.00, 1, 1, 10,  37.1659264, -97.7384691,   380.0, 2023, 11, 11, 20, 28, 20,        0,        0,   0,   0,   1.4,   0.8,   1.1,  0,  0, 30, 32,  0,  0, 37,  0, 32,  0,  0,  0,  0,  0,  0, 31,  0,  0,  0,  0,  0,  0,  0,  0,  0, 33, 32, 36, 38,  0, 30,  0
6, 10885, 3,N0CALL,     0.50, 3,   boost,  402.32,  97086.00,  359.00,   70.34,  185.42, 20.6, 3.86, 3.87, 3.86,-235.42,   5.32,  -0.75,-262.82, -46.14, -17.52,  -1.42,   0.27,   0.09,   7.03, 3.90, 0.00, 0.01, 0.01, 0.00, 1, 1, 10,  37.1659264, -97.7384691,   380.0, 2023, 11, 11, 20, 28, 20,        0,        0,   0,   0,   1.4,   0.8,   1.1,  0,  0, 30, 32,  0,  0, 37,  0, 32,  0,  0,  0,  0,  0,  0, 31,  0,  0,  0,  0,  0,  0,  0,  0,  0, 33, 32, 36, 38,  0, 30,  0
6, 10885, 3,N0CALL,     0.51, 3,   boost,  402.32,  97086.00,  359.00,   70.34,  189.39, 20.6, 3.86, 3.87, 3.86,-235.42,   5.00,  -2.22,-282.48, -51.87, -13.06,  -1.43,   0.24,   0.08,   6.62, 3.90, 0.00, 0.01, 0.01, 0.00, 1, 1, 10,  37.1659264, -97.7384691,   380.0, 2023, 11, 11, 20, 28, 20,        0,        0,   0,   0,   1.4,   0.8,   1.1,  0,  0, 30, 32,  0,  0, 37,  0, 32,  0,  0,  0,  0,  0,  0, 31,  0,  0,  0,  0,  0,  0,  0,  0,  0, 33, 32, 36, 38,  0, 30,  0
6, 10885, 3,N0CALL,     0.52, 3,   boost,  402.83,  97056.00,  361.58,   72.92,  193.37, 20.6, 3.86, 3.87, 3.86,-235.42,   1.14,  -4.71,-300.48, -55.90,  -4.94,  -1.43,   0.23,   0.07,   6.26, 3.90, 0.00, 0.01, 0.01, 0.00, 1, 1, 10,  37.1659264, -97.7384691,   380.0, 2023, 11, 11, 20, 28, 20,        0,        0,   0,   0,   1.4,   0.8,   1.1,  0,  0, 30, 32,  0,  0, 37,  0, 32,  0,  0,  0,  0,  0,  0, 31,  0,  0,  0,  0,  0,  0,  0,  0,  0, 33, 32, 36, 38,  0, 30,  0
6, 10885, 3,N0CALL,     0.53, 3,   boost,  394.78,  97056.00,  361.58,   72.92,  197.34, 20.6, 3.86, 3.87, 3.86,-235.42,   2.09,  -1.17,-321.97, -54.80,  -0.43,  -1.44,   0.22,   0.07,   5.94, 3.90, 0.00, 0.01, 0.01, 0.00, 1, 1, 10,  37.1659264, -97.7384691,   380.0, 2023, 11, 11, 20, 28, 20,        0,        0,   0,   0,   1.4,   0.8,   1.1,  0,  0, 30, 32,  0,  0, 37,  0, 32,  0,  0,  0,  0,  0,  0, 31,  0,  0,  0,  0,  0,  0,  0,  0,  0, 33, 32, 36, 38,  0, 30,  0
6, 10885, 3,N0CALL,     0.54, 3,   boost,  397.30,  96996.00,  366.75,   78.09,  201.33, 20.6, 3.86, 3.87, 3.86,-235.42,   0.65,  -2.54,-344.55, -56.57,   5.19,  -1.44,   0.21,   0.06,   5.68, 3.90, 0.00, 0.01, 0.01, 0.00, 1, 1, 10,  37.1659264, -97.7384691,   380.0, 2023, 11, 11, 20, 28, 20,        0,        0,   0,   0,   1.4,   0.8,   1.1,  0,  0, 30, 32,  0,  0, 37,  0, 32,  0,  0,  0,  0,  0,  0, 31,  0,  0,  0,  0,  0,  0,  0,  0,  0, 33, 32, 36, 38,  0, 30,  0
6, 10885, 3,N0CALL,     0.55, 3,   boost,  401.82,  96996.00,  366.75,   78.09,  205.32, 20.6, 3.86, 3.87, 3.86,-235.42,   1.48,  -2.34,-362.19, -54.13,   9.64,  -1.44,   0.21,   0.06,   5.48, 3.90, 0.00, 0.01, 0.01, 0.00, 1, 1, 10,  37.1659264, -97.7384691,   380.0, 2023, 11, 11, 20, 28, 20,        0,        0,   0,   0,   1.4,   0.8,   1.1,  0,  0, 30, 32,  0,  0, 37,  0, 32,  0,  0,  0,  0,  0,  0, 31,  0,  0,  0,  0,  0,  0,  0,  0,  0, 33, 32, 36, 38,  0, 30,  0
