#version,serial,flight,call,time,state,state_name,acceleration,pressure,altitude,height,speed,temperature,drogue_voltage,main_voltage,battery_voltage,accel_x,accel_y,accel_z,gyro_roll,gyro_pitch,gyro_yaw,mag_x,mag_y,mag_z,tilt,pyro,igniter_a,igniter_b,igniter_c,igniter_d,connected,locked,nsat,latitude,longitude,altitude,year,month,day,hour,minute,second,pad_dist,pad_range,pad_az,pad_el,pdop,hdop,vdop,sat01,sat02,sat03,sat04,sat05,sat06,sat07,sat08,sat09,sat10,sat11,sat12,sat13,sat14,sat15,sat16,sat17,sat18,sat19,sat20,sat21,sat22,sat23,sat24,sat25,sat26,sat27,sat28,sat29,sat30,sat31,sat32
6, 11044, 2,N0CALL,    -0.30, 3,   boost,    1.44,  99108.00,  186.20,    0.42,    0.01, 14.1, 3.99, 4.00, 4.00,  -9.90,  -0.01,   0.17,   0.15,  -0.07,   0.26,  -0.99,   0.21,   0.13,   0.63, 4.00, 0.00, 0.00, 0.00, 0.00, 1, 1,  9,  42.6264238, -88.1615846,   245.0, 2024,  2, 24, 18, 15,  3,        0,        0, 124,   0,   2.3,   1.1,   2.0,  0, 37,  0,  0,  0,  0, 35,  0, 36,  0,  0,  0, 30, 18, 41,  0, 38,  0, 37,  0, 34, 33,  0,  0,  0,  0, 29,  0,  0, 26,  0,  0
6, 11044, 2,N0CALL,    -0.29, 3,   boost,    0.48,  99104.00,  186.54,    0.76,    0.01, 14.1, 3.99, 4.00, 4.00,  -9.92,   0.03,   0.13,   0.03,  -0.07,  -0.16,  -0.99,   0.21,   0.13,   0.63, 4.00, 0.00, 0.00, 0.00, 0.00, 1, 1,  9,  42.6264238, -88.1615846,   245.0, 2024,  2, 24, 18, 15,  3,        0,        0, 124,   0,   2.3,   1.1,   2.0,  0, 37,  0,  0,  0,  0, 35,  0, 36,  0,  0,  0, 30, 18, 41,  0, 38,  0, 37,  0, 34, 33,  0,  0,  0,  0, 29,  0,  0, 26,  0,  0
6, 11044, 2,N0CALL,    -0.28, 3,   boost,    0.48,  99104.00,  186.54,    0.76,    0.01, 14.1, 3.99, 4.00, 4.00,  -9.91,   0.02,   0.04,   0.09,  -0.01,  -0.10,  -0.99,   0.21,   0.13,   0.63, 4.00, 0.00, 0.00, 0.00, 0.00, 1, 1,  9,  42.6264238, -88.1615846,   245.0, 2024,  2, 24, 18, 15,  3,        0,        0, 124,   0,   2.3,   1.1,   2.0,  0, 37,  0,  0,  0,  0, 35,  0, 36,  0,  0,  0, 30, 18, 41,  0, 38,  0, 37,  0, 34, 33,  0,  0,  0,  0, 29,  0,  0, 26,  0,  0
6, 11044, 2,N0CALL,    -0.27, 3,   boost,   -0.00,  99120.00,  185.19,   -0.59,    0.02, 14.1, 3.99, 4.00, 4.00,  -9.86,  -0.01,   0.07,   0.09,   0.05,   0.08,  -0.99,   0.21,   0.13,   0.63, 4.00, 0.00, 0.00, 0.00, 0.00, 1, 1,  9,  42.6264238, -88.1615846,   245.0, 2024,  2, 24, 18, 15,  3,        0,        0, 124,   0,   2.3,   1.1,   2.0,  0, 37,  0,  0,  0,  0, 35,  0, 36,  0,  0,  0, 30, 18, 41,  0, 38,  0, 37,  0, 34, 33,  0,  0,  0,  0, 29,  0,  0, 26,  0,  0
6, 11044, 2,N0CALL,    -0.26, 3,   boost,    1.44,  99120.00,  185.19,   -0.59,    0.02, 14.1, 3.99, 4.00, 4.00,  -9.93,   0.14,   0.21,  -0.15,  -0.07,  -0.10,  -0.99,   0.21,   0.13,   0.63, 4.00, 0.00, 0.00, 0.00, 0.00, 1, 1,  9,  42.6264238, -88.1615846,   245.0, 2024,  2, 24, 18, 15,  3,        0,        0, 124,   0,   2.3,   1.1,   2.0,  0, 37,  0,  0,  0,  0, 35,  0, 36,  0,  0,  0, 30, 18, 41,  0, 38,  0, 37,  0, 34, 33,  0,  0,  0,  0, 29,  0,  0, 26,  0,  0
6, 11044, 2,N0CALL,    -0.25, 3,   boost,    0.96,  99108.00,  186.20,    0.42,    0.03, 14.1, 3.99, 4.00, 4.00,  -9.84,  -0.04,   0.13,   0.03,  -0.01,   0.08,  -0.99,   0.21,   0.13,   0.63, 4.00, 0.00, 0.00, 0.00, 0.00, 1, 1,  9,  42.6264238, -88.1615846,   245.0, 2024,  2, 24, 18, 15,  3,        0,        0, 124,   0,   2.3,   1.1,   2.0,  0, 37,  0,  0,  0,  0, 35,  0, 36,  0,  0,  0, 30, 18, 41,  0, 38,  0, 37,  0, 34, 33,  0,  0,  0,  0, 29,  0,  0, 26,  0,  0
6, 11044, 2,N0CALL,    -0.24, 3,   boost,   -0.96,  99108.00,  186.20,    0.42,    0.03, 14.1, 3.99, 4.00, 4.00,  -9.91,   0.06,   0.10,   0.09,   0.12,  -0.04,  -0.99,   0.21,   0.13,   0.63, 4.00, 0.00, 0.00, 0.00, 0.00, 1, 1,  9,  42.6264238, -88.1615846,   245.0, 2024,  2, 24, 18, 15,  3,        0,        0, 124,   0,   2.3,   1.1,   2.0,  0, 37,  0,  0,  0,  0, 35,  0, 36,  0,  0,  0, 30, 18, 41,  0, 38,  0, 37,  0, 34, 33,  0,  0,  0,  0, 29,  0,  0, 26,  0,  0
6, 11044, 2,N0CALL,    -0.23, 3,   boost,    0.96,  99104.00,  186.54,    0.76,    0.04, 14.1, 3.99, 4.00, 4.00,  -9.89,   0.04,   0.07,   0.09,   0.05,  -0.16,  -0.99,   0.21,   0.13,   0.63, 4.00, 0.00, 0.00, 0.00, 0.00, 1, 1,  9,  42.6264238, -88.1615846,   245.0, 2024,  2, 24, 18, 15,  3,        0,        0, 124,   0,   2.3,   1.1,   2.0,  0, 37,  0,  0,  0,  0, 35,  0, 36,  0,  0,  0, 30, 18, 41,  0, 38,  0, 37,  0, 34, 33,  0,  0,  0,  0, 29,  0,  0, 26,  0,  0
6, 11044, 2,N0CALL,    -0.22, 3,   boost,    0.96,  99104.00,  186.54,    0.76,    0.04, 14.1, 3.99, 4.00, 4.00,  -9.89,   0.04,   0.15,   0.21,  -0.13,  -0.04,  -0.99,   0.21,   0.13,   0.63, 4.00, 0.00, 0.00, 0.00, 0.00, 1, 1,  9,  42.6264238, -88.1615846,   245.0, 2024,  2, 24, 18, 15,  3,        0,        0, 124,   0,   2.3,   1.1,   2.0,  0, 37,  0,  0,  0,  0, 35,  0, 36,  0,  0,  0, 30, 18, 41,  0, 38,  0, 37,  0, 34, 33,  0,  0,  0,  0, 29,  0,  0, 26,  0,  0
6, 11044, 2,N0CALL,    -0.21, 3,   boost,   -0.48,  99107.00,  186.29,    0.51,    0.05, 14.1, 3.99, 4.00, 4.00,  -9.91,   0.15,   0.11,   0.09,  -0.01,  -0.16,  -0.99,   0.21,   0.13,   0.63, 4.00, 0.00, 0.00, 0.00, 0.00, 1, 1,  9,  42.6264238, -88.1615846,   245.0, 2024,  2, 24, 18, 15,  3,        0,        0, 124,   0,   2.3,   1.1,   2.0,  0, 37,  0,  0,  0,  0, 35,  0, 36,  0,  0,  0, 30, 18, 41,  0, 38,  0, 37,  0, 34, 33,  0,  0,  0,  0, 29,  0,  0, 26,  0,  0
6, 11044, 2,N0CALL,    -0.20, 3,   boost,    1.44,  99107.00,  186.29,    0.51,    0.06, 14.1, 3.99, 4.00, 4.00,  -9.93,  -0.05,  -0.02,   0.03,  -0.19,  -0.04,  -0.99,   0.21,   0.13,   0.63, 4.00, 0.00, 0.00, 0.00, 0.00, 1, 1,  9,  42.6264238, -88.1615846,   245.0, 2024,  2, 24, 18, 15,  3,        0,        0, 124,   0,   2.3,   1.1,   2.0,  0, 37,  0,  0,  0,  0, 35,  0, 36,  0,  0,  0, 30, 18, 41,  0, 38,  0, 37,  0, 34, 33,  0,  0,  0,  0, 29,  0,  0, 26,  0,  0
6, 11044, 2,N0CALL,    -0.19, 3,   boost,    0.96,  99107.00,  186.29,    0.51,    0.06, 14.1, 3.99, 4.00, 4.00,  -9.91,   0.01,   0.12,   0.09,  -0.07,   0.20,  -0.99,   0.21,   0.13,   0.63, 4.00, 0.00, 0.00, 0.00, 0.00, 1, 1,  9,  42.6264238, -88.1615846,   245.0, 2024,  2, 24, 18, 15,  3,        0,        0, 124,   0,   2.3,   1.1,   2.0,  0, 37,  0,  0,  0,  0, 35,  0, 36,  0,  0,  0, 30, 18, 41,  0, 38,  0, 37,  0, 34, 33,  0,  0,  0,  0, 29,  0,  0, 26,  0,  0
6, 11044, 2,N0CALL,    -0.18, 3,   boost,    0.48,  99107.00,  186.29,    0.51,    0.06, 14.1, 3.99, 4.00, 4.00,  -9.84,   0.04,   0.14,  -0.03,   0.12,  -0.04,  -0.99,   0.21,   0.13,   0.63, 4.00, 0.00, 0.00, 0.00, 0.00, 1, 1,  9,  42.6264238, -88.1615846,   245.0, 2024,  2, 24, 18, 15,  3,        0,        0, 124,   0,   2.3,   1.1,   2.0,  0, 37,  0,  0,  0,  0, 35,  0, 36,  0,  0,  0, 30, 18, 41,  0, 38,  0, 37,  0, 34, 33,  0,  0,  0,  0, 29,  0,  0, 26,  0,  0
6, 11044, 2,N0CALL,    -0.17, 3,   boost,   -1.44,  99111.00,  185.95,    0.17,    0.06, 14.1, 3.99, 4.00, 4.00,  -9.92,   0.04,   0.14,   0.15,   0.24,  -0.23,  -0.99,   0.21,   0.13,   0.63, 4.00, 0.00, 0.00, 0.00, 0.00, 1, 1,  9,  42.6264238, -88.1615846,   245.0, 2024,  2, 24, 18, 15,  3,        0,        0, 124,   0,   2.3,   1.1,   2.0,  0, 37,  0,  0,  0,  0, 35,  0, 36,  0,  0,  0, 30, 18, 41,  0, 38,  0, 37,  0, 34, 33,  0,  0,  0,  0, 29,  0,  0, 26,  0,  0
6, 11044, 2,N0CALL,    -0.16, 3,   boost,    0.48,  99111.00,  185.95,    0.17,    0.06, 14.1, 3.99, 4.00, 4.00,  -9.86,   0.02,   0.10,   0.21,  -0.07,   0.20,  -0.99,   0.21,   0.13,   0.63, 4.00, 0.00, 0.00, 0.00, 0.00, 1, 1,  9,  42.6264238, -88.1615846,   245.0, 2024,  2, 24, 18, 15,  3,        0,        0, 124,   0,   2.3,   1.1,   2.0,  0, 37,  0,  0,  0,  0, 35,  0, 36,  0,  0,  0, 30, 18, 41,  0, 38,  0, 37,  0, 34, 33,  0,  0,  0,  0, 29,  0,  0, 26,  0,  0
6, 11044, 2,N0CALL,    -0.15, 3,   boost,   -2.87,  99106.00,  186.37,    0.59,    0.06, 14.1, 3.99, 4.00, 4.00,  -9.89,   0.01,   0.09,   0.27,  -0.37,  -0.04,  -0.99,   0.21,   0.13,   0.63, 4.00, 0.00, 0.00, 0.00, 0.00, 1, 1,  9,  42.6264238, -88.1615846,   245.0, 2024,  2, 24, 18, 15,  3,        0,        0, 124,   0,   2.3,   1.1,   2.0,  0, 37,  0,  0,  0,  0, 35,  0, 36,  0,  0,  0, 30, 18, 41,  0, 38,  0, 37,  0, 34, 33,  0,  0,  0,  0, 29,  0,  0, 26,  0,  0
6, 11044, 2,N0CALL,    -0.14, 3,   boost,   -0.00,  99106.00,  186.37,    0.59,    0.07, 14.1, 3.99, 4.00, 4.00,  -9.91,   0.01,   0.30,  -0.09,  -0.13,  -0.04,  -0.99,   0.21,   0.13,   0.63, 4.00, 0.00, 0.00, 0.00, 0.00, 1, 1,  9,  42.6264238, -88.1615846,   245.0, 2024,  2, 24, 18, 15,  3,        0,        0, 124,   0,   2.3,   1.1,   2.0,  0, 37,  0,  0,  0,  0, 35,  0, 36,  0,  0,  0, 30, 18, 41,  0, 38,  0, 37,  0, 34, 33,  0,  0,  0,  0, 29,  0,  0, 26,  0,  0
6, 11044, 2,N0CALL,    -0.13, 3,   boost,   -0.00,  99112.00,  185.87,    0.08,    0.09, 14.1, 3.99, 4.00, 4.00,  -9.90,  -0.01,   0.24,   0.15,   0.24,   0.14,  -0.99,   0.21,   0.13,   0.63, 4.00, 0.00, 0.00, 0.00, 0.00, 1, 1,  9,  42.6264238, -88.1615846,   245.0, 2024,  2, 24, 18, 15,  3,        0,        0, 124,   0,   2.3,   1.1,   2.0,  0, 37,  0,  0,  0,  0, 35,  0, 36,  0,  0,  0, 30, 18, 41,  0, 38,  0, 37,  0, 34, 33,  0,  0,  0,  0, 29,  0,  0, 26,  0,  0
6, 11044, 2,N0CALL,    -0.12, 3,   boost,   11.00,  99112.00,  185.87,    0.08,    0.13, 14.1, 3.99, 4.00, 4.00,  -9.91,  -0.03,   0.03,  -0.03,  -0.13,  -0.04,  -0.99,   0.21,   0.13,   0.63, 4.00, 0.00, 0.00, 0.00, 0.00, 1, 1,  9,  42.6264238, -88.1615846,   245.0, 2024,  2, 24, 18, 15,  3,        0,        0, 124,   0,   2.3,   1.1,   2.0,  0, 37,  0,  0,  0,  0, 35,  0, 36,  0,  0,  0, 30, 18, 41,  0, 38,  0, 37,  0, 34, 33,  0,  0,  0,  0, 29,  0,  0, 26,  0,  0
6, 11044, 2,N0CALL,    -0.11, 3,   boost,   10.05,  99106.00,  186.37,    0.59,    0.21, 14.1, 3.99, 4.00, 4.00, -13.36,   0.00,  -0.09,   0.15,  -0.07,   0.02,  -0.99,   0.21,   0.13,   0.63, 4.00, 0.00, 0.00, 0.00, 0.00, 1, 1,  9,  42.6264238, -88.1615846,   245.0, 2024,  2, 24, 18, 15,  3,        0,        0, 124,   0,   2.3,   1.1,   2.0,  0, 37,  0,  0,  0,  0, 35,  0, 36,  0,  0,  0, 30, 18, 41,  0, 38,  0, 37,  0, 34, 33,  0,  0,  0,  0, 29,  0,  0, 26,  0,  0
6, 11044, 2,N0CALL,    -0.10, 3,   boost,   -8.13,  99106.00,  186.37,    0.59,    0.34, 14.1, 3.99, 4.00, 4.00, -26.39,   0.89,  -2.77,  -2.05,  -0.01,   0.02,  -0.99,   0.21,   0.13,   0.63, 4.00, 0.00, 0.00, 0.00, 0.00, 1, 1,  9,  42.6264242, -88.1615854,   245.0, 2024,  2, 24, 18, 15,  4,        0,        0,   0,   0,   2.3,   1.1,   2.0,  0, 37,  0,  0,  0,  0, 35,  0, 36,  0,  0,  0, 31, 19, 42,  0, 38,  0, 37,  0, 34, 33,  0,  0,  0,  0, 29,  0,  0, 25,  0,  0
6, 11044, 2,N0CALL,    -0.09, 3,   boost,   30.62,  99128.00,  184.51,   -1.27,    0.54, 14.1, 3.99, 4.00, 4.00, -33.48,  -1.57,  -1.94,  -3.33,  -2.69,   0.63,  -0.99,   0.21,   0.13,   0.63, 4.00, 0.00, 0.00, 0.00, 0.00, 1, 1,  9,  42.6264242, -88.1615854,   245.0, 2024,  2, 24, 18, 15,  4,        0,        0,   0,   0,   2.3,   1.1,   2.0,  0, 37,  0,  0,  0,  0, 35,  0, 36,  0,  0,  0, 31, 19, 42,  0, 38,  0, 37,  0, 34, 33,  0,  0,  0,  0, 29,  0,  0, 25,  0,  0
6, 11044, 2,N0CALL,    -0.08, 3,   boost,   38.75,  99128.00,  184.51,   -1.27,    0.82, 14.1, 3.99, 4.00, 4.00, -43.11,  -7.85, -11.27,  11.93,   1.28,   0.81,  -0.99,   0.21,   0.13,   0.63, 4.00, 0.00, 0.00, 0.00, 0.00, 1, 1,  9,  42.6264242, -88.1615854,   245.0, 2024,  2, 24, 18, 15,  4,        0,        0,   0,   0,   2.3,   1.1,   2.0,  0, 37,  0,  0,  0,  0, 35,  0, 36,  0,  0,  0, 31, 19, 42,  0, 38,  0, 37,  0, 34, 33,  0,  0,  0,  0, 29,  0,  0, 25,  0,  0
6, 11044, 2,N0CALL,    -0.07, 3,   boost,   44.49,  99121.00,  185.10,   -0.68,    1.17, 14.1, 3.99, 4.00, 4.00, -49.62,  -0.48,   2.92,  -1.01,  -1.96,  -0.10,  -0.99,   0.21,   0.13,   0.63, 4.00, 0.00, 0.00, 0.00, 0.00, 1, 1,  9,  42.6264242, -88.1615854,   245.0, 2024,  2, 24, 18, 15,  4,        0,        0,   0,   0,   2.3,   1.1,   2.0,  0, 37,  0,  0,  0,  0, 35,  0, 36,  0,  0,  0, 31, 19, 42,  0, 38,  0, 37,  0, 34, 33,  0,  0,  0,  0, 29,  0,  0, 25,  0,  0
6, 11044, 2,N0CALL,    -0.06, 3,   boost,   48.79,  99121.00,  185.10,   -0.68,    1.60, 14.1, 3.99, 4.00, 4.00, -56.71,   0.04,   3.85,   5.16,  -3.97,   1.36,  -0.99,   0.21,   0.13,   0.63, 4.00, 0.00, 0.00, 0.00, 0.00, 1, 1,  9,  42.6264242, -88.1615854,   245.0, 2024,  2, 24, 18, 15,  4,        0,        0,   0,   0,   2.3,   1.1,   2.0,  0, 37,  0,  0,  0,  0, 35,  0, 36,  0,  0,  0, 31, 19, 42,  0, 38,  0, 37,  0, 34, 33,  0,  0,  0,  0, 29,  0,  0, 25,  0,  0
6, 11044, 2,N0CALL,    -0.05, 3,   boost,   49.27,  99100.00,  186.88,    1.10,    2.06, 14.1, 3.99, 4.00, 4.00, -60.32,  -0.24,  -0.06,   1.55,   1.46,   1.18,  -0.99,   0.21,   0.13,   0.63, 4.00, 0.00, 0.00, 0.00, 0.00, 1, 1,  9,  42.6264242, -88.1615854,   245.0, 2024,  2, 24, 18, 15,  4,        0,        0,   0,   0,   2.3,   1.1,   2.0,  0, 37,  0,  0,  0,  0, 35,  0, 36,  0,  0,  0, 31, 19, 42,  0, 38,  0, 37,  0, 34, 33,  0,  0,  0,  0, 29,  0,  0, 25,  0,  0
6, 11044, 2,N0CALL,    -0.04, 3,   boost,   52.14,  99100.00,  186.88,    1.10,    2.55, 14.1, 3.99, 4.00, 4.00, -61.00,  -5.49,  -1.80,   0.09,   1.34,   1.85,  -0.99,   0.21,   0.12,   0.63, 4.00, 0.00, 0.00, 0.00, 0.00, 1, 1,  9,  42.6264242, -88.1615854,   245.0, 2024,  2, 24, 18, 15,  4,        0,        0,   0,   0,   2.3,   1.1,   2.0,  0, 37,  0,  0,  0,  0, 35,  0, 36,  0,  0,  0, 31, 19, 42,  0, 38,  0, 37,  0, 34, 33,  0,  0,  0,  0, 29,  0,  0, 25,  0,  0
6, 11044, 2,N0CALL,    -0.03, 3,   boost,   49.75,  99094.00,  187.39,    1.61,    3.05, 14.1, 3.99, 4.00, 4.00, -61.23,  -2.18,  -2.22,  -1.38,  -0.19,   1.36,  -0.99,   0.21,   0.12,   0.63, 4.00, 0.00, 0.00, 0.00, 0.00, 1, 1,  9,  42.6264242, -88.1615854,   245.0, 2024,  2, 24, 18, 15,  4,        0,        0,   0,   0,   2.3,   1.1,   2.0,  0, 37,  0,  0,  0,  0, 35,  0, 36,  0,  0,  0, 31, 19, 42,  0, 38,  0, 37,  0, 34, 33,  0,  0,  0,  0, 29,  0,  0, 25,  0,  0
6, 11044, 2,N0CALL,    -0.02, 3,   boost,   52.62,  99094.00,  187.39,    1.61,    3.56, 14.1, 3.99, 4.00, 4.00, -61.74,   1.37,   2.32,   8.82,  -0.80,   1.18,  -0.99,   0.21,   0.13,   0.63, 4.00, 0.00, 0.00, 0.00, 0.00, 1, 1,  9,  42.6264242, -88.1615854,   245.0, 2024,  2, 24, 18, 15,  4,        0,        0,   0,   0,   2.3,   1.1,   2.0,  0, 37,  0,  0,  0,  0, 35,  0, 36,  0,  0,  0, 31, 19, 42,  0, 38,  0, 37,  0, 34, 33,  0,  0,  0,  0, 29,  0,  0, 25,  0,  0
6, 11044, 2,N0CALL,    -0.01, 3,   boost,   47.36,  99095.00,  187.31,    1.53,    4.06, 14.1, 3.99, 4.00, 4.00, -61.63,  -1.80,   1.82,  12.85,   0.12,   1.79,  -0.99,   0.21,   0.13,   0.63, 4.00, 0.00, 0.00, 0.00, 0.00, 1, 1,  9,  42.6264242, -88.1615854,   245.0, 2024,  2, 24, 18, 15,  4,        0,        0,   0,   0,   2.3,   1.1,   2.0,  0, 37,  0,  0,  0,  0, 35,  0, 36,  0,  0,  0, 31, 19, 42,  0, 38,  0, 37,  0, 34, 33,  0,  0,  0,  0, 29,  0,  0, 25,  0,  0
6, 11044, 2,N0CALL,     0.00, 3,   boost,   50.23,  99095.00,  187.31,    1.53,    4.56, 14.1, 3.99, 4.00, 4.00, -61.85,  -1.70,  -0.75,   3.93,   0.91,   2.40,  -0.99,   0.21,   0.12,   0.63, 4.00, 0.00, 0.00, 0.00, 0.00, 1, 1,  9,  42.6264242, -88.1615854,   245.0, 2024,  2, 24, 18, 15,  4,        0,        0,   0,   0,   2.3,   1.1,   2.0,  0, 37,  0,  0,  0,  0, 35,  0, 36,  0,  0,  0, 31, 19, 42,  0, 38,  0, 37,  0, 34, 33,  0,  0,  0,  0, 29,  0,  0, 25,  0,  0
6, 11044, 2,N0CALL,     0.00, 3,   boost,   50.23,  99095.00,  187.31,    1.53,    4.56, 14.1, 3.99, 4.00, 4.00, -61.85,  -1.70,  -0.75,   3.93,   0.91,   2.40,  -0.99,   0.21,   0.12,   0.63, 4.00, 0.00, 0.00, 0.00, 0.00, 1, 1,  9,  42.6264242, -88.1615854,   245.0, 2024,  2, 24, 18, 15,  4,        0,        0,   0,   0,   2.3,   1.1,   2.0,  0, 37,  0,  0,  0,  0, 35,  0, 36,  0,  0,  0, 31, 19, 42,  0, 38,  0, 37,  0, 34, 33,  0,  0,  0,  0, 29,  0,  0, 25,  0,  0
6, 11044, 2,N0CALL,     0.00, 3,   boost,   50.23,  99095.00,  187.31,    1.53,    4.56, 14.1, 3.99, 4.00, 4.00, -61.85,  -1.70,  -0.75,   3.93,   0.91,   2.40,  -0.99,   0.21,   0.12,   0.63, 4.00, 0.00, 0.00, 0.00, 0.00, 1, 1,  9,  42.6264242, -88.1615854,   245.0, 2024,  2, 24, 18, 15,  4,        0,        0,   0,   0,   2.3,   1.1,   2.0,  0, 37,  0,  0,  0,  0, 35,  0, 36,  0,  0,  0, 31, 19, 42,  0, 38,  0, 37,  0, 34, 33,  0,  0,  0,  0, 29,  0,  0, 25,  0,  0
6, 11044, 2,N0CALL,     0.00, 3,   boost,   50.23,  99095.00,  187.31,    1.53,    4.56, 14.1, 3.99, 4.00, 4.00, -61.85,  -1.70,  -0.75,   3.93,   0.91,   2.40,  -0.99,   0.21,   0.12,   0.63, 4.00, 0.00, 0.00, 0.00, 0.00, 1, 1,  9,  42.6264242, -88.1615854,   245.0, 2024,  2, 24, 18, 15,  4,        0,        0,   0,   0,   2.3,   1.1,   2.0,  0, 37,  0,  0,  0,  0, 35,  0, 36,  0,  0,  0, 31, 19, 42,  0, 38,  0, 37,  0, 34, 33,  0,  0,  0,  0, 29,  0,  0, 25,  0,  0
6, 11044, 2,N0CALL,     0.00, 3,   boost,   50.23,  99095.00,  187.31,    1.53,    4.56, 14.1, 3.99, 4.00, 4.00, -61.85,  -1.70,  -0.75,   3.93,   0.91,   2.40,  -0.99,   0.21,   0.12,   0.63, 4.00, 0.00, 0.00, 0.00, 0.00, 1, 1,  9,  42.6264242, -88.1615854,   245.0, 2024,  2, 24, 18, 15,  4,        0,        0,   0,   0,   2.3,   1.1,   2.0,  0, 37,  0,  0,  0,  0, 35,  0, 36,  0,  0,  0, 31, 19, 42,  0, 38,  0, 37,  0, 34, 33,  0,  0,  0,  0, 29,  0,  0, 25,  0,  0
6, 11044, 2,N0CALL,     0.00, 3,   boost,   50.23,  99095.00,  187.31,    1.53,    4.56, 14.1, 3.99, 4.00, 4.00, -61.85,  -1.70,  -0.75,   3.93,   0.91,   2.40,  -0.99,   0.21,   0.12,   0.63, 4.00, 0.00, 0.00, 0.00, 0.00, 1, 1,  9,  42.6264242, -88.1615854,   245.0, 2024,  2, 24, 18, 15,  4,        0,        0,   0,   0,   2.3,   1.1,   2.0,  0, 37,  0,  0,  0,  0, 35,  0, 36,  0,  0,  0, 31, 19, 42,  0, 38,  0, 37,  0, 34, 33,  0,  0,  0,  0, 29,  0,  0, 25,  0,  0
6, 11044, 2,N0CALL,     0.00, 3,   boost,   50.23,  99095.00,  187.31,    1.53,    4.56, 14.1, 3.99, 4.00, 4.00, -61.85,  -1.70,  -0.75,   3.93,   0.91,   2.40,  -0.99,   0.21,   0.12,   0.63, 4.00, 0.00, 0.00, 0.00, 0.00, 1, 1,  9,  42.6264242, -88.1615854,   245.0, 2024,  2, 24, 18, 15,  4,        0,        0,   0,   0,   2.3,   1.1,   2.0,  0, 37,  0,  0,  0,  0, 35,  0, 36,  0,  0,  0, 31, 19, 42,  0, 38,  0, 37,  0, 34, 33,  0,  0,  0,  0, 29,  0,  0, 25,  0,  0
6, 11044, 2,N0CALL,     0.00, 3,   boost,   50.23,  99095.00,  187.31,    1.53,    4.56, 14.1, 3.99, 4.00, 4.00, -61.85,  -1.70,  -0.75,   3.93,   0.91,   2.40,  -0.99,   0.21,   0.12,   0.63, 4.00, 0.00, 0.00, 0.00, 0.00, 1, 1,  9,  42.6264242, -88.1615854,   245.0, 2024,  2, 24, 18, 15,  4,        0,        0,   0,   0,   2.3,   1.1,   2.0,  0, 37,  0,  0,  0,  0, 35,  0, 36,  0,  0,  0, 31, 19, 42,  0, 38,  0, 37,  0, 34, 33,  0,  0,  0,  0, 29,  0,  0, 25,  0,  0
6, 11044, 2,N0CALL,     0.00, 3,   boost,   50.23,  99095.00,  187.31,    1.53,    4.56, 14.1, 3.99, 4.00, 4.00, -61.85,  -1.70,  -0.75,   3.93,   0.91,   2.40,  -0.99,   0.21,   0.12,   0.63, 4.00, 0.00, 0.00, 0.00, 0.00, 1, 1,  9,  42.6264242, -88.1615854,   245.0, 2024,  2, 24, 18, 15,  4,        0,        0,   0,   0,   2.3,   1.1,   2.0,  0, 37,  0,  0,  0,  0, 35,  0, 36,  0,  0,  0, 31, 19, 42,  0, 38,  0, 37,  0, 34, 33,  0,  0,  0,  0, 29,  0,  0, 25,  0,  0
6, 11044, 2,N0CALL,     0.00, 3,   boost,   50.23,  99095.00,  187.31,    1.53,    4.56, 14.1, 3.99, 4.00, 4.00, -61.85,  -1.70,  -0.75,   3.93,   0.91,   2.40,  -0.99,   0.21,   0.12,   0.63, 4.00, 0.00, 0.00, 0.00, 0.00, 1, 1,  9,  42.6264242, -88.1615854,   245.0, 2024,  2, 24, 18, 15,  4,        0,        0,   0,   0,   2.3,   1.1,   2.0,  0, 37,  0,  0,  0,  0, 35,  0, 36,  0,  0,  0, 31, 19, 42,  0, 38,  0, 37,  0, 34, 33,  0,  0,  0,  0, 29,  0,  0, 25,  0,  0
6, 11044, 2,N0CALL,     0.00, 3,   boost,   50.23,  99095.00,  187.31,    1.53,    4.56, 14.1, 3.99, 4.00, 4.00, -61.85,  -1.70,  -0.75,   3.93,   0.91,   2.40,  -0.99,   0.21,   0.12,   0.63, 4.00, 0.00, 0.00, 0.00, 0.00, 1, 1,  9,  42.6264242, -88.1615854,   245.0, 2024,  2, 24, 18, 15,  4,        0,        0,   0,   0,   2.3,   1.1,   2.0,  0, 37,  0,  0,  0,  0, 35,  0, 36,  0,  0,  0, 31, 19, 42,  0, 38,  0, 37,  0, 34, 33,  0,  0,  0,  0, 29,  0,  0, 25,  0,  0
6, 11044, 2,N0CALL,     0.00, 3,   boost,   50.23,  99095.00,  187.31,    1.53,    4.56, 14.1, 3.99, 4.00, 4.00, -61.85,  -1.70,  -0.75,   3.93,   0.91,   2.40,  -0.99,   0.21,   0.12,   0.63, 4.00, 0.00, 0.00, 0.00, 0.00, 1, 1,  9,  42.6264242, -88.1615854,   245.0, 2024,  2, 24, 18, 15,  4,        0,        0,   0,   0,   2.3,   1.1,   2.0,  0, 37,  0,  0,  0,  0, 35,  0, 36,  0,  0,  0, 31, 19, 42,  0, 38,  0, 37,  0, 34, 33,  0,  0,  0,  0, 29,  0,  0, 25,  0,  0
6, 11044, 2,N0CALL,     0.00, 3,   boost,   50.23,  99095.00,  187.31,    1.53,    4.56, 14.1, 3.99, 4.00, 4.00, -61.85,  -1.70,  -0.75,   3.93,   0.91,   2.40,  -0.99,   0.21,   0.12,   0.63, 4.00, 0.00, 0.00, 0.00, 0.00, 1, 1,  9,  42.6264242, -88.1615854,   245.0, 2024,  2, 24, 18, 15,  4,        0,        0,   0,   0,   2.3,   1.1,   2.0,  0, 37,  0,  0,  0,  0, 35,  0, 36,  0,  0,  0, 31, 19, 42,  0, 38,  0, 37,  0, 34, 33,  0,  0,  0,  0, 29,  0,  0, 25,  0,  0
6, 11044, 2,N0CALL,     0.00, 3,   boost,   50.23,  99095.00,  187.31,    1.53,    4.56, 14.1, 3.99, 4.00, 4.00, -61.85,  -1.70,  -0.75,   3.93,   0.91,   2.40,  -0.99,   0.21,   0.12,   0.63, 4.00, 0.00, 0.00, 0.00, 0.00, 1, 1,  9,  42.6264242, -88.1615854,   245.0, 2024,  2, 24, 18, 15,  4,        0,        0,   0,   0,   2.3,   1.1,   2.0,  0, 37,  0,  0,  0,  0, 35,  0, 36,  0,  0,  0, 31, 19, 42,  0, 38,  0, 37,  0, 34, 33,  0,  0,  0,  0, 29,  0,  0, 25,  0,  0
6, 11044, 2,N0CALL,     0.00, 3,   boost,   50.23,  99095.00,  187.31,    1.53,    4.56, 14.1, 3.99, 4.00, 4.00, -61.85,  -1.70,  -0.75,   3.93,   0.91,   2.40,  -0.99,   0.21,   0.12,   0.63, 4.00, 0.00, 0.00, 0.00, 0.00, 1, 1,  9,  42.6264242, -88.1615854,   245.0, 2024,  2, 24, 18, 15,  4,        0,        0,   0,   0,   2.3,   1.1,   2.0,  0, 37,  0,  0,  0,  0, 35,  0, 36,  0,  0,  0, 31, 19, 42,  0, 38,  0, 37,  0, 34, 33,  0,  0,  0,  0, 29,  0,  0, 25,  0,  0
6, 11044, 2,N0CALL,     0.00, 3,   boost,   50.23,  99095.00,  187.31,    1.53,    4.56, 14.1, 3.99, 4.00, 4.00, -61.85,  -1.70,  -0.75,   3.93,   0.91,   2.40,  -0.99,   0.21,   0.12,   0.63, 4.00, 0.00, 0.00, 0.00, 0.00, 1, 1,  9,  42.6264242, -88.1615854,   245.0, 2024,  2, 24, 18, 15,  4,        0,        0,   0,   0,   2.3,   1.1,   2.0,  0, 37,  0,  0,  0,  0, 35,  0, 36,  0,  0,  0, 31, 19, 42,  0, 38,  0, 37,  0, 34, 33,  0,  0,  0,  0, 29,  0,  0, 25,  0,  0
6, 11044, 2,N0CALL,     0.00, 3,   boost,   50.23,  99095.00,  187.31,    1.53,    4.56, 14.1, 3.99, 4.00, 4.00, -61.85,  -1.70,  -0.75,   3.93,   0.91,   2.40,  -0.99,   0.21,   0.12,   0.63, 4.00, 0.00, 0.00, 0.00, 0.00, 1, 1,  9,  42.6264242, -88.1615854,   245.0, 2024,  2, 24, 18, 15,  4,        0,        0,   0,   0,   2.3,   1.1,   2.0,  0, 37,  0,  0,  0,  0, 35,  0, 36,  0,  0,  0, 31, 19, 42,  0, 38,  0, 37,  0, 34, 33,  0,  0,  0,  0, 29,  0,  0, 25,  0,  0
6, 11044, 2,N0CALL,     0.00, 3,   boost,   50.23,  99095.00,  187.31,    1.53,    4.56, 14.1, 3.99, 4.00, 4.00, -61.85,  -1.70,  -0.75,   3.93,   0.91,   2.40,  -0.99,   0.21,   0.12,   0.63, 4.00, 0.00, 0.00, 0.00, 0.00, 1, 1,  9,  42.6264242, -88.1615854,   245.0, 2024,  2, 24, 18, 15,  4,        0,        0,   0,   0,   2.3,   1.1,   2.0,  0, 37,  0,  0,  0,  0, 35,  0, 36,  0,  0,  0, 31, 19, 42,  0, 38,  0, 37,  0, 34, 33,  0,  0,  0,  0, 29,  0,  0, 25,  0,  0
6, 11044, 2,N0CALL,     0.00, 3,   boost,   50.23,  99095.00,  187.31,    1.53,    4.56, 14.1, 3.99, 4.00, 4.00, -61.85,  -1.70,  -0.75,   3.93,   0.91,   2.40,  -0.99,   0.21,   0.12,   0.63, 4.00, 0.00, 0.00, 0.00, 0.00, 1, 1,  9,  42.6264242, -88.1615854,   245.0, 2024,  2, 24, 18, 15,  4,        0,        0,   0,   0,   2.3,   1.1,   2.0,  0, 37,  0,  0,  0,  0, 35,  0, 36,  0,  0,  0, 31, 19, 42,  0, 38,  0, 37,  0, 34, 33,  0,  0,  0,  0, 29,  0,  0, 25,  0,  0
6, 11044, 2,N0CALL,     0.00, 3,   boost,   50.23,  99095.00,  187.31,    1.53,    4.56, 14.1, 3.99, 4.00, 4.00, -61.85,  -1.70,  -0.75,   3.93,   0.91,   2.40,  -0.99,   0.21,   0.12,   0.63, 4.00, 0.00, 0.00, 0.00, 0.00, 1, 1,  9,  42.6264242, -88.1615854,   245.0, 2024,  2, 24, 18, 15,  4,        0,        0,   0,   0,   2.3,   1.1,   2.0,  0, 37,  0,  0,  0,  0, 35,  0, 36,  0,  0,  0, 31, 19, 42,  0, 38,  0, 37,  0, 34, 33,  0,  0,  0,  0, 29,  0,  0, 25,  0,  0
6, 11044, 2,N0CALL,     0.00, 3,   boost,   50.23,  99095.00,  187.31,    1.53,    4.56, 14.1, 3.99, 4.00, 4.00, -61.85,  -1.70,  -0.75,   3.93,   0.91,   2.40,  -0.99,   0.21,   0.12,   0.62, 4.00, 0.00, 0.00, 0.00, 0.00, 1, 1,  9,  42.6264242, -88.1615854,   245.0, 2024,  2, 24, 18, 15,  4,        0,        0,   0,   0,   2.3,   1.1,   2.0,  0, 37,  0,  0,  0,  0, 35,  0, 36,  0,  0,  0, 31, 19, 42,  0, 38,  0, 37,  0, 34, 33,  0,  0,  0,  0, 29,  0,  0, 25,  0,  0
6, 11044, 2,N0CALL,     0.00, 3,   boost,   50.23,  99095.00,  187.31,    1.53,    4.56, 14.1, 3.99, 4.00, 4.00, -61.85,  -1.70,  -0.75,   3.93,   0.91,   2.40,  -0.99,   0.21,   0.12,   0.63, 4.00, 0.00, 0.00, 0.00, 0.00, 1, 1,  9,  42.6264242, -88.1615854,   245.0, 2024,  2, 24, 18, 15,  4,        0,        0,   0,   0,   2.3,   1.1,   2.0,  0, 37,  0,  0,  0,  0, 35,  0, 36,  0,  0,  0, 31, 19, 42,  0, 38,  0, 37,  0, 34, 33,  0,  0,  0,  0, 29,  0,  0, 25,  0,  0
6, 11044, 2,N0CALL,     0.00, 3,   boost,   50.23,  99095.00,  187.31,    1.53,    4.56, 14.1, 3.99, 4.00, 4.00, -61.85,  -1.70,  -0.75,   3.93,   0.91,   2.40,  -0.99,   0.21,   0.12,   0.63, 4.00, 0.00, 0.00, 0.00, 0.00, 1, 1,  9,  42.6264242, -88.1615854,   245.0, 2024,  2, 24, 18, 15,  4,        0,        0,   0,   0,   2.3,   1.1,   2.0,  0, 37,  0,  0,  0,  0, 35,  0, 36,  0,  0,  0, 31, 19, 42,  0, 38,  0, 37,  0, 34, 33,  0,  0,  0,  0, 29,  0,  0, 25,  0,  0
6, 11044, 2,N0CALL,     0.00, 3,   boost,   50.23,  99095.00,  187.31,    1.53,    4.56, 14.1, 3.99, 4.00, 4.00, -61.85,  -1.70,  -0.75,   3.93,   0.91,   2.40,  -0.99,   0.21,   0.12,   0.63, 4.00, 0.00, 0.00, 0.00, 0.00, 1, 1,  9,  42.6264242, -88.1615854,   245.0, 2024,  2, 24, 18, 15,  4,        0,        0,   0,   0,   2.3,   1.1,   2.0,  0, 37,  0,  0,  0,  0, 35,  0, 36,  0,  0,  0, 31, 19, 42,  0, 38,  0, 37,  0, 34, 33,  0,  0,  0,  0, 29,  0,  0, 25,  0,  0
6, 11044, 2,N0CALL,     0.00, 3,   boost,   50.23,  99095.00,  187.31,    1.53,    4.56, 14.1, 3.99, 4.00, 4.00, -61.85,  -1.70,  -0.75,   3.93,   0.91,   2.40,  -0.99,   0.21,   0.12,   0.63, 4.00, 0.00, 0.00, 0.00, 0.00, 1, 1,  9,  42.6264242, -88.1615854,   245.0, 2024,  2, 24, 18, 15,  4,        0,        0,   0,   0,   2.3,   1.1,   2.0,  0, 37,  0,  0,  0,  0, 35,  0, 36,  0,  0,  0, 31, 19, 42,  0, 38,  0, 37,  0, 34, 33,  0,  0,  0,  0, 29,  0,  0, 25,  0,  0
6, 11044, 2,N0CALL,     0.00, 3,   boost,   50.23,  99095.00,  187.31,    1.53,    4.56, 14.1, 3.99, 4.00, 4.00, -61.85,  -1.70,  -0.75,   3.93,   0.91,   2.40,  -0.99,   0.21,   0.12,   0.63, 4.00, 0.00, 0.00, 0.00, 0.00, 1, 1,  9,  42.6264242, -88.1615854,   245.0, 2024,  2, 24, 18, 15,  4,        0,        0,   0,   0,   2.3,   1.1,   2.0,  0, 37,  0,  0,  0,  0, 35,  0, 36,  0,  0,  0, 31, 19, 42,  0, 38,  0, 37,  0, 34, 33,  0,  0,  0,  0, 29,  0,  0, 25,  0,  0
6, 11044, 2,N0CALL,     0.00, 3,   boost,   50.23,  99095.00,  187.31,    1.53,    4.56, 14.1, 3.99, 4.00, 4.00, -61.85,  -1.70,  -0.75,   3.93,   0.91,   2.40,  -0.99,   0.21,   0.12,   0.62, 4.00, 0.00, 0.00, 0.00, 0.00, 1, 1,  9,  42.6264242, -88.1615854,   245.0, 2024,  2, 24, 18, 15,  4,        0,        0,   0,   0,   2.3,   1.1,   2.0,  0, 37,  0,  0,  0,  0, 35,  0, 36,  0,  0,  0, 31, 19, 42,  0, 38,  0, 37,  0, 34, 33,  0,  0,  0,  0, 29,  0,  0, 25,  0,  0
6, 11044, 2,N0CALL,     0.00, 3,   boost,   50.23,  99095.00,  187.31,    1.53,    4.56, 14.1, 3.99, 4.00, 4.00, -61.85,  -1.70,  -0.75,   3.93,   0.91,   2.40,  -0.99,   0.21,   0.12,   0.60, 4.00, 0.00, 0.00, 0.00, 0.00, 1, 1,  9,  42.6264242, -88.1615854,   245.0, 2024,  2, 24, 18, 15,  4,        0,        0,   0,   0,   2.3,   1.1,   2.0,  0, 37,  0,  0,  0,  0, 35,  0, 36,  0,  0,  0, 31, 19, 42,  0, 38,  0, 37,  0, 34, 33,  0,  0,  0,  0, 29,  0,  0, 25,  0,  0
6, 11044, 2,N0CALL,     0.00, 3,   boost,   50.23,  99095.00,  187.31,    1.53,    4.56, 14.1, 3.99, 4.00, 4.00, -61.85,  -1.70,  -0.75,   3.93,   0.91,   2.40,  -0.99,   0.21,   0.12,   0.61, 4.00, 0.00, 0.00, 0.00, 0.00, 1, 1,  9,  42.6264242, -88.1615854,   245.0, 2024,  2, 24, 18, 15,  4,        0,        0,   0,   0,   2.3,   1.1,   2.0,  0, 37,  0,  0,  0,  0, 35,  0, 36,  0,  0,  0, 31, 19, 42,  0, 38,  0, 37,  0, 34, 33,  0,  0,  0,  0, 29,  0,  0, 25,  0,  0
6, 11044, 2,N0CALL,     0.00, 3,   boost,   50.23,  99095.00,  187.31,    1.53,    4.56, 14.1, 3.99, 4.00, 4.00, -61.85,  -1.70,  -0.75,   3.93,   0.91,   2.40,  -0.99,   0.21,   0.12,   0.59, 4.00, 0.00, 0.00, 0.00, 0.00, 1, 1,  9,  42.6264242, -88.1615854,   245.0, 2024,  2, 24, 18, 15,  4,        0,        0,   0,   0,   2.3,   1.1,   2.0,  0, 37,  0,  0,  0,  0, 35,  0, 36,  0,  0,  0, 31, 19, 42,  0, 38,  0, 37,  0, 34, 33,  0,  0,  0,  0, 29,  0,  0, 25,  0,  0
6, 11044, 2,N0CALL,     0.00, 3,   boost,   50.23,  99095.00,  187.31,    1.53,    4.56, 14.1, 3.99, 4.00, 4.00, -61.85,  -1.70,  -0.75,   3.93,   0.91,   2.40,  -0.99,   0.21,   0.12,   0.55, 4.00, 0.00, 0.00, 0.00, 0.00, 1, 1,  9,  42.6264242, -88.1615854,   245.0, 2024,  2, 24, 18, 15,  4,        0,        0,   0,   0,   2.3,   1.1,   2.0,  0, 37,  0,  0,  0,  0, 35,  0, 36,  0,  0,  0, 31, 19, 42,  0, 38,  0, 37,  0, 34, 33,  0,  0,  0,  0, 29,  0,  0, 25,  0,  0
6, 11044, 2,N0CALL,     0.00, 3,   boost,   50.23,  99095.00,  187.31,    1.53,    4.56, 14.1, 3.99, 4.00, 4.00, -61.85,  -1.70,  -0.75,   3.93,   0.91,   2.40,  -0.99,   0.21,   0.12,   0.56, 4.00, 0.00, 0.00, 0.00, 0.00, 1, 1,  9,  42.6264242, -88.1615854,   245.0, 2024,  2, 24, 18, 15,  4,        0,        0,   0,   0,   2.3,   1.1,   2.0,  0, 37,  0,  0,  0,  0, 35,  0, 36,  0,  0,  0, 31, 19, 42,  0, 38,  0, 37,  0, 34, 33,  0,  0,  0,  0, 29,  0,  0, 25,  0,  0
6, 11044, 2,N0CALL,     0.00, 3,   boost,   50.23,  99095.00,  187.31,    1.53,    4.56, 14.1, 3.99, 4.00, 4.00, -61.85,  -1.70,  -0.75,   3.93,   0.91,   2.40,  -0.99,   0.21,   0.12,   0.57, 4.00, 0.00, 0.00, 0.00, 0.00, 1, 1,  9,  42.6264242, -88.1615854,   245.0, 2024,  2, 24, 18, 15,  4,        0,        0,   0,   0,   2.3,   1.1,   2.0,  0, 37,  0,  0,  0,  0, 35,  0, 36,  0,  0,  0, 31, 19, 42,  0, 38,  0, 37,  0, 34, 33,  0,  0,  0,  0, 29,  0,  0, 25,  0,  0
6, 11044, 2,N0CALL,     0.00, 3,   boost,   50.23,  99095.00,  187.31,    1.53,    4.56, 14.1, 3.99, 4.00, 4.00, -61.85,  -1.70,  -0.75,   3.93,   0.91,   2.40,  -0.99,   0.21,   0.12,   0.57, 4.00, 0.00, 0.00, 0.00, 0.00, 1, 1,  9,  42.6264242, -88.1615854,   245.0, 2024,  2, 24, 18, 15,  4,        0,        0,   0,   0,   2.3,   1.1,   2.0,  0, 37,  0,  0,  0,  0, 35,  0, 36,  0,  0,  0, 31, 19, 42,  0, 38,  0, 37,  0, 34, 33,  0,  0,  0,  0, 29,  0,  0, 25,  0,  0
6, 11044, 2,N0CALL,     0.00, 3,   boost,   50.23,  99095.00,  187.31,    1.53,    4.56, 14.1, 3.99, 4.00, 4.00, -61.85,  -1.70,  -0.75,   3.93,   0.91,   2.40,  -0.99,   0.21,   0.12,   0.56, 4.00, 0.00, 0.00, 0.00, 0.00, 1, 1,  9,  42.6264242, -88.1615854,   245.0, 2024,  2, 24, 18, 15,  4,        0,        0,   0,   0,   2.3,   1.1,   2.0,  0, 37,  0,  0,  0,  0, 35,  0, 36,  0,  0,  0, 31, 19, 42,  0, 38,  0, 37,  0, 34, 33,  0,  0,  0,  0, 29,  0,  0, 25,  0,  0
6, 11044, 2,N0CALL,     0.00, 3,   boost,   50.23,  99095.00,  187.31,    1.53,    4.56, 14.1, 3.99, 4.00, 4.00, -61.85,  -1.70,  -0.75,   3.93,   0.91,   2.40,  -0.99,   0.21,   0.12,   0.56, 4.00, 0.00, 0.00, 0.00, 0.00, 1, 1,  9,  42.6264242, -88.1615854,   245.0, 2024,  2, 24, 18, 15,  4,        0,        0,   0,   0,   2.3,   1.1,   2.0,  0, 37,  0,  0,  0,  0, 35,  0, 36,  0,  0,  0, 31, 19, 42,  0, 38,  0, 37,  0, 34, 33,  0,  0,  0,  0, 29,  0,  0, 25,  0,  0
6, 11044, 2,N0CALL,     0.00, 3,   boost,   50.23,  99095.00,  187.31,    1.53,    4.56, 14.1, 3.99, 4.00, 4.00, -61.85,  -1.70,  -0.75,   3.93,   0.91,   2.40,  -0.99,   0.21,   0.12,   0.58, 4.00, 0.00, 0.00, 0.00, 0.00, 1, 1,  9,  42.6264242, -88.1615854,   245.0, 2024,  2, 24, 18, 15,  4,        0,        0,   0,   0,   2.3,   1.1,   2.0,  0, 37,  0,  0,  0,  0, 35,  0, 36,  0,  0,  0, 31, 19, 42,  0, 38,  0, 37,  0, 34, 33,  0,  0,  0,  0, 29,  0,  0, 25,  0,  0
6, 11044, 2,N0CALL,     0.01, 3,   boost,   50.23,  99089.00,  187.81,    2.03,    5.06, 14.1, 3.99, 4.00, 4.00, -61.81,  -0.53,   0.64,   5.22,  -0.19,   1.12,  -0.99,   0.21,   0.12,   0.57, 4.00, 0.00, 0.00, 0.00, 0.00, 1, 1,  9,  42.6264242, -88.1615854,   245.0, 2024,  2, 24, 18, 15,  4,        0,        0,   0,   0,   2.3,   1.1,   2.0,  0, 37,  0,  0,  0,  0, 35,  0, 36,  0,  0,  0, 31, 19, 42,  0, 38,  0, 37,  0, 34, 33,  0,  0,  0,  0, 29,  0,  0, 25,  0,  0
6, 11044, 2,N0CALL,     0.01, 3,   boost,   50.23,  99089.00,  187.81,    2.03,    5.06, 14.1, 3.99, 4.00, 4.00, -61.81,  -0.53,   0.64,   5.22,  -0.19,   1.12,  -0.99,   0.21,   0.12,   0.57, 4.00, 0.00, 0.00, 0.00, 0.00, 1, 1,  9,  42.6264242, -88.1615854,   245.0, 2024,  2, 24, 18, 15,  4,        0,        0,   0,   0,   2.3,   1.1,   2.0,  0, 37,  0,  0,  0,  0, 35,  0, 36,  0,  0,  0, 31, 19, 42,  0, 38,  0, 37,  0, 34, 33,  0,  0,  0,  0, 29,  0,  0, 25,  0,  0
6, 11044, 2,N0CALL,     0.02, 3,   boost,   50.23,  99089.00,  187.81,    2.03,    5.57, 14.1, 3.98, 3.98, 3.97, -62.22,   1.30,   0.89,   4.97,  -0.80,   1.36,  -0.99,   0.22,   0.12,   0.57, 3.96, 0.00, 0.00, 0.00, 0.00, 1, 1,  9,  42.6264242, -88.1615854,   245.0, 2024,  2, 24, 18, 15,  4,        0,        0,   0,   0,   2.3,   1.1,   2.0,  0, 37,  0,  0,  0,  0, 35,  0, 36,  0,  0,  0, 31, 19, 42,  0, 38,  0, 37,  0, 34, 33,  0,  0,  0,  0, 29,  0,  0, 25,  0,  0
6, 11044, 2,N0CALL,     0.02, 3,   boost,   50.23,  99089.00,  187.81,    2.03,    5.57, 14.1, 3.98, 3.98, 3.97, -62.22,   1.30,   0.89,   4.97,  -0.80,   1.36,  -0.99,   0.22,   0.12,   0.57, 3.96, 0.00, 0.00, 0.00, 0.00, 1, 1,  9,  42.6264242, -88.1615854,   245.0, 2024,  2, 24, 18, 15,  4,        0,        0,   0,   0,   2.3,   1.1,   2.0,  0, 37,  0,  0,  0,  0, 35,  0, 36,  0,  0,  0, 31, 19, 42,  0, 38,  0, 37,  0, 34, 33,  0,  0,  0,  0, 29,  0,  0, 25,  0,  0
6, 11044, 2,N0CALL,     0.03, 3,   boost,   52.14,  99106.00,  186.37,    0.59,    6.09, 14.1, 3.98, 3.98, 3.97, -62.99,  -1.65,  -1.16,  -2.41,  -1.17,   1.61,  -0.99,   0.22,   0.12,   0.56, 3.96, 0.00, 0.00, 0.00, 0.00, 1, 1,  9,  42.6264242, -88.1615854,   245.0, 2024,  2, 24, 18, 15,  4,        0,        0,   0,   0,   2.3,   1.1,   2.0,  0, 37,  0,  0,  0,  0, 35,  0, 36,  0,  0,  0, 31, 19, 42,  0, 38,  0, 37,  0, 34, 33,  0,  0,  0,  0, 29,  0,  0, 25,  0,  0
6, 11044, 2,N0CALL,     0.04, 3,   boost,   52.62,  99106.00,  186.37,    0.59,    6.61, 14.1, 3.98, 3.98, 3.97, -63.80,  -1.70,   1.30,   0.39,  -1.53,   0.45,  -0.99,   0.22,   0.12,   0.54, 3.96, 0.00, 0.00, 0.00, 0.00, 1, 1,  9,  42.6264242, -88.1615854,   245.0, 2024,  2, 24, 18, 15,  4,        0,        0,   0,   0,   2.3,   1.1,   2.0,  0, 37,  0,  0,  0,  0, 35,  0, 36,  0,  0,  0, 31, 19, 42,  0, 38,  0, 37,  0, 34, 33,  0,  0,  0,  0, 29,  0,  0, 25,  0,  0
6, 11044, 2,N0CALL,     0.05, 3,   boost,   54.06,  99100.00,  186.88,    1.10,    7.15, 14.1, 3.98, 3.98, 3.97, -64.09,  -0.68,   1.57,  -3.39,   0.05,   0.08,  -0.99,   0.22,   0.12,   0.54, 3.96, 0.00, 0.00, 0.00, 0.00, 1, 1,  9,  42.6264242, -88.1615854,   245.0, 2024,  2, 24, 18, 15,  4,        0,        0,   0,   0,   2.3,   1.1,   2.0,  0, 37,  0,  0,  0,  0, 35,  0, 36,  0,  0,  0, 31, 19, 42,  0, 38,  0, 37,  0, 34, 33,  0,  0,  0,  0, 29,  0,  0, 25,  0,  0
6, 11044, 2,N0CALL,     0.06, 3,   boost,   56.45,  99100.00,  186.88,    1.10,    7.70, 14.1, 3.98, 3.98, 3.97, -64.42,  -1.73,   0.61,  -3.94,  -1.35,  -0.41,  -0.99,   0.22,   0.12,   0.53, 3.96, 0.00, 0.00, 0.00, 0.00, 1, 1,  9,  42.6264242, -88.1615854,   245.0, 2024,  2, 24, 18, 15,  4,        0,        0,   0,   0,   2.3,   1.1,   2.0,  0, 37,  0,  0,  0,  0, 35,  0, 36,  0,  0,  0, 31, 19, 42,  0, 38,  0, 37,  0, 34, 33,  0,  0,  0,  0, 29,  0,  0, 25,  0,  0
6, 11044, 2,N0CALL,     0.07, 3,   boost,   55.97,  99111.00,  185.95,    0.17,    8.25, 14.1, 3.98, 3.98, 3.97, -65.40,  -0.04,   1.03,  -6.99,  -2.08,  -1.14,  -0.99,   0.21,   0.12,   0.51, 3.96, 0.00, 0.00, 0.00, 0.00, 1, 1,  9,  42.6264242, -88.1615854,   245.0, 2024,  2, 24, 18, 15,  4,        0,        0,   0,   0,   2.3,   1.1,   2.0,  0, 37,  0,  0,  0,  0, 35,  0, 36,  0,  0,  0, 31, 19, 42,  0, 38,  0, 37,  0, 34, 33,  0,  0,  0,  0, 29,  0,  0, 25,  0,  0
6, 11044, 2,N0CALL,     0.08, 3,   boost,   57.40,  99111.00,  185.95,    0.17,    8.81, 14.1, 3.98, 3.98, 3.97, -65.90,  -0.92,   1.44,  -7.78,  -2.57,  -0.78,  -0.99,   0.21,   0.12,   0.48, 3.96, 0.00, 0.00, 0.00, 0.00, 1, 1,  9,  42.6264242, -88.1615854,   245.0, 2024,  2, 24, 18, 15,  4,        0,        0,   0,   0,   2.3,   1.1,   2.0,  0, 37,  0,  0,  0,  0, 35,  0, 36,  0,  0,  0, 31, 19, 42,  0, 38,  0, 37,  0, 34, 33,  0,  0,  0,  0, 29,  0,  0, 25,  0,  0
6, 11044, 2,N0CALL,     0.09, 3,   boost,   56.93,  99099.00,  186.97,    1.19,    9.38, 14.1, 3.98, 3.98, 3.97, -67.11,  -2.47,   0.73,  -9.37,  -2.63,  -0.35,  -0.99,   0.21,   0.12,   0.46, 3.96, 0.00, 0.00, 0.00, 0.00, 1, 1,  9,  42.6264242, -88.1615854,   245.0, 2024,  2, 24, 18, 15,  4,        0,        0,   0,   0,   2.3,   1.1,   2.0,  0, 37,  0,  0,  0,  0, 35,  0, 36,  0,  0,  0, 31, 19, 42,  0, 38,  0, 37,  0, 34, 33,  0,  0,  0,  0, 29,  0,  0, 25,  0,  0
6, 11044, 2,N0CALL,     0.10, 3,   boost,   55.49,  99099.00,  186.97,    1.19,    9.95, 14.1, 3.98, 3.98, 3.97, -67.68,  -4.19,  -0.85,  -9.37,  -2.63,   0.26,  -0.99,   0.21,   0.12,   0.43, 3.96, 0.00, 0.00, 0.00, 0.00, 1, 1,  9,  42.6264242, -88.1615854,   245.0, 2024,  2, 24, 18, 15,  4,        0,        0,   0,   0,   2.3,   1.1,   2.0,  0, 37,  0,  0,  0,  0, 35,  0, 36,  0,  0,  0, 31, 19, 42,  0, 38,  0, 37,  0, 34, 33,  0,  0,  0,  0, 29,  0,  0, 25,  0,  0
6, 11044, 2,N0CALL,     0.11, 3,   boost,   57.40,  99093.00,  187.48,    1.70,   10.52, 14.1, 3.98, 3.98, 3.97, -67.60,  -2.92,  -2.34, -14.01,  -1.90,   0.20,  -0.99,   0.21,   0.12,   0.41, 3.96, 0.00, 0.00, 0.00, 0.00, 1, 1,  9,  42.6264242, -88.1615854,   245.0, 2024,  2, 24, 18, 15,  4,        0,        0,   0,   0,   2.3,   1.1,   2.0,  0, 37,  0,  0,  0,  0, 35,  0, 36,  0,  0,  0, 31, 19, 42,  0, 38,  0, 37,  0, 34, 33,  0,  0,  0,  0, 29,  0,  0, 25,  0,  0
6, 11044, 2,N0CALL,     0.12, 3,   boost,   60.75,  99093.00,  187.48,    1.70,   11.10, 14.1, 3.98, 3.98, 3.97, -68.30,   0.09,   1.19, -11.39,  -0.92,  -0.16,  -0.99,   0.21,   0.13,   0.40, 3.96, 0.00, 0.00, 0.00, 0.00, 1, 1,  9,  42.6264242, -88.1615854,   245.0, 2024,  2, 24, 18, 15,  4,        0,        0,   0,   0,   2.3,   1.1,   2.0,  0, 37,  0,  0,  0,  0, 35,  0, 36,  0,  0,  0, 31, 19, 42,  0, 38,  0, 37,  0, 34, 33,  0,  0,  0,  0, 29,  0,  0, 25,  0,  0
6, 11044, 2,N0CALL,     0.13, 3,   boost,   57.88,  99119.00,  185.27,   -0.51,   11.68, 14.1, 3.98, 3.98, 3.97, -72.76,  -3.13,  -0.29, -10.84,  -1.65,   0.32,  -0.98,   0.21,   0.12,   0.39, 3.96, 0.00, 0.00, 0.00, 0.00, 1, 1,  9,  42.6264242, -88.1615854,   245.0, 2024,  2, 24, 18, 15,  4,        0,        0,   0,   0,   2.3,   1.1,   2.0,  0, 37,  0,  0,  0,  0, 35,  0, 36,  0,  0,  0, 31, 19, 42,  0, 38,  0, 37,  0, 34, 33,  0,  0,  0,  0, 29,  0,  0, 25,  0,  0
6, 11044, 2,N0CALL,     0.14, 3,   boost,   57.40,  99119.00,  185.27,   -0.51,   12.26, 14.1, 3.98, 3.98, 3.97, -62.64,  -2.82,  -1.57,  -8.21,  -2.63,   1.42,  -0.98,   0.21,   0.12,   0.36, 3.96, 0.00, 0.00, 0.00, 0.00, 1, 1,  9,  42.6264242, -88.1615854,   245.0, 2024,  2, 24, 18, 15,  4,        0,        0,   0,   0,   2.3,   1.1,   2.0,  0, 37,  0,  0,  0,  0, 35,  0, 36,  0,  0,  0, 31, 19, 42,  0, 38,  0, 37,  0, 34, 33,  0,  0,  0,  0, 29,  0,  0, 25,  0,  0
6, 11044, 2,N0CALL,     0.15, 3,   boost,   56.93,  99087.00,  187.98,    2.20,   12.83, 14.1, 3.98, 3.98, 3.97, -70.54,  -1.24,   0.22,  -6.93,  -0.74,   0.51,  -0.99,   0.21,   0.12,   0.36, 3.96, 0.00, 0.00, 0.00, 0.00, 1, 1,  9,  42.6264242, -88.1615854,   245.0, 2024,  2, 24, 18, 15,  4,        0,        0,   0,   0,   2.3,   1.1,   2.0,  0, 37,  0,  0,  0,  0, 35,  0, 36,  0,  0,  0, 31, 19, 42,  0, 38,  0, 37,  0, 34, 33,  0,  0,  0,  0, 29,  0,  0, 25,  0,  0
6, 11044, 2,N0CALL,     0.16, 3,   boost,   55.97,  99087.00,  187.98,    2.20,   13.40, 14.1, 3.98, 3.98, 3.97, -69.28,   2.82,   2.05,  -6.81,   0.48,  -0.47,  -0.98,   0.21,   0.12,   0.36, 3.96, 0.00, 0.00, 0.00, 0.00, 1, 1,  9,  42.6264242, -88.1615854,   245.0, 2024,  2, 24, 18, 15,  4,        0,        0,   0,   0,   2.3,   1.1,   2.0,  0, 37,  0,  0,  0,  0, 35,  0, 36,  0,  0,  0, 31, 19, 42,  0, 38,  0, 37,  0, 34, 33,  0,  0,  0,  0, 29,  0,  0, 25,  0,  0
6, 11044, 2,N0CALL,     0.17, 3,   boost,   56.93,  99112.00,  185.87,    0.08,   13.97, 14.1, 3.98, 3.98, 3.97, -68.79,   3.38,   2.05,  -0.64,  -0.31,  -0.23,  -0.99,   0.21,   0.12,   0.36, 3.96, 0.00, 0.00, 0.00, 0.00, 1, 1,  9,  42.6264242, -88.1615854,   245.0, 2024,  2, 24, 18, 15,  4,        0,        0,   0,   0,   2.3,   1.1,   2.0,  0, 37,  0,  0,  0,  0, 35,  0, 36,  0,  0,  0, 31, 19, 42,  0, 38,  0, 37,  0, 34, 33,  0,  0,  0,  0, 29,  0,  0, 25,  0,  0
6, 11044, 2,N0CALL,     0.18, 3,   boost,   57.40,  99112.00,  185.87,    0.08,   14.55, 14.1, 3.98, 3.98, 3.97, -68.97,   0.07,   0.31,  14.43,  -0.49,  -0.65,  -0.99,   0.21,   0.12,   0.35, 3.96, 0.00, 0.00, 0.00, 0.00, 1, 1,  9,  42.6264242, -88.1615854,   245.0, 2024,  2, 24, 18, 15,  4,        0,        0,   0,   0,   2.3,   1.1,   2.0,  0, 37,  0,  0,  0,  0, 35,  0, 36,  0,  0,  0, 31, 19, 42,  0, 38,  0, 37,  0, 34, 33,  0,  0,  0,  0, 29,  0,  0, 25,  0,  0
6, 11044, 2,N0CALL,     0.19, 3,   boost,   58.36,  99087.00,  187.98,    2.20,   15.12, 14.1, 3.98, 3.98, 3.97, -68.83,  -0.72,  -0.89,  14.07,   1.15,  -1.39,  -0.99,   0.21,   0.12,   0.36, 3.96, 0.00, 0.00, 0.00, 0.00, 1, 1,  9,  42.6264242, -88.1615854,   245.0, 2024,  2, 24, 18, 15,  4,        0,        0,   0,   0,   2.3,   1.1,   2.0,  0, 37,  0,  0,  0,  0, 35,  0, 36,  0,  0,  0, 31, 19, 42,  0, 38,  0, 37,  0, 34, 33,  0,  0,  0,  0, 29,  0,  0, 25,  0,  0
6, 11044, 2,N0CALL,     0.20, 3,   boost,   58.84,  99087.00,  187.98,    2.20,   15.70, 14.1, 3.98, 3.98, 3.97, -69.27,  -1.11,   0.02,  14.80,   1.52,  -2.85,  -0.99,   0.21,   0.12,   0.37, 3.96, 0.00, 0.00, 0.00, 0.00, 1, 1,  9,  42.6264242, -88.1615854,   245.0, 2024,  2, 24, 18, 15,  4,        0,        0,   0,   0,   2.3,   1.1,   2.0,  0, 37,  0,  0,  0,  0, 35,  0, 36,  0,  0,  0, 31, 19, 42,  0, 38,  0, 37,  0, 34, 33,  0,  0,  0,  0, 29,  0,  0, 25,  0,  0
6, 11044, 2,N0CALL,     0.21, 3,   boost,   56.45,  99073.00,  189.17,    3.39,   16.27, 14.1, 3.98, 3.98, 3.97, -70.21,  -0.88,  -0.29,  22.37,   1.95,  -2.97,  -0.99,   0.21,   0.12,   0.39, 3.96, 0.00, 0.00, 0.00, 0.00, 1, 1,  9,  42.6264242, -88.1615854,   245.0, 2024,  2, 24, 18, 15,  4,        0,        0,   0,   0,   2.3,   1.1,   2.0,  0, 37,  0,  0,  0,  0, 35,  0, 36,  0,  0,  0, 31, 19, 42,  0, 38,  0, 37,  0, 34, 33,  0,  0,  0,  0, 29,  0,  0, 25,  0,  0
6, 11044, 2,N0CALL,     0.22, 3,   boost,   56.45,  99073.00,  189.17,    3.39,   16.85, 14.1, 3.98, 3.98, 3.97, -70.44,  -1.06,  -0.63,  23.83,   0.85,  -0.84,  -0.99,   0.21,   0.12,   0.40, 3.96, 0.00, 0.00, 0.00, 0.00, 1, 1,  9,  42.6264242, -88.1615854,   245.0, 2024,  2, 24, 18, 15,  4,        0,        0,   0,   0,   2.3,   1.1,   2.0,  0, 37,  0,  0,  0,  0, 35,  0, 36,  0,  0,  0, 31, 19, 42,  0, 38,  0, 37,  0, 34, 33,  0,  0,  0,  0, 29,  0,  0, 25,  0,  0
6, 11044, 2,N0CALL,     0.23, 3,   boost,   58.36,  99079.00,  188.66,    2.88,   17.43, 14.1, 3.98, 3.98, 3.97, -70.20,   0.44,   0.56,  23.53,   2.37,  -1.45,  -0.99,   0.21,   0.12,   0.42, 3.96, 0.00, 0.00, 0.00, 0.00, 1, 1,  9,  42.6264242, -88.1615854,   245.0, 2024,  2, 24, 18, 15,  4,        0,        0,   0,   0,   2.3,   1.1,   2.0,  0, 37,  0,  0,  0,  0, 35,  0, 36,  0,  0,  0, 31, 19, 42,  0, 38,  0, 37,  0, 34, 33,  0,  0,  0,  0, 29,  0,  0, 25,  0,  0
6, 11044, 2,N0CALL,     0.24, 3,   boost,   57.88,  99079.00,  188.66,    2.88,   18.02, 14.1, 3.98, 3.98, 3.97, -70.95,   2.63,   3.06,  24.14,   2.68,  -2.24,  -0.99,   0.21,   0.12,   0.45, 3.96, 0.00, 0.00, 0.00, 0.00, 1, 1,  9,  42.6264242, -88.1615854,   245.0, 2024,  2, 24, 18, 15,  4,        0,        0,   0,   0,   2.3,   1.1,   2.0,  0, 37,  0,  0,  0,  0, 35,  0, 36,  0,  0,  0, 31, 19, 42,  0, 38,  0, 37,  0, 34, 33,  0,  0,  0,  0, 29,  0,  0, 25,  0,  0
6, 11044, 2,N0CALL,     0.25, 3,   boost,   61.71,  99095.00,  187.31,    1.53,   18.61, 14.1, 3.98, 3.98, 3.97, -71.38,  -0.29,   0.06,  27.19,   2.56,  -1.45,  -0.99,   0.21,   0.12,   0.48, 3.96, 0.00, 0.00, 0.00, 0.00, 1, 1,  9,  42.6264242, -88.1615854,   245.0, 2024,  2, 24, 18, 15,  4,        0,        0,   0,   0,   2.3,   1.1,   2.0,  0, 37,  0,  0,  0,  0, 35,  0, 36,  0,  0,  0, 31, 19, 42,  0, 38,  0, 37,  0, 34, 33,  0,  0,  0,  0, 29,  0,  0, 25,  0,  0
6, 11044, 2,N0CALL,     0.26, 3,   boost,   60.28,  99095.00,  187.31,    1.53,   19.21, 14.1, 3.98, 3.98, 3.97, -71.43,  -3.07,  -2.87,  26.82,   2.37,  -0.23,  -0.98,   0.22,   0.12,   0.50, 3.96, 0.00, 0.00, 0.00, 0.00, 1, 1,  9,  42.6264242, -88.1615854,   245.0, 2024,  2, 24, 18, 15,  4,        0,        0,   0,   0,   2.3,   1.1,   2.0,  0, 37,  0,  0,  0,  0, 35,  0, 36,  0,  0,  0, 31, 19, 42,  0, 38,  0, 37,  0, 34, 33,  0,  0,  0,  0, 29,  0,  0, 25,  0,  0
6, 11044, 2,N0CALL,     0.27, 3,   boost,   61.23,  99084.00,  188.24,    2.46,   19.81, 14.1, 3.98, 3.98, 3.97, -71.69,  -1.95,  -1.38,  26.46,   1.52,   0.38,  -0.99,   0.21,   0.12,   0.52, 3.96, 0.00, 0.00, 0.00, 0.00, 1, 1,  9,  42.6264242, -88.1615854,   245.0, 2024,  2, 24, 18, 15,  4,        0,        0,   0,   0,   2.3,   1.1,   2.0,  0, 37,  0,  0,  0,  0, 35,  0, 36,  0,  0,  0, 31, 19, 42,  0, 38,  0, 37,  0, 34, 33,  0,  0,  0,  0, 29,  0,  0, 25,  0,  0
6, 11044, 2,N0CALL,     0.28, 3,   boost,   59.80,  99084.00,  188.24,    2.46,   20.42, 14.1, 3.98, 3.98, 3.97, -71.74,  -2.31,  -0.53,  27.31,   2.01,   1.12,  -0.99,   0.21,   0.12,   0.54, 3.96, 0.00, 0.00, 0.00, 0.00, 1, 1,  9,  42.6264242, -88.1615854,   245.0, 2024,  2, 24, 18, 15,  4,        0,        0,   0,   0,   2.3,   1.1,   2.0,  0, 37,  0,  0,  0,  0, 35,  0, 36,  0,  0,  0, 31, 19, 42,  0, 38,  0, 37,  0, 34, 33,  0,  0,  0,  0, 29,  0,  0, 25,  0,  0
6, 11044, 2,N0CALL,     0.29, 3,   boost,   60.75,  99073.00,  189.17,    3.39,   21.03, 14.1, 3.98, 3.98, 3.97, -71.99,  -2.16,  -0.17,  27.31,   2.62,   1.54,  -0.98,   0.22,   0.12,   0.56, 3.96, 0.00, 0.00, 0.00, 0.00, 1, 1,  9,  42.6264242, -88.1615854,   245.0, 2024,  2, 24, 18, 15,  4,        0,        0,   0,   0,   2.3,   1.1,   2.0,  0, 37,  0,  0,  0,  0, 35,  0, 36,  0,  0,  0, 31, 19, 42,  0, 38,  0, 37,  0, 34, 33,  0,  0,  0,  0, 29,  0,  0, 25,  0,  0
6, 11044, 2,N0CALL,     0.30, 3,   boost,   61.23,  99073.00,  189.17,    3.39,   21.63, 14.1, 3.98, 3.98, 3.97, -72.32,  -1.52,   0.96,  27.43,   2.62,   2.22,  -0.98,   0.22,   0.12,   0.59, 3.96, 0.00, 0.00, 0.00, 0.00, 1, 1,  9,  42.6264242, -88.1615854,   245.0, 2024,  2, 24, 18, 15,  4,        0,        0,   0,   0,   2.3,   1.1,   2.0,  0, 37,  0,  0,  0,  0, 35,  0, 36,  0,  0,  0, 31, 19, 42,  0, 38,  0, 37,  0, 34, 33,  0,  0,  0,  0, 29,  0,  0, 25,  0,  0
6, 11044, 2,N0CALL,     0.31, 3,   boost,   59.80,  99071.00,  189.34,    3.56,   22.24, 14.1, 3.98, 3.98, 3.97, -72.44,  -1.44,   1.07,  28.59,   2.68,   2.89,  -0.99,   0.22,   0.12,   0.62, 3.96, 0.00, 0.00, 0.00, 0.00, 1, 1,  9,  42.6264242, -88.1615854,   245.0, 2024,  2, 24, 18, 15,  4,        0,        0,   0,   0,   2.3,   1.1,   2.0,  0, 37,  0,  0,  0,  0, 35,  0, 36,  0,  0,  0, 31, 19, 42,  0, 38,  0, 37,  0, 34, 33,  0,  0,  0,  0, 29,  0,  0, 25,  0,  0
6, 11044, 2,N0CALL,     0.32, 3,   boost,   59.32,  99071.00,  189.34,    3.56,   22.84, 14.1, 3.98, 3.98, 3.97, -72.71,  -1.37,   0.37,  27.98,   2.68,   3.56,  -0.99,   0.22,   0.12,   0.65, 3.96, 0.00, 0.00, 0.00, 0.00, 1, 1,  9,  42.6264242, -88.1615854,   245.0, 2024,  2, 24, 18, 15,  4,        0,        0,   0,   0,   2.3,   1.1,   2.0,  0, 37,  0,  0,  0,  0, 35,  0, 36,  0,  0,  0, 31, 19, 42,  0, 38,  0, 37,  0, 34, 33,  0,  0,  0,  0, 29,  0,  0, 25,  0,  0
6, 11044, 2,N0CALL,     0.33, 3,   boost,   61.71,  99059.00,  190.36,    4.58,   23.45, 14.1, 3.98, 3.98, 3.97, -72.76,  -1.63,   0.61,  28.78,   2.98,   4.29,  -0.99,   0.22,   0.12,   0.68, 3.96, 0.00, 0.00, 0.00, 0.00, 1, 1,  9,  42.6264242, -88.1615854,   245.0, 2024,  2, 24, 18, 15,  4,        0,        0,   0,   0,   2.3,   1.1,   2.0,  0, 37,  0,  0,  0,  0, 35,  0, 36,  0,  0,  0, 31, 19, 42,  0, 38,  0, 37,  0, 34, 33,  0,  0,  0,  0, 29,  0,  0, 25,  0,  0
6, 11044, 2,N0CALL,     0.34, 3,   boost,   62.67,  99059.00,  190.36,    4.58,   24.07, 14.1, 3.95, 3.97, 3.97, -73.03,  -1.88,   0.93,  28.53,   2.74,   4.84,  -0.99,   0.22,   0.12,   0.72, 3.98, 0.00, 0.00, 0.00, 0.00, 1, 1,  9,  42.6264242, -88.1615854,   245.0, 2024,  2, 24, 18, 15,  4,        0,        0,   0,   0,   2.3,   1.1,   2.0,  0, 37,  0,  0,  0,  0, 35,  0, 36,  0,  0,  0, 31, 19, 42,  0, 38,  0, 37,  0, 34, 33,  0,  0,  0,  0, 29,  0,  0, 25,  0,  0
6, 11044, 2,N0CALL,     0.34, 3,   boost,   62.67,  99059.00,  190.36,    4.58,   24.07, 14.1, 3.95, 3.97, 3.97, -73.03,  -1.88,   0.93,  28.53,   2.74,   4.84,  -0.99,   0.22,   0.12,   0.72, 3.98, 0.00, 0.00, 0.00, 0.00, 1, 1,  9,  42.6264242, -88.1615854,   245.0, 2024,  2, 24, 18, 15,  4,        0,        0,   0,   0,   2.3,   1.1,   2.0,  0, 37,  0,  0,  0,  0, 35,  0, 36,  0,  0,  0, 31, 19, 42,  0, 38,  0, 37,  0, 34, 33,  0,  0,  0,  0, 29,  0,  0, 25,  0,  0
6, 11044, 2,N0CALL,     0.35, 3,   boost,   62.19,  99061.00,  190.19,    4.41,   24.68, 14.1, 3.95, 3.97, 3.97, -73.15,  -1.20,   0.94,  29.33,   3.23,   5.57,  -0.98,   0.22,   0.11,   0.76, 3.98, 0.00, 0.00, 0.00, 0.00, 1, 1,  9,  42.6264242, -88.1615854,   245.0, 2024,  2, 24, 18, 15,  4,        0,        0,   0,   0,   2.3,   1.1,   2.0,  0, 37,  0,  0,  0,  0, 35,  0, 36,  0,  0,  0, 31, 19, 42,  0, 38,  0, 37,  0, 34, 33,  0,  0,  0,  0, 29,  0,  0, 25,  0,  0
6, 11044, 2,N0CALL,     0.36, 3,   boost,   60.75,  99061.00,  190.19,    4.41,   25.30, 14.1, 3.95, 3.97, 3.97, -73.37,  -0.75,   0.93,  29.14,   3.11,   6.18,  -0.98,   0.22,   0.11,   0.81, 3.98, 0.00, 0.00, 0.00, 0.00, 1, 1,  9,  42.6264242, -88.1615854,   245.0, 2024,  2, 24, 18, 15,  4,        0,        0,   0,   0,   2.3,   1.1,   2.0,  0, 37,  0,  0,  0,  0, 35,  0, 36,  0,  0,  0, 31, 19, 42,  0, 38,  0, 37,  0, 34, 33,  0,  0,  0,  0, 29,  0,  0, 25,  0,  0
6, 11044, 2,N0CALL,     0.37, 3,   boost,   62.67,  99054.00,  190.78,    5.00,   25.93, 14.1, 3.95, 3.97, 3.97, -73.78,  -1.11,   0.70,  29.20,   3.47,   6.92,  -0.98,   0.23,   0.11,   0.87, 3.98, 0.00, 0.00, 0.00, 0.00, 1, 1,  9,  42.6264242, -88.1615854,   245.0, 2024,  2, 24, 18, 15,  4,        0,        0,   0,   0,   2.3,   1.1,   2.0,  0, 37,  0,  0,  0,  0, 35,  0, 36,  0,  0,  0, 31, 19, 42,  0, 38,  0, 37,  0, 34, 33,  0,  0,  0,  0, 29,  0,  0, 25,  0,  0
6, 11044, 2,N0CALL,     0.38, 3,   boost,   63.15,  99054.00,  190.78,    5.00,   26.55, 14.1, 3.95, 3.97, 3.97, -73.70,  -1.57,   0.37,  29.20,   3.66,   7.59,  -0.98,   0.23,   0.11,   0.94, 3.98, 0.00, 0.00, 0.00, 0.00, 1, 1,  9,  42.6264242, -88.1615854,   245.0, 2024,  2, 24, 18, 15,  4,        0,        0,   0,   0,   2.3,   1.1,   2.0,  0, 37,  0,  0,  0,  0, 35,  0, 36,  0,  0,  0, 31, 19, 42,  0, 38,  0, 37,  0, 34, 33,  0,  0,  0,  0, 29,  0,  0, 25,  0,  0
6, 11044, 2,N0CALL,     0.39, 3,   boost,   63.15,  99050.00,  191.12,    5.34,   27.18, 14.1, 3.95, 3.97, 3.97, -73.98,  -1.77,   0.25,  29.20,   3.47,   8.07,  -0.98,   0.23,   0.11,   1.01, 3.98, 0.00, 0.00, 0.00, 0.00, 1, 1,  9,  42.6264242, -88.1615854,   245.0, 2024,  2, 24, 18, 15,  4,        0,        0,   0,   0,   2.3,   1.1,   2.0,  0, 37,  0,  0,  0,  0, 35,  0, 36,  0,  0,  0, 31, 19, 42,  0, 38,  0, 37,  0, 34, 33,  0,  0,  0,  0, 29,  0,  0, 25,  0,  0
6, 11044, 2,N0CALL,     0.40, 3,   boost,   62.19,  99050.00,  191.12,    5.34,   27.81, 14.1, 3.95, 3.97, 3.97, -74.02,  -1.54,   0.14,  30.12,   3.41,   8.81,  -0.98,   0.23,   0.11,   1.09, 3.98, 0.00, 0.00, 0.00, 0.00, 1, 1,  9,  42.6264242, -88.1615854,   245.0, 2024,  2, 24, 18, 15,  4,        0,        0,   0,   0,   2.3,   1.1,   2.0,  0, 37,  0,  0,  0,  0, 35,  0, 36,  0,  0,  0, 31, 19, 42,  0, 38,  0, 37,  0, 34, 33,  0,  0,  0,  0, 29,  0,  0, 25,  0,  0
6, 11044, 2,N0CALL,     0.41, 3,   boost,   63.15,  99040.00,  191.97,    6.19,   28.44, 14.1, 3.95, 3.97, 3.97, -74.33,  -1.41,   0.01,  30.18,   3.72,   9.60,  -0.98,   0.23,   0.11,   1.18, 3.98, 0.00, 0.00, 0.00, 0.00, 1, 1,  9,  42.6264242, -88.1615854,   245.0, 2024,  2, 24, 18, 15,  4,        0,        0,   0,   0,   2.3,   1.1,   2.0,  0, 37,  0,  0,  0,  0, 35,  0, 36,  0,  0,  0, 31, 19, 42,  0, 38,  0, 37,  0, 34, 33,  0,  0,  0,  0, 29,  0,  0, 25,  0,  0
6, 11044, 2,N0CALL,     0.42, 3,   boost,   64.58,  99040.00,  191.97,    6.19,   29.07, 14.1, 3.95, 3.97, 3.97, -74.67,  -1.46,   0.21,  30.42,   3.53,  10.27,  -0.98,   0.23,   0.11,   1.27, 3.98, 0.00, 0.00, 0.00, 0.00, 1, 1,  9,  42.6264242, -88.1615854,   245.0, 2024,  2, 24, 18, 15,  4,        0,        0,   0,   0,   2.3,   1.1,   2.0,  0, 37,  0,  0,  0,  0, 35,  0, 36,  0,  0,  0, 31, 19, 42,  0, 38,  0, 37,  0, 34, 33,  0,  0,  0,  0, 29,  0,  0, 25,  0,  0
6, 11044, 2,N0CALL,     0.43, 3,   boost,   63.62,  99019.00,  193.75,    7.97,   29.71, 14.1, 3.95, 3.97, 3.97, -74.83,  -1.54,   0.04,  30.12,   3.53,  11.19,  -0.98,   0.23,   0.11,   1.37, 3.98, 0.00, 0.00, 0.00, 0.00, 1, 1,  9,  42.6264242, -88.1615854,   245.0, 2024,  2, 24, 18, 15,  4,        0,        0,   0,   0,   2.3,   1.1,   2.0,  0, 37,  0,  0,  0,  0, 35,  0, 36,  0,  0,  0, 31, 19, 42,  0, 38,  0, 37,  0, 34, 33,  0,  0,  0,  0, 29,  0,  0, 25,  0,  0
6, 11044, 2,N0CALL,     0.44, 3,   boost,   63.15,  99019.00,  193.75,    7.97,   30.34, 14.1, 3.95, 3.97, 3.97, -75.11,  -1.47,   0.14,  30.36,   3.66,  11.55,  -0.98,   0.23,   0.11,   1.48, 3.98, 0.00, 0.00, 0.00, 0.00, 1, 1,  9,  42.6264242, -88.1615854,   245.0, 2024,  2, 24, 18, 15,  4,        0,        0,   0,   0,   2.3,   1.1,   2.0,  0, 37,  0,  0,  0,  0, 35,  0, 36,  0,  0,  0, 31, 19, 42,  0, 38,  0, 37,  0, 34, 33,  0,  0,  0,  0, 29,  0,  0, 25,  0,  0
6, 11044, 2,N0CALL,     0.45, 3,   boost,   63.15,  99005.00,  194.94,    9.16,   30.98, 14.1, 3.95, 3.97, 3.97, -75.35,  -1.21,   0.50,  30.48,   3.66,  12.53,  -0.98,   0.23,   0.11,   1.60, 3.98, 0.00, 0.00, 0.00, 0.00, 1, 1,  9,  42.6264242, -88.1615854,   245.0, 2024,  2, 24, 18, 15,  4,        0,        0,   0,   0,   2.3,   1.1,   2.0,  0, 37,  0,  0,  0,  0, 35,  0, 36,  0,  0,  0, 31, 19, 42,  0, 38,  0, 37,  0, 34, 33,  0,  0,  0,  0, 29,  0,  0, 25,  0,  0
6, 11044, 2,N0CALL,     0.46, 3,   boost,   64.10,  99005.00,  194.94,    9.16,   31.62, 14.1, 3.95, 3.97, 3.97, -75.46,  -1.30,   0.44,  30.36,   3.47,  13.08,  -0.98,   0.24,   0.11,   1.72, 3.98, 0.00, 0.00, 0.00, 0.00, 1, 1,  9,  42.6264242, -88.1615854,   245.0, 2024,  2, 24, 18, 15,  4,        0,        0,   0,   0,   2.3,   1.1,   2.0,  0, 37,  0,  0,  0,  0, 35,  0, 36,  0,  0,  0, 31, 19, 42,  0, 38,  0, 37,  0, 34, 33,  0,  0,  0,  0, 29,  0,  0, 25,  0,  0
6, 11044, 2,N0CALL,     0.47, 3,   boost,   64.58,  99033.00,  192.56,    6.78,   32.26, 14.1, 3.95, 3.97, 3.97, -75.87,  -1.40,   0.35,  30.73,   3.66,  13.63,  -0.98,   0.24,   0.11,   1.85, 3.98, 0.00, 0.00, 0.00, 0.00, 1, 1,  9,  42.6264242, -88.1615854,   245.0, 2024,  2, 24, 18, 15,  4,        0,        0,   0,   0,   2.3,   1.1,   2.0,  0, 37,  0,  0,  0,  0, 35,  0, 36,  0,  0,  0, 31, 19, 42,  0, 38,  0, 37,  0, 34, 33,  0,  0,  0,  0, 29,  0,  0, 25,  0,  0
6, 11044, 2,N0CALL,     0.48, 3,   boost,   64.58,  99033.00,  192.56,    6.78,   32.90, 14.1, 3.95, 3.97, 3.97, -75.90,  -0.95,   0.28,  30.73,   3.29,  14.42,  -0.98,   0.24,   0.11,   1.99, 3.98, 0.00, 0.00, 0.00, 0.00, 1, 1,  9,  42.6264242, -88.1615854,   245.0, 2024,  2, 24, 18, 15,  4,        0,        0,   0,   0,   2.3,   1.1,   2.0,  0, 37,  0,  0,  0,  0, 35,  0, 36,  0,  0,  0, 31, 19, 42,  0, 38,  0, 37,  0, 34, 33,  0,  0,  0,  0, 29,  0,  0, 25,  0,  0
6, 11044, 2,N0CALL,     0.49, 3,   boost,   65.06,  99026.00,  193.16,    7.38,   33.54, 14.1, 3.95, 3.97, 3.97, -76.00,  -0.91,   0.27,  30.48,   3.47,  14.73,  -0.98,   0.25,   0.10,   2.13, 3.98, 0.00, 0.00, 0.00, 0.00, 1, 1,  9,  42.6264242, -88.1615854,   245.0, 2024,  2, 24, 18, 15,  4,        0,        0,   0,   0,   2.3,   1.1,   2.0,  0, 37,  0,  0,  0,  0, 35,  0, 36,  0,  0,  0, 31, 19, 42,  0, 38,  0, 37,  0, 34, 33,  0,  0,  0,  0, 29,  0,  0, 25,  0,  0
6, 11044, 2,N0CALL,     0.50, 3,   boost,   62.19,  99026.00,  193.16,    7.38,   34.18, 14.1, 3.95, 3.97, 3.97, -76.26,  -0.84,   0.40,  30.18,   3.53,  15.70,  -0.98,   0.25,   0.10,   2.28, 3.98, 0.00, 0.00, 0.00, 0.00, 1, 1,  9,  42.6264242, -88.1615854,   245.0, 2024,  2, 24, 18, 15,  4,        0,        0,   0,   0,   2.3,   1.1,   2.0,  0, 37,  0,  0,  0,  0, 35,  0, 36,  0,  0,  0, 31, 19, 42,  0, 38,  0, 37,  0, 34, 33,  0,  0,  0,  0, 29,  0,  0, 25,  0,  0
6, 11044, 2,N0CALL,     0.51, 3,   boost,   64.58,  98998.00,  195.53,    9.75,   34.82, 14.1, 3.95, 3.97, 3.97, -76.28,  -1.11,   0.53,  30.30,   3.96,  16.19,  -0.98,   0.25,   0.10,   2.44, 3.98, 0.00, 0.00, 0.00, 0.00, 1, 1,  9,  42.6264242, -88.1615854,   245.0, 2024,  2, 24, 18, 15,  4,        0,        0,   0,   0,   2.3,   1.1,   2.0,  0, 37,  0,  0,  0,  0, 35,  0, 36,  0,  0,  0, 31, 19, 42,  0, 38,  0, 37,  0, 34, 33,  0,  0,  0,  0, 29,  0,  0, 25,  0,  0
6, 11044, 2,N0CALL,     0.52, 3,   boost,   64.58,  98998.00,  195.53,    9.75,   35.46, 14.1, 3.95, 3.97, 3.97, -76.59,  -1.44,   0.68,  29.87,   3.78,  16.62,  -0.98,   0.25,   0.10,   2.60, 3.98, 0.00, 0.00, 0.00, 0.00, 1, 1,  9,  42.6264242, -88.1615854,   245.0, 2024,  2, 24, 18, 15,  4,        0,        0,   0,   0,   2.3,   1.1,   2.0,  0, 37,  0,  0,  0,  0, 35,  0, 36,  0,  0,  0, 31, 19, 42,  0, 38,  0, 37,  0, 34, 33,  0,  0,  0,  0, 29,  0,  0, 25,  0,  0
6, 11044, 2,N0CALL,     0.53, 3,   boost,   64.10,  98994.00,  195.87,   10.09,   36.10, 14.1, 3.95, 3.97, 3.97, -76.67,  -1.03,   0.46,  29.94,   3.41,  17.05,  -0.98,   0.25,   0.10,   2.77, 3.98, 0.00, 0.00, 0.00, 0.00, 1, 1,  9,  42.6264242, -88.1615854,   245.0, 2024,  2, 24, 18, 15,  4,        0,        0,   0,   0,   2.3,   1.1,   2.0,  0, 37,  0,  0,  0,  0, 35,  0, 36,  0,  0,  0, 31, 19, 42,  0, 38,  0, 37,  0, 34, 33,  0,  0,  0,  0, 29,  0,  0, 25,  0,  0
6, 11044, 2,N0CALL,     0.54, 3,   boost,   62.67,  98994.00,  195.87,   10.09,   36.74, 14.1, 3.95, 3.97, 3.97, -76.99,  -0.77,   0.24,  29.87,   3.66,  17.66,  -0.98,   0.25,   0.10,   2.95, 3.98, 0.00, 0.00, 0.00, 0.00, 1, 1,  9,  42.6264242, -88.1615854,   245.0, 2024,  2, 24, 18, 15,  4,        0,        0,   0,   0,   2.3,   1.1,   2.0,  0, 37,  0,  0,  0,  0, 35,  0, 36,  0,  0,  0, 31, 19, 42,  0, 38,  0, 37,  0, 34, 33,  0,  0,  0,  0, 29,  0,  0, 25,  0,  0
6, 11044, 2,N0CALL,     0.55, 3,   boost,   64.58,  98970.00,  197.91,   12.13,   37.38, 14.1, 3.95, 3.97, 3.97, -77.25,  -0.88,   0.47,  29.75,   3.41,  18.08,  -0.98,   0.25,   0.10,   3.12, 3.98, 0.00, 0.00, 0.00, 0.00, 1, 1,  9,  42.6264242, -88.1615854,   245.0, 2024,  2, 24, 18, 15,  4,        0,        0,   0,   0,   2.3,   1.1,   2.0,  0, 37,  0,  0,  0,  0, 35,  0, 36,  0,  0,  0, 31, 19, 42,  0, 38,  0, 37,  0, 34, 33,  0,  0,  0,  0, 29,  0,  0, 25,  0,  0
