#version,serial,flight,call,time,state,state_name,acceleration,pressure,altitude,height,speed,temperature,drogue_voltage,main_voltage,battery_voltage,accel_x,accel_y,accel_z,gyro_roll,gyro_pitch,gyro_yaw,mag_x,mag_y,mag_z,tilt,pyro,igniter_a,igniter_b,igniter_c,igniter_d,connected,locked,nsat,latitude,longitude,altitude,year,month,day,hour,minute,second,pad_dist,pad_range,pad_az,pad_el,pdop,hdop,vdop,sat01,sat02,sat03,sat04,sat05,sat06,sat07,sat08,sat09,sat10,sat11,sat12,sat13,sat14,sat15,sat16,sat17,sat18,sat19,sat20,sat21,sat22,sat23,sat24,sat25,sat26,sat27,sat28,sat29,sat30,sat31,sat32
6,11044,5,N0CALL,-0.30,3,   boost,1.91,98143.00,268.31,-1.03,0.01,16.7,4.06,4.07,4.07,-9.91,-0.09,0.22,0.17,0.03,-0.50,-0.98,-0.09,0.20,0.86,4.06,0.00,0.01,0.00,0.00,1,1,10,42.6264280,-88.1615505,249.0,2024,3,30,16,46,12,0,0,32,0,1.6,1.0,1.3,0,29,0,0,0,0,36,30,0,0,0,0,31,26,36,0,27,0,0,0,40,19,0,0,0,0,0,0,0,28,0,0
6,11044,5,N0CALL,-0.29,3,   boost,0.48,98146.00,268.05,-1.28,0.01,16.7,4.06,4.07,4.07,-9.84,-0.09,0.09,0.05,-0.09,-0.32,-0.98,-0.09,0.20,0.86,4.06,0.00,0.01,0.00,0.00,1,1,10,42.6264280,-88.1615505,249.0,2024,3,30,16,46,12,0,0,32,0,1.6,1.0,1.3,0,29,0,0,0,0,36,30,0,0,0,0,31,26,36,0,27,0,0,0,40,19,0,0,0,0,0,0,0,28,0,0
6,11044,5,N0CALL,-0.28,3,   boost,1.44,98146.00,268.05,-1.28,0.01,16.7,4.06,4.07,4.07,-9.82,-0.09,0.11,0.48,-0.21,-0.38,-0.98,-0.09,0.20,0.86,4.06,0.00,0.01,0.00,0.00,1,1,10,42.6264280,-88.1615505,249.0,2024,3,30,16,46,12,0,0,32,0,1.6,1.0,1.3,0,29,0,0,0,0,36,30,0,0,0,0,31,26,36,0,27,0,0,0,40,19,0,0,0,0,0,0,0,28,0,0
6,11044,5,N0CALL,-0.27,3,   boost,-0.96,98148.00,267.88,-1.45,0.02,16.7,4.06,4.07,4.07,-9.88,-0.06,0.19,0.17,-0.03,-0.38,-0.98,-0.09,0.20,0.86,4.06,0.00,0.01,0.00,0.00,1,1,10,42.6264280,-88.1615505,249.0,2024,3,30,16,46,12,0,0,32,0,1.6,1.0,1.3,0,29,0,0,0,0,36,30,0,0,0,0,31,26,36,0,27,0,0,0,40,19,0,0,0,0,0,0,0,28,0,0
6,11044,5,N0CALL,-0.26,3,   boost,0.00,98148.00,267.88,-1.45,0.02,16.7,4.06,4.07,4.07,-9.91,-0.06,0.18,-0.26,-0.21,-0.26,-0.98,-0.09,0.20,0.86,4.06,0.00,0.01,0.00,0.00,1,1,10,42.6264280,-88.1615505,249.0,2024,3,30,16,46,12,0,0,32,0,1.6,1.0,1.3,0,29,0,0,0,0,36,30,0,0,0,0,31,26,36,0,27,0,0,0,40,19,0,0,0,0,0,0,0,28,0,0
6,11044,5,N0CALL,-0.25,3,   boost,-0.96,98128.00,269.59,0.26,0.02,16.7,4.06,4.07,4.07,-9.89,-0.10,0.09,-0.32,-0.21,-0.38,-0.98,-0.09,0.20,0.86,4.06,0.00,0.01,0.00,0.00,1,1,10,42.6264280,-88.1615505,249.0,2024,3,30,16,46,12,0,0,32,0,1.6,1.0,1.3,0,29,0,0,0,0,36,30,0,0,0,0,31,26,36,0,27,0,0,0,40,19,0,0,0,0,0,0,0,28,0,0
6,11044,5,N0CALL,-0.24,3,   boost,0.00,98128.00,269.59,0.26,0.02,16.7,4.06,4.07,4.07,-9.84,-0.01,0.06,-0.07,0.03,-0.26,-0.98,-0.09,0.20,0.86,4.06,0.00,0.01,0.00,0.00,1,1,10,42.6264280,-88.1615505,249.0,2024,3,30,16,46,12,0,0,32,0,1.6,1.0,1.3,0,29,0,0,0,0,36,30,0,0,0,0,31,26,36,0,27,0,0,0,40,19,0,0,0,0,0,0,0,28,0,0
6,11044,5,N0CALL,-0.23,3,   boost,0.96,98141.00,268.48,-0.85,0.02,16.7,4.06,4.07,4.07,-9.89,0.00,0.21,0.05,-0.03,-0.07,-0.98,-0.09,0.20,0.86,4.06,0.00,0.01,0.00,0.00,1,1,10,42.6264280,-88.1615505,249.0,2024,3,30,16,46,12,0,0,32,0,1.6,1.0,1.3,0,29,0,0,0,0,36,30,0,0,0,0,31,26,36,0,27,0,0,0,40,19,0,0,0,0,0,0,0,28,0,0
6,11044,5,N0CALL,-0.22,3,   boost,0.00,98141.00,268.48,-0.85,0.02,16.7,4.06,4.07,4.07,-9.90,-0.01,0.18,0.17,-0.03,-0.01,-0.98,-0.09,0.20,0.86,4.06,0.00,0.01,0.00,0.00,1,1,10,42.6264280,-88.1615505,249.0,2024,3,30,16,46,12,0,0,32,0,1.6,1.0,1.3,0,29,0,0,0,0,36,30,0,0,0,0,31,26,36,0,27,0,0,0,40,19,0,0,0,0,0,0,0,28,0,0
6,11044,5,N0CALL,-0.21,3,   boost,0.00,98139.00,268.65,-0.68,0.02,16.7,4.06,4.07,4.07,-9.92,-0.05,0.06,0.05,0.09,0.11,-0.98,-0.09,0.20,0.86,4.06,0.00,0.01,0.00,0.00,1,1,10,42.6264280,-88.1615505,249.0,2024,3,30,16,46,12,0,0,32,0,1.6,1.0,1.3,0,29,0,0,0,0,36,30,0,0,0,0,31,26,36,0,27,0,0,0,40,19,0,0,0,0,0,0,0,28,0,0
6,11044,5,N0CALL,-0.20,3,   boost,-0.96,98139.00,268.65,-0.68,0.02,16.7,4.06,4.07,4.07,-9.90,0.03,-0.01,0.11,-0.21,-0.13,-0.99,-0.09,0.20,0.86,4.06,0.00,0.01,0.00,0.00,1,1,10,42.6264280,-88.1615505,249.0,2024,3,30,16,46,12,0,0,32,0,1.6,1.0,1.3,0,29,0,0,0,0,36,30,0,0,0,0,31,26,36,0,27,0,0,0,40,19,0,0,0,0,0,0,0,28,0,0
6,11044,5,N0CALL,-0.19,3,   boost,0.96,98135.00,268.99,-0.34,0.02,16.7,4.06,4.07,4.07,-9.88,0.04,0.06,0.29,0.15,0.05,-0.99,-0.09,0.20,0.86,4.06,0.00,0.01,0.00,0.00,1,1,10,42.6264280,-88.1615505,249.0,2024,3,30,16,46,12,0,0,32,0,1.6,1.0,1.3,0,29,0,0,0,0,36,30,0,0,0,0,31,26,36,0,27,0,0,0,40,19,0,0,0,0,0,0,0,28,0,0
6,11044,5,N0CALL,-0.18,3,   boost,0.48,98135.00,268.99,-0.34,0.02,16.7,4.06,4.07,4.07,-9.89,0.01,0.06,0.36,0.03,0.17,-0.99,-0.09,0.20,0.86,4.06,0.00,0.01,0.00,0.00,1,1,10,42.6264280,-88.1615505,249.0,2024,3,30,16,46,12,0,0,32,0,1.6,1.0,1.3,0,29,0,0,0,0,36,30,0,0,0,0,31,26,36,0,27,0,0,0,40,19,0,0,0,0,0,0,0,28,0,0
6,11044,5,N0CALL,-0.17,3,   boost,0.96,98134.00,269.08,-0.26,0.03,16.7,4.06,4.07,4.07,-9.94,-0.14,0.05,0.17,-0.03,0.17,-0.99,-0.09,0.20,0.86,4.06,0.00,0.01,0.00,0.00,1,1,10,42.6264280,-88.1615505,249.0,2024,3,30,16,46,12,0,0,32,0,1.6,1.0,1.3,0,29,0,0,0,0,36,30,0,0,0,0,31,26,36,0,27,0,0,0,40,19,0,0,0,0,0,0,0,28,0,0
6,11044,5,N0CALL,-0.16,3,   boost,0.48,98134.00,269.08,-0.26,0.04,16.7,4.06,4.07,4.07,-9.84,-0.03,0.03,-0.07,0.03,-0.01,-0.99,-0.09,0.20,0.86,4.06,0.00,0.01,0.00,0.00,1,1,10,42.6264280,-88.1615505,249.0,2024,3,30,16,46,12,0,0,32,0,1.6,1.0,1.3,0,29,0,0,0,0,36,30,0,0,0,0,31,26,36,0,27,0,0,0,40,19,0,0,0,0,0,0,0,28,0,0
6,11044,5,N0CALL,-0.15,3,   boost,0.48,98131.00,269.33,0.00,0.04,16.7,4.06,4.07,4.07,-9.88,-0.08,0.09,-0.38,0.03,0.54,-0.99,-0.09,0.20,0.86,4.06,0.00,0.01,0.00,0.00,1,1,10,42.6264280,-88.1615505,249.0,2024,3,30,16,46,12,0,0,32,0,1.6,1.0,1.3,0,29,0,0,0,0,36,30,0,0,0,0,31,26,36,0,27,0,0,0,40,19,0,0,0,0,0,0,0,28,0,0
6,11044,5,N0CALL,-0.14,3,   boost,1.44,98131.00,269.33,0.00,0.05,16.7,4.06,4.07,4.07,-9.83,-0.15,0.14,-0.19,0.03,-0.01,-0.99,-0.09,0.20,0.86,4.06,0.00,0.01,0.00,0.00,1,1,10,42.6264280,-88.1615505,249.0,2024,3,30,16,46,12,0,0,32,0,1.6,1.0,1.3,0,29,0,0,0,0,36,30,0,0,0,0,31,26,36,0,27,0,0,0,40,19,0,0,0,0,0,0,0,28,0,0
6,11044,5,N0CALL,-0.13,3,   boost,0.48,98130.00,269.42,0.09,0.05,16.7,4.06,4.07,4.07,-9.92,-0.24,0.09,-0.07,-0.09,0.17,-0.99,-0.09,0.20,0.86,4.06,0.00,0.01,0.00,0.00,1,1,10,42.6264280,-88.1615505,249.0,2024,3,30,16,46,12,0,0,32,0,1.6,1.0,1.3,0,29,0,0,0,0,36,30,0,0,0,0,31,26,36,0,27,0,0,0,40,19,0,0,0,0,0,0,0,28,0,0
6,11044,5,N0CALL,-0.12,3,   boost,-0.96,98130.00,269.42,0.09,0.06,16.7,4.06,4.07,4.07,-9.86,-0.19,0.14,-0.01,0.09,-0.38,-0.99,-0.09,0.20,0.86,4.06,0.00,0.01,0.00,0.00,1,1,10,42.6264280,-88.1615505,249.0,2024,3,30,16,46,12,0,0,32,0,1.6,1.0,1.3,0,29,0,0,0,0,36,30,0,0,0,0,31,26,36,0,27,0,0,0,40,19,0,0,0,0,0,0,0,28,0,0
6,11044,5,N0CALL,-0.11,3,   boost,0.00,98132.00,269.25,-0.09,0.08,16.7,4.06,4.07,4.07,-9.80,-0.13,0.20,-0.13,0.15,0.35,-0.99,-0.09,0.20,0.86,4.06,0.00,0.01,0.00,0.00,1,1,10,42.6264280,-88.1615505,249.0,2024,3,30,16,46,12,0,0,32,0,1.6,1.0,1.3,0,29,0,0,0,0,36,30,0,0,0,0,31,26,36,0,27,0,0,0,40,19,0,0,0,0,0,0,0,28,0,0
6,11044,5,N0CALL,-0.10,3,   boost,-0.96,98132.00,269.25,-0.09,0.14,16.7,4.06,4.07,4.07,-9.88,-0.16,0.20,-0.13,-0.27,0.23,-0.99,-0.09,0.20,0.86,4.06,0.00,0.01,0.00,0.00,1,1,10,42.6264280,-88.1615505,249.0,2024,3,30,16,46,12,0,0,32,0,1.6,1.0,1.3,0,29,0,0,0,0,36,30,0,0,0,0,31,26,36,0,27,0,0,0,40,19,0,0,0,0,0,0,0,28,0,0
6,11044,5,N0CALL,-0.09,3,   boost,0.96,98134.00,269.08,-0.26,0.27,16.7,4.06,4.07,4.07,-9.94,-0.11,0.18,0.60,-0.03,0.29,-0.99,-0.09,0.20,0.86,4.06,0.00,0.01,0.00,0.00,1,1,10,42.6264280,-88.1615505,249.0,2024,3,30,16,46,12,0,0,32,0,1.6,1.0,1.3,0,29,0,0,0,0,36,30,0,0,0,0,31,26,36,0,27,0,0,0,40,19,0,0,0,0,0,0,0,28,0,0
6,11044,5,N0CALL,-0.08,3,   boost,38.75,98134.00,269.08,-0.26,0.49,16.7,4.06,4.07,4.07,-10.12,-0.11,0.16,0.72,-0.15,0.35,-0.99,-0.09,0.20,0.86,4.06,0.00,0.01,0.00,0.00,1,1,10,42.6264280,-88.1615505,249.0,2024,3,30,16,46,12,0,0,32,0,1.6,1.0,1.3,0,29,0,0,0,0,36,30,0,0,0,0,31,26,36,0,27,0,0,0,40,19,0,0,0,0,0,0,0,28,0,0
6,11044,5,N0CALL,-0.07,3,   boost,42.58,98144.00,268.22,-1.11,0.82,16.7,4.06,4.07,4.07,-28.04,2.40,-0.34,-0.19,-1.01,0.66,-0.99,-0.09,0.20,0.86,4.06,0.00,0.01,0.00,0.00,1,1,10,42.6264280,-88.1615505,249.0,2024,3,30,16,46,12,0,0,32,0,1.6,1.0,1.3,0,29,0,0,0,0,36,30,0,0,0,0,31,26,36,0,27,0,0,0,40,19,0,0,0,0,0,0,0,28,0,0
6,11044,5,N0CALL,-0.06,3,   boost,54.06,98144.00,268.22,-1.11,1.25,16.7,4.06,4.07,4.07,-45.47,-1.88,0.93,0.29,-0.09,1.57,-0.99,-0.09,0.20,0.86,4.06,0.00,0.01,0.00,0.00,1,1,10,42.6264280,-88.1615505,249.0,2024,3,30,16,46,12,0,0,32,0,1.6,1.0,1.3,0,29,0,0,0,0,36,30,0,0,0,0,31,26,36,0,27,0,0,0,40,19,0,0,0,0,0,0,0,28,0,0
6,11044,5,N0CALL,-0.05,3,   boost,57.40,98125.00,269.85,0.51,1.74,16.7,4.06,4.07,4.07,-61.33,4.53,0.06,0.36,-0.70,1.45,-0.99,-0.09,0.20,0.86,4.06,0.00,0.01,0.00,0.00,1,1,10,42.6264280,-88.1615505,249.0,2024,3,30,16,46,12,0,0,32,0,1.6,1.0,1.3,0,29,0,0,0,0,36,30,0,0,0,0,31,26,36,0,27,0,0,0,40,19,0,0,0,0,0,0,0,28,0,0
6,11044,5,N0CALL,-0.04,3,   boost,58.84,98125.00,269.85,0.51,2.28,16.7,4.06,4.07,4.07,-71.41,0.39,-2.59,10.12,0.46,0.41,-0.98,-0.09,0.20,0.86,4.06,0.00,0.01,0.00,0.00,1,1,10,42.6264280,-88.1615505,249.0,2024,3,30,16,46,12,0,0,32,0,1.6,1.0,1.3,0,29,0,0,0,0,36,30,0,0,0,0,31,26,36,0,27,0,0,0,40,19,0,0,0,0,0,0,0,28,0,0
6,11044,5,N0CALL,-0.03,3,   boost,57.40,98123.00,270.02,0.68,2.85,16.7,4.06,4.07,4.07,-69.82,-0.50,-2.67,3.77,-0.40,1.15,-0.98,-0.09,0.20,0.86,4.06,0.00,0.01,0.00,0.00,1,1,10,42.6264280,-88.1615505,249.0,2024,3,30,16,46,12,0,0,32,0,1.6,1.0,1.3,0,29,0,0,0,0,36,30,0,0,0,0,31,26,36,0,27,0,0,0,40,19,0,0,0,0,0,0,0,28,0,0
6,11044,5,N0CALL,-0.02,3,   boost,53.58,98123.00,270.02,0.68,3.41,16.7,4.06,4.07,4.07,-67.50,-0.98,-0.62,6.76,0.21,0.90,-0.99,-0.09,0.20,0.86,4.06,0.00,0.01,0.00,0.00,1,1,10,42.6264273,-88.1615511,249.0,2024,3,30,16,46,13,0,0,0,0,1.6,1.0,1.3,0,29,0,0,0,0,36,29,0,0,0,0,31,26,36,0,27,0,0,0,40,18,0,0,0,0,0,0,0,28,0,0
6,11044,5,N0CALL,-0.01,3,   boost,59.32,98121.00,270.19,0.85,3.99,16.7,4.06,4.07,4.07,-67.84,-0.92,2.36,6.95,-1.74,1.51,-0.98,-0.09,0.20,0.86,4.06,0.00,0.01,0.00,0.00,1,1,10,42.6264273,-88.1615511,249.0,2024,3,30,16,46,13,0,0,0,0,1.6,1.0,1.3,0,29,0,0,0,0,36,29,0,0,0,0,31,26,36,0,27,0,0,0,40,18,0,0,0,0,0,0,0,28,0,0
6,11044,5,N0CALL,0.00,3,   boost,57.88,98121.00,270.19,0.85,4.56,16.7,4.06,4.07,4.07,-69.16,-3.48,1.38,11.22,1.19,0.54,-0.98,-0.09,0.20,0.86,4.06,0.00,0.01,0.00,0.00,1,1,10,42.6264273,-88.1615511,249.0,2024,3,30,16,46,13,0,0,0,0,1.6,1.0,1.3,0,29,0,0,0,0,36,29,0,0,0,0,31,26,36,0,27,0,0,0,40,18,0,0,0,0,0,0,0,28,0,0
6,11044,5,N0CALL,0.00,3,   boost,57.88,98121.00,270.19,0.85,4.56,16.7,4.06,4.07,4.07,-69.16,-3.48,1.38,11.22,1.19,0.54,-0.98,-0.09,0.20,0.86,4.06,0.00,0.01,0.00,0.00,1,1,10,42.6264273,-88.1615511,249.0,2024,3,30,16,46,13,0,0,0,0,1.6,1.0,1.3,0,29,0,0,0,0,36,29,0,0,0,0,31,26,36,0,27,0,0,0,40,18,0,0,0,0,0,0,0,28,0,0
6,11044,5,N0CALL,0.00,3,   boost,57.88,98121.00,270.19,0.85,4.56,16.7,4.06,4.07,4.07,-69.16,-3.48,1.38,11.22,1.19,0.54,-0.98,-0.09,0.20,0.86,4.06,0.00,0.01,0.00,0.00,1,1,10,42.6264273,-88.1615511,249.0,2024,3,30,16,46,13,0,0,0,0,1.6,1.0,1.3,0,29,0,0,0,0,36,29,0,0,0,0,31,26,36,0,27,0,0,0,40,18,0,0,0,0,0,0,0,28,0,0
6,11044,5,N0CALL,0.00,3,   boost,57.88,98121.00,270.19,0.85,4.56,16.7,4.06,4.07,4.07,-69.16,-3.48,1.38,11.22,1.19,0.54,-0.98,-0.09,0.20,0.86,4.06,0.00,0.01,0.00,0.00,1,1,10,42.6264273,-88.1615511,249.0,2024,3,30,16,46,13,0,0,0,0,1.6,1.0,1.3,0,29,0,0,0,0,36,29,0,0,0,0,31,26,36,0,27,0,0,0,40,18,0,0,0,0,0,0,0,28,0,0
6,11044,5,N0CALL,0.00,3,   boost,57.88,98121.00,270.19,0.85,4.56,16.7,4.06,4.07,4.07,-69.16,-3.48,1.38,11.22,1.19,0.54,-0.98,-0.09,0.20,0.86,4.06,0.00,0.01,0.00,0.00,1,1,10,42.6264273,-88.1615511,249.0,2024,3,30,16,46,13,0,0,0,0,1.6,1.0,1.3,0,29,0,0,0,0,36,29,0,0,0,0,31,26,36,0,27,0,0,0,40,18,0,0,0,0,0,0,0,28,0,0
6,11044,5,N0CALL,0.00,3,   boost,57.88,98121.00,270.19,0.85,4.56,16.7,4.06,4.07,4.07,-69.16,-3.48,1.38,11.22,1.19,0.54,-0.98,-0.09,0.20,0.86,4.06,0.00,0.01,0.00,0.00,1,1,10,42.6264273,-88.1615511,249.0,2024,3,30,16,46,13,0,0,0,0,1.6,1.0,1.3,0,29,0,0,0,0,36,29,0,0,0,0,31,26,36,0,27,0,0,0,40,18,0,0,0,0,0,0,0,28,0,0
6,11044,5,N0CALL,0.00,3,   boost,57.88,98121.00,270.19,0.85,4.56,16.7,4.06,4.07,4.07,-69.16,-3.48,1.38,11.22,1.19,0.54,-0.98,-0.09,0.20,0.85,4.06,0.00,0.01,0.00,0.00,1,1,10,42.6264273,-88.1615511,249.0,2024,3,30,16,46,13,0,0,0,0,1.6,1.0,1.3,0,29,0,0,0,0,36,29,0,0,0,0,31,26,36,0,27,0,0,0,40,18,0,0,0,0,0,0,0,28,0,0
6,11044,5,N0CALL,0.00,3,   boost,57.88,98121.00,270.19,0.85,4.56,16.7,4.06,4.07,4.07,-69.16,-3.48,1.38,11.22,1.19,0.54,-0.98,-0.09,0.20,0.85,4.06,0.00,0.01,0.00,0.00,1,1,10,42.6264273,-88.1615511,249.0,2024,3,30,16,46,13,0,0,0,0,1.6,1.0,1.3,0,29,0,0,0,0,36,29,0,0,0,0,31,26,36,0,27,0,0,0,40,18,0,0,0,0,0,0,0,28,0,0
6,11044,5,N0CALL,0.00,3,   boost,57.88,98121.00,270.19,0.85,4.56,16.7,4.06,4.07,4.07,-69.16,-3.48,1.38,11.22,1.19,0.54,-0.98,-0.09,0.20,0.84,4.06,0.00,0.01,0.00,0.00,1,1,10,42.6264273,-88.1615511,249.0,2024,3,30,16,46,13,0,0,0,0,1.6,1.0,1.3,0,29,0,0,0,0,36,29,0,0,0,0,31,26,36,0,27,0,0,0,40,18,0,0,0,0,0,0,0,28,0,0
6,11044,5,N0CALL,0.00,3,   boost,57.88,98121.00,270.19,0.85,4.56,16.7,4.06,4.07,4.07,-69.16,-3.48,1.38,11.22,1.19,0.54,-0.98,-0.09,0.20,0.84,4.06,0.00,0.01,0.00,0.00,1,1,10,42.6264273,-88.1615511,249.0,2024,3,30,16,46,13,0,0,0,0,1.6,1.0,1.3,0,29,0,0,0,0,36,29,0,0,0,0,31,26,36,0,27,0,0,0,40,18,0,0,0,0,0,0,0,28,0,0
6,11044,5,N0CALL,0.00,3,   boost,57.88,98121.00,270.19,0.85,4.56,16.7,4.06,4.07,4.07,-69.16,-3.48,1.38,11.22,1.19,0.54,-0.98,-0.09,0.20,0.84,4.06,0.00,0.01,0.00,0.00,1,1,10,42.6264273,-88.1615511,249.0,2024,3,30,16,46,13,0,0,0,0,1.6,1.0,1.3,0,29,0,0,0,0,36,29,0,0,0,0,31,26,36,0,27,0,0,0,40,18,0,0,0,0,0,0,0,28,0,0
6,11044,5,N0CALL,0.00,3,   boost,57.88,98121.00,270.19,0.85,4.56,16.7,4.06,4.07,4.07,-69.16,-3.48,1.38,11.22,1.19,0.54,-0.98,-0.09,0.20,0.84,4.06,0.00,0.01,0.00,0.00,1,1,10,42.6264273,-88.1615511,249.0,2024,3,30,16,46,13,0,0,0,0,1.6,1.0,1.3,0,29,0,0,0,0,36,29,0,0,0,0,31,26,36,0,27,0,0,0,40,18,0,0,0,0,0,0,0,28,0,0
6,11044,5,N0CALL,0.00,3,   boost,57.88,98121.00,270.19,0.85,4.56,16.7,4.06,4.07,4.07,-69.16,-3.48,1.38,11.22,1.19,0.54,-0.98,-0.09,0.20,0.84,4.06,0.00,0.01,0.00,0.00,1,1,10,42.6264273,-88.1615511,249.0,2024,3,30,16,46,13,0,0,0,0,1.6,1.0,1.3,0,29,0,0,0,0,36,29,0,0,0,0,31,26,36,0,27,0,0,0,40,18,0,0,0,0,0,0,0,28,0,0
6,11044,5,N0CALL,0.00,3,   boost,57.88,98121.00,270.19,0.85,4.56,16.7,4.06,4.07,4.07,-69.16,-3.48,1.38,11.22,1.19,0.54,-0.98,-0.09,0.20,0.84,4.06,0.00,0.01,0.00,0.00,1,1,10,42.6264273,-88.1615511,249.0,2024,3,30,16,46,13,0,0,0,0,1.6,1.0,1.3,0,29,0,0,0,0,36,29,0,0,0,0,31,26,36,0,27,0,0,0,40,18,0,0,0,0,0,0,0,28,0,0
6,11044,5,N0CALL,0.00,3,   boost,57.88,98121.00,270.19,0.85,4.56,16.7,4.06,4.07,4.07,-69.16,-3.48,1.38,11.22,1.19,0.54,-0.98,-0.09,0.20,0.84,4.06,0.00,0.01,0.00,0.00,1,1,10,42.6264273,-88.1615511,249.0,2024,3,30,16,46,13,0,0,0,0,1.6,1.0,1.3,0,29,0,0,0,0,36,29,0,0,0,0,31,26,36,0,27,0,0,0,40,18,0,0,0,0,0,0,0,28,0,0
6,11044,5,N0CALL,0.00,3,   boost,57.88,98121.00,270.19,0.85,4.56,16.7,4.06,4.07,4.07,-69.16,-3.48,1.38,11.22,1.19,0.54,-0.98,-0.09,0.20,0.84,4.06,0.00,0.01,0.00,0.00,1,1,10,42.6264273,-88.1615511,249.0,2024,3,30,16,46,13,0,0,0,0,1.6,1.0,1.3,0,29,0,0,0,0,36,29,0,0,0,0,31,26,36,0,27,0,0,0,40,18,0,0,0,0,0,0,0,28,0,0
6,11044,5,N0CALL,0.00,3,   boost,57.88,98121.00,270.19,0.85,4.56,16.7,4.06,4.07,4.07,-69.16,-3.48,1.38,11.22,1.19,0.54,-0.98,-0.09,0.20,0.84,4.06,0.00,0.01,0.00,0.00,1,1,10,42.6264273,-88.1615511,249.0,2024,3,30,16,46,13,0,0,0,0,1.6,1.0,1.3,0,29,0,0,0,0,36,29,0,0,0,0,31,26,36,0,27,0,0,0,40,18,0,0,0,0,0,0,0,28,0,0
6,11044,5,N0CALL,0.00,3,   boost,57.88,98121.00,270.19,0.85,4.56,16.7,4.06,4.07,4.07,-69.16,-3.48,1.38,11.22,1.19,0.54,-0.98,-0.09,0.20,0.84,4.06,0.00,0.01,0.00,0.00,1,1,10,42.6264273,-88.1615511,249.0,2024,3,30,16,46,13,0,0,0,0,1.6,1.0,1.3,0,29,0,0,0,0,36,29,0,0,0,0,31,26,36,0,27,0,0,0,40,18,0,0,0,0,0,0,0,28,0,0
6,11044,5,N0CALL,0.00,3,   boost,57.88,98121.00,270.19,0.85,4.56,16.7,4.06,4.07,4.07,-69.16,-3.48,1.38,11.22,1.19,0.54,-0.98,-0.09,0.20,0.84,4.06,0.00,0.01,0.00,0.00,1,1,10,42.6264273,-88.1615511,249.0,2024,3,30,16,46,13,0,0,0,0,1.6,1.0,1.3,0,29,0,0,0,0,36,29,0,0,0,0,31,26,36,0,27,0,0,0,40,18,0,0,0,0,0,0,0,28,0,0
6,11044,5,N0CALL,0.00,3,   boost,57.88,98121.00,270.19,0.85,4.56,16.7,4.06,4.07,4.07,-69.16,-3.48,1.38,11.22,1.19,0.54,-0.98,-0.09,0.20,0.84,4.06,0.00,0.01,0.00,0.00,1,1,10,42.6264273,-88.1615511,249.0,2024,3,30,16,46,13,0,0,0,0,1.6,1.0,1.3,0,29,0,0,0,0,36,29,0,0,0,0,31,26,36,0,27,0,0,0,40,18,0,0,0,0,0,0,0,28,0,0
6,11044,5,N0CALL,0.00,3,   boost,57.88,98121.00,270.19,0.85,4.56,16.7,4.06,4.07,4.07,-69.16,-3.48,1.38,11.22,1.19,0.54,-0.98,-0.09,0.20,0.84,4.06,0.00,0.01,0.00,0.00,1,1,10,42.6264273,-88.1615511,249.0,2024,3,30,16,46,13,0,0,0,0,1.6,1.0,1.3,0,29,0,0,0,0,36,29,0,0,0,0,31,26,36,0,27,0,0,0,40,18,0,0,0,0,0,0,0,28,0,0
6,11044,5,N0CALL,0.00,3,   boost,57.88,98121.00,270.19,0.85,4.56,16.7,4.06,4.07,4.07,-69.16,-3.48,1.38,11.22,1.19,0.54,-0.98,-0.09,0.20,0.85,4.06,0.00,0.01,0.00,0.00,1,1,10,42.6264273,-88.1615511,249.0,2024,3,30,16,46,13,0,0,0,0,1.6,1.0,1.3,0,29,0,0,0,0,36,29,0,0,0,0,31,26,36,0,27,0,0,0,40,18,0,0,0,0,0,0,0,28,0,0
6,11044,5,N0CALL,0.00,3,   boost,57.88,98121.00,270.19,0.85,4.56,16.7,4.06,4.07,4.07,-69.16,-3.48,1.38,11.22,1.19,0.54,-0.98,-0.09,0.20,0.84,4.06,0.00,0.01,0.00,0.00,1,1,10,42.6264273,-88.1615511,249.0,2024,3,30,16,46,13,0,0,0,0,1.6,1.0,1.3,0,29,0,0,0,0,36,29,0,0,0,0,31,26,36,0,27,0,0,0,40,18,0,0,0,0,0,0,0,28,0,0
6,11044,5,N0CALL,0.00,3,   boost,57.88,98121.00,270.19,0.85,4.56,16.7,4.06,4.07,4.07,-69.16,-3.48,1.38,11.22,1.19,0.54,-0.98,-0.09,0.20,0.85,4.06,0.00,0.01,0.00,0.00,1,1,10,42.6264273,-88.1615511,249.0,2024,3,30,16,46,13,0,0,0,0,1.6,1.0,1.3,0,29,0,0,0,0,36,29,0,0,0,0,31,26,36,0,27,0,0,0,40,18,0,0,0,0,0,0,0,28,0,0
6,11044,5,N0CALL,0.00,3,   boost,57.88,98121.00,270.19,0.85,4.56,16.7,4.06,4.07,4.07,-69.16,-3.48,1.38,11.22,1.19,0.54,-0.98,-0.09,0.20,0.85,4.06,0.00,0.01,0.00,0.00,1,1,10,42.6264273,-88.1615511,249.0,2024,3,30,16,46,13,0,0,0,0,1.6,1.0,1.3,0,29,0,0,0,0,36,29,0,0,0,0,31,26,36,0,27,0,0,0,40,18,0,0,0,0,0,0,0,28,0,0
6,11044,5,N0CALL,0.00,3,   boost,57.88,98121.00,270.19,0.85,4.56,16.7,4.06,4.07,4.07,-69.16,-3.48,1.38,11.22,1.19,0.54,-0.98,-0.09,0.20,0.85,4.06,0.00,0.01,0.00,0.00,1,1,10,42.6264273,-88.1615511,249.0,2024,3,30,16,46,13,0,0,0,0,1.6,1.0,1.3,0,29,0,0,0,0,36,29,0,0,0,0,31,26,36,0,27,0,0,0,40,18,0,0,0,0,0,0,0,28,0,0
6,11044,5,N0CALL,0.00,3,   boost,57.88,98121.00,270.19,0.85,4.56,16.7,4.06,4.07,4.07,-69.16,-3.48,1.38,11.22,1.19,0.54,-0.98,-0.09,0.20,0.85,4.06,0.00,0.01,0.00,0.00,1,1,10,42.6264273,-88.1615511,249.0,2024,3,30,16,46,13,0,0,0,0,1.6,1.0,1.3,0,29,0,0,0,0,36,29,0,0,0,0,31,26,36,0,27,0,0,0,40,18,0,0,0,0,0,0,0,28,0,0
6,11044,5,N0CALL,0.00,3,   boost,57.88,98121.00,270.19,0.85,4.56,16.7,4.06,4.07,4.07,-69.16,-3.48,1.38,11.22,1.19,0.54,-0.98,-0.09,0.20,0.85,4.06,0.00,0.01,0.00,0.00,1,1,10,42.6264273,-88.1615511,249.0,2024,3,30,16,46,13,0,0,0,0,1.6,1.0,1.3,0,29,0,0,0,0,36,29,0,0,0,0,31,26,36,0,27,0,0,0,40,18,0,0,0,0,0,0,0,28,0,0
6,11044,5,N0CALL,0.00,3,   boost,57.88,98121.00,270.19,0.85,4.56,16.7,4.06,4.07,4.07,-69.16,-3.48,1.38,11.22,1.19,0.54,-0.98,-0.09,0.20,0.86,4.06,0.00,0.01,0.00,0.00,1,1,10,42.6264273,-88.1615511,249.0,2024,3,30,16,46,13,0,0,0,0,1.6,1.0,1.3,0,29,0,0,0,0,36,29,0,0,0,0,31,26,36,0,27,0,0,0,40,18,0,0,0,0,0,0,0,28,0,0
6,11044,5,N0CALL,0.00,3,   boost,57.88,98121.00,270.19,0.85,4.56,16.7,4.06,4.07,4.07,-69.16,-3.48,1.38,11.22,1.19,0.54,-0.98,-0.09,0.20,0.87,4.06,0.00,0.01,0.00,0.00,1,1,10,42.6264273,-88.1615511,249.0,2024,3,30,16,46,13,0,0,0,0,1.6,1.0,1.3,0,29,0,0,0,0,36,29,0,0,0,0,31,26,36,0,27,0,0,0,40,18,0,0,0,0,0,0,0,28,0,0
6,11044,5,N0CALL,0.00,3,   boost,57.88,98121.00,270.19,0.85,4.56,16.7,4.06,4.07,4.07,-69.16,-3.48,1.38,11.22,1.19,0.54,-0.98,-0.09,0.20,0.88,4.06,0.00,0.01,0.00,0.00,1,1,10,42.6264273,-88.1615511,249.0,2024,3,30,16,46,13,0,0,0,0,1.6,1.0,1.3,0,29,0,0,0,0,36,29,0,0,0,0,31,26,36,0,27,0,0,0,40,18,0,0,0,0,0,0,0,28,0,0
6,11044,5,N0CALL,0.00,3,   boost,57.88,98121.00,270.19,0.85,4.56,16.7,4.06,4.07,4.07,-69.16,-3.48,1.38,11.22,1.19,0.54,-0.98,-0.09,0.20,0.88,4.06,0.00,0.01,0.00,0.00,1,1,10,42.6264273,-88.1615511,249.0,2024,3,30,16,46,13,0,0,0,0,1.6,1.0,1.3,0,29,0,0,0,0,36,29,0,0,0,0,31,26,36,0,27,0,0,0,40,18,0,0,0,0,0,0,0,28,0,0
6,11044,5,N0CALL,0.00,3,   boost,57.88,98121.00,270.19,0.85,4.56,16.7,4.06,4.07,4.07,-69.16,-3.48,1.38,11.22,1.19,0.54,-0.98,-0.09,0.20,0.88,4.06,0.00,0.01,0.00,0.00,1,1,10,42.6264273,-88.1615511,249.0,2024,3,30,16,46,13,0,0,0,0,1.6,1.0,1.3,0,29,0,0,0,0,36,29,0,0,0,0,31,26,36,0,27,0,0,0,40,18,0,0,0,0,0,0,0,28,0,0
6,11044,5,N0CALL,0.00,3,   boost,57.88,98121.00,270.19,0.85,4.56,16.7,4.06,4.07,4.07,-69.16,-3.48,1.38,11.22,1.19,0.54,-0.98,-0.09,0.20,0.88,4.06,0.00,0.01,0.00,0.00,1,1,10,42.6264273,-88.1615511,249.0,2024,3,30,16,46,13,0,0,0,0,1.6,1.0,1.3,0,29,0,0,0,0,36,29,0,0,0,0,31,26,36,0,27,0,0,0,40,18,0,0,0,0,0,0,0,28,0,0
6,11044,5,N0CALL,0.00,3,   boost,57.88,98121.00,270.19,0.85,4.56,16.7,4.06,4.07,4.07,-69.16,-3.48,1.38,11.22,1.19,0.54,-0.98,-0.09,0.20,0.89,4.06,0.00,0.01,0.00,0.00,1,1,10,42.6264273,-88.1615511,249.0,2024,3,30,16,46,13,0,0,0,0,1.6,1.0,1.3,0,29,0,0,0,0,36,29,0,0,0,0,31,26,36,0,27,0,0,0,40,18,0,0,0,0,0,0,0,28,0,0
6,11044,5,N0CALL,0.00,3,   boost,57.88,98121.00,270.19,0.85,4.56,16.7,4.06,4.07,4.07,-69.16,-3.48,1.38,11.22,1.19,0.54,-0.98,-0.09,0.20,0.89,4.06,0.00,0.01,0.00,0.00,1,1,10,42.6264273,-88.1615511,249.0,2024,3,30,16,46,13,0,0,0,0,1.6,1.0,1.3,0,29,0,0,0,0,36,29,0,0,0,0,31,26,36,0,27,0,0,0,40,18,0,0,0,0,0,0,0,28,0,0
6,11044,5,N0CALL,0.00,3,   boost,57.88,98121.00,270.19,0.85,4.56,16.7,4.06,4.07,4.07,-69.16,-3.48,1.38,11.22,1.19,0.54,-0.98,-0.09,0.20,0.90,4.06,0.00,0.01,0.00,0.00,1,1,10,42.6264273,-88.1615511,249.0,2024,3,30,16,46,13,0,0,0,0,1.6,1.0,1.3,0,29,0,0,0,0,36,29,0,0,0,0,31,26,36,0,27,0,0,0,40,18,0,0,0,0,0,0,0,28,0,0
6,11044,5,N0CALL,0.01,3,   boost,55.49,98131.00,269.33,0.00,5.14,16.7,4.06,4.07,4.07,-68.74,-2.20,1.42,10.30,-0.03,-0.38,-0.98,-0.09,0.20,0.90,4.06,0.00,0.01,0.00,0.00,1,1,10,42.6264273,-88.1615511,249.0,2024,3,30,16,46,13,0,0,0,0,1.6,1.0,1.3,0,29,0,0,0,0,36,29,0,0,0,0,31,26,36,0,27,0,0,0,40,18,0,0,0,0,0,0,0,28,0,0
6,11044,5,N0CALL,0.01,3,   boost,55.49,98131.00,269.33,0.00,5.14,16.7,4.06,4.07,4.07,-68.74,-2.20,1.42,10.30,-0.03,-0.38,-0.98,-0.09,0.20,0.90,4.06,0.00,0.01,0.00,0.00,1,1,10,42.6264273,-88.1615511,249.0,2024,3,30,16,46,13,0,0,0,0,1.6,1.0,1.3,0,29,0,0,0,0,36,29,0,0,0,0,31,26,36,0,27,0,0,0,40,18,0,0,0,0,0,0,0,28,0,0
6,11044,5,N0CALL,0.02,3,   boost,58.84,98131.00,269.33,0.00,5.72,16.7,4.05,4.05,4.05,-70.28,1.32,-2.11,15.80,0.27,0.11,-0.98,-0.09,0.20,0.90,4.03,0.00,0.01,0.00,0.00,1,1,10,42.6264273,-88.1615511,249.0,2024,3,30,16,46,13,0,0,0,0,1.6,1.0,1.3,0,29,0,0,0,0,36,29,0,0,0,0,31,26,36,0,27,0,0,0,40,18,0,0,0,0,0,0,0,28,0,0
6,11044,5,N0CALL,0.02,3,   boost,58.84,98131.00,269.33,0.00,5.72,16.7,4.05,4.05,4.05,-70.28,1.32,-2.11,15.80,0.27,0.11,-0.98,-0.09,0.20,0.90,4.03,0.00,0.01,0.00,0.00,1,1,10,42.6264273,-88.1615511,249.0,2024,3,30,16,46,13,0,0,0,0,1.6,1.0,1.3,0,29,0,0,0,0,36,29,0,0,0,0,31,26,36,0,27,0,0,0,40,18,0,0,0,0,0,0,0,28,0,0
6,11044,5,N0CALL,0.03,3,   boost,61.23,98143.00,268.31,-1.03,6.31,16.7,4.05,4.05,4.05,-70.87,0.21,-0.04,17.57,0.09,-1.05,-0.98,-0.09,0.20,0.90,4.03,0.00,0.01,0.00,0.00,1,1,10,42.6264273,-88.1615511,249.0,2024,3,30,16,46,13,0,0,0,0,1.6,1.0,1.3,0,29,0,0,0,0,36,29,0,0,0,0,31,26,36,0,27,0,0,0,40,18,0,0,0,0,0,0,0,28,0,0
6,11044,5,N0CALL,0.04,3,   boost,60.28,98143.00,268.31,-1.03,6.90,16.7,4.05,4.05,4.05,-71.05,-1.99,2.53,12.75,0.21,-0.68,-0.98,-0.09,0.20,0.89,4.03,0.00,0.01,0.00,0.00,1,1,10,42.6264273,-88.1615511,249.0,2024,3,30,16,46,13,0,0,0,0,1.6,1.0,1.3,0,29,0,0,0,0,36,29,0,0,0,0,31,26,36,0,27,0,0,0,40,18,0,0,0,0,0,0,0,28,0,0
6,11044,5,N0CALL,0.05,3,   boost,58.84,98138.00,268.74,-0.60,7.50,16.7,4.05,4.05,4.05,-71.23,-0.46,-0.53,9.57,0.21,-0.99,-0.98,-0.09,0.20,0.88,4.03,0.00,0.01,0.00,0.00,1,1,10,42.6264273,-88.1615511,249.0,2024,3,30,16,46,13,0,0,0,0,1.6,1.0,1.3,0,29,0,0,0,0,36,29,0,0,0,0,31,26,36,0,27,0,0,0,40,18,0,0,0,0,0,0,0,28,0,0
6,11044,5,N0CALL,0.06,3,   boost,60.75,98138.00,268.74,-0.60,8.10,16.7,4.05,4.05,4.05,-71.89,0.10,-1.55,7.31,-0.15,-1.84,-0.98,-0.09,0.20,0.87,4.03,0.00,0.01,0.00,0.00,1,1,10,42.6264273,-88.1615511,249.0,2024,3,30,16,46,13,0,0,0,0,1.6,1.0,1.3,0,29,0,0,0,0,36,29,0,0,0,0,31,26,36,0,27,0,0,0,40,18,0,0,0,0,0,0,0,28,0,0
6,11044,5,N0CALL,0.07,3,   boost,60.28,98149.00,267.80,-1.54,8.70,16.7,4.05,4.05,4.05,-72.61,-3.79,1.31,6.95,0.58,-0.99,-0.98,-0.09,0.20,0.86,4.03,0.00,0.01,0.00,0.00,1,1,10,42.6264273,-88.1615511,249.0,2024,3,30,16,46,13,0,0,0,0,1.6,1.0,1.3,0,29,0,0,0,0,36,29,0,0,0,0,31,26,36,0,27,0,0,0,40,18,0,0,0,0,0,0,0,28,0,0
6,11044,5,N0CALL,0.08,3,   boost,60.28,98149.00,267.80,-1.54,9.31,16.7,4.05,4.05,4.05,-72.28,-0.24,-0.42,6.46,-0.70,-2.27,-0.98,-0.09,0.20,0.84,4.03,0.00,0.01,0.00,0.00,1,1,10,42.6264273,-88.1615511,249.0,2024,3,30,16,46,13,0,0,0,0,1.6,1.0,1.3,0,29,0,0,0,0,36,29,0,0,0,0,31,26,36,0,27,0,0,0,40,18,0,0,0,0,0,0,0,28,0,0
6,11044,5,N0CALL,0.09,3,   boost,59.80,98135.00,268.99,-0.34,9.91,16.7,4.05,4.05,4.05,-72.43,-1.86,2.84,4.93,-1.07,-1.66,-0.98,-0.09,0.20,0.82,4.03,0.00,0.01,0.00,0.00,1,1,10,42.6264273,-88.1615511,249.0,2024,3,30,16,46,13,0,0,0,0,1.6,1.0,1.3,0,29,0,0,0,0,36,29,0,0,0,0,31,26,36,0,27,0,0,0,40,18,0,0,0,0,0,0,0,28,0,0
6,11044,5,N0CALL,0.10,3,   boost,59.80,98135.00,268.99,-0.34,10.52,16.7,4.05,4.05,4.05,-71.76,-2.11,-0.29,-8.74,-0.95,-1.97,-0.98,-0.09,0.20,0.80,4.03,0.00,0.01,0.00,0.00,1,1,10,42.6264273,-88.1615511,249.0,2024,3,30,16,46,13,0,0,0,0,1.6,1.0,1.3,0,29,0,0,0,0,36,29,0,0,0,0,31,26,36,0,27,0,0,0,40,18,0,0,0,0,0,0,0,28,0,0
6,11044,5,N0CALL,0.11,3,   boost,62.67,98129.00,269.51,0.17,11.13,16.7,4.05,4.05,4.05,-73.00,0.37,0.98,-20.34,-1.01,-2.21,-0.98,-0.09,0.20,0.78,4.03,0.00,0.01,0.00,0.00,1,1,10,42.6264273,-88.1615511,249.0,2024,3,30,16,46,13,0,0,0,0,1.6,1.0,1.3,0,29,0,0,0,0,36,29,0,0,0,0,31,26,36,0,27,0,0,0,40,18,0,0,0,0,0,0,0,28,0,0
6,11044,5,N0CALL,0.12,3,   boost,61.23,98129.00,269.51,0.17,11.74,16.7,4.05,4.05,4.05,-72.63,0.91,-1.96,-30.04,-1.25,-1.60,-0.98,-0.09,0.20,0.76,4.03,0.00,0.01,0.00,0.00,1,1,10,42.6264273,-88.1615511,249.0,2024,3,30,16,46,13,0,0,0,0,1.6,1.0,1.3,0,29,0,0,0,0,36,29,0,0,0,0,31,26,36,0,27,0,0,0,40,18,0,0,0,0,0,0,0,28,0,0
6,11044,5,N0CALL,0.13,3,   boost,61.71,98130.00,269.42,0.09,12.36,16.7,4.05,4.05,4.05,-72.90,-1.49,0.27,-36.08,-1.86,-0.99,-0.98,-0.09,0.20,0.74,4.03,0.00,0.01,0.00,0.00,1,1,10,42.6264273,-88.1615511,249.0,2024,3,30,16,46,13,0,0,0,0,1.6,1.0,1.3,0,29,0,0,0,0,36,29,0,0,0,0,31,26,36,0,27,0,0,0,40,18,0,0,0,0,0,0,0,28,0,0
6,11044,5,N0CALL,0.14,3,   boost,64.58,98130.00,269.42,0.09,12.98,16.7,4.05,4.05,4.05,-73.40,-0.55,1.47,-40.36,-2.41,-0.68,-0.98,-0.09,0.20,0.72,4.03,0.00,0.01,0.00,0.00,1,1,10,42.6264273,-88.1615511,249.0,2024,3,30,16,46,13,0,0,0,0,1.6,1.0,1.3,0,29,0,0,0,0,36,29,0,0,0,0,31,26,36,0,27,0,0,0,40,18,0,0,0,0,0,0,0,28,0,0
6,11044,5,N0CALL,0.15,3,   boost,61.23,98114.00,270.79,1.45,13.61,16.7,4.05,4.05,4.05,-75.29,-3.34,-1.14,-38.65,-1.68,1.57,-0.97,-0.09,0.20,0.72,4.03,0.00,0.01,0.00,0.00,1,1,10,42.6264273,-88.1615511,249.0,2024,3,30,16,46,13,0,0,0,0,1.6,1.0,1.3,0,29,0,0,0,0,36,29,0,0,0,0,31,26,36,0,27,0,0,0,40,18,0,0,0,0,0,0,0,28,0,0
6,11044,5,N0CALL,0.16,3,   boost,62.67,98114.00,270.79,1.45,14.23,16.7,4.05,4.05,4.05,-71.95,-4.87,1.70,-35.66,-1.92,1.76,-0.98,-0.10,0.20,0.72,4.03,0.00,0.01,0.00,0.00,1,1,10,42.6264273,-88.1615511,249.0,2024,3,30,16,46,13,0,0,0,0,1.6,1.0,1.3,0,29,0,0,0,0,36,29,0,0,0,0,31,26,36,0,27,0,0,0,40,18,0,0,0,0,0,0,0,28,0,0
6,11044,5,N0CALL,0.17,3,   boost,61.23,98134.00,269.08,-0.26,14.85,16.7,4.05,4.05,4.05,-75.78,0.82,0.37,-40.54,-1.68,-0.32,-0.98,-0.10,0.20,0.71,4.03,0.00,0.01,0.00,0.00,1,1,10,42.6264273,-88.1615511,249.0,2024,3,30,16,46,13,0,0,0,0,1.6,1.0,1.3,0,29,0,0,0,0,36,29,0,0,0,0,31,26,36,0,27,0,0,0,40,18,0,0,0,0,0,0,0,28,0,0
6,11044,5,N0CALL,0.18,3,   boost,62.19,98134.00,269.08,-0.26,15.48,16.7,4.05,4.05,4.05,-75.09,-2.12,-1.42,-32.73,-1.80,-0.87,-0.98,-0.10,0.20,0.69,4.03,0.00,0.01,0.00,0.00,1,1,10,42.6264273,-88.1615511,249.0,2024,3,30,16,46,13,0,0,0,0,1.6,1.0,1.3,0,29,0,0,0,0,36,29,0,0,0,0,31,26,36,0,27,0,0,0,40,18,0,0,0,0,0,0,0,28,0,0
6,11044,5,N0CALL,0.19,3,   boost,62.19,98114.00,270.79,1.45,16.11,16.7,4.05,4.05,4.05,-74.70,3.87,0.75,-10.81,-2.84,-3.06,-0.98,-0.10,0.20,0.65,4.03,0.00,0.01,0.00,0.00,1,1,10,42.6264273,-88.1615511,249.0,2024,3,30,16,46,13,0,0,0,0,1.6,1.0,1.3,0,29,0,0,0,0,36,29,0,0,0,0,31,26,36,0,27,0,0,0,40,18,0,0,0,0,0,0,0,28,0,0
6,11044,5,N0CALL,0.20,3,   boost,65.06,98114.00,270.79,1.45,16.75,16.7,4.05,4.05,4.05,-75.79,2.94,-2.77,-1.66,-2.78,-4.29,-0.98,-0.10,0.20,0.60,4.03,0.00,0.01,0.00,0.00,1,1,10,42.6264273,-88.1615511,249.0,2024,3,30,16,46,13,0,0,0,0,1.6,1.0,1.3,0,29,0,0,0,0,36,29,0,0,0,0,31,26,36,0,27,0,0,0,40,18,0,0,0,0,0,0,0,28,0,0
6,11044,5,N0CALL,0.21,3,   boost,68.41,98103.00,271.73,2.39,17.40,16.7,4.05,4.05,4.05,-75.69,4.48,3.56,3.90,-2.23,-3.06,-0.98,-0.10,0.20,0.57,4.03,0.00,0.01,0.00,0.00,1,1,10,42.6264273,-88.1615511,249.0,2024,3,30,16,46,13,0,0,0,0,1.6,1.0,1.3,0,29,0,0,0,0,36,29,0,0,0,0,31,26,36,0,27,0,0,0,40,18,0,0,0,0,0,0,0,28,0,0
6,11044,5,N0CALL,0.22,3,   boost,63.62,98103.00,271.73,2.39,18.05,16.7,4.05,4.05,4.05,-76.20,3.04,5.91,11.22,-3.02,-3.00,-0.98,-0.10,0.20,0.52,4.03,0.00,0.01,0.00,0.00,1,1,10,42.6264273,-88.1615511,249.0,2024,3,30,16,46,13,0,0,0,0,1.6,1.0,1.3,0,29,0,0,0,0,36,29,0,0,0,0,31,26,36,0,27,0,0,0,40,18,0,0,0,0,0,0,0,28,0,0
6,11044,5,N0CALL,0.23,3,   boost,65.06,98095.00,272.41,3.08,18.70,16.7,4.05,4.05,4.05,-76.19,0.91,-4.43,23.12,-3.88,-4.77,-0.98,-0.10,0.20,0.46,4.03,0.00,0.01,0.00,0.00,1,1,10,42.6264273,-88.1615511,249.0,2024,3,30,16,46,13,0,0,0,0,1.6,1.0,1.3,0,29,0,0,0,0,36,29,0,0,0,0,31,26,36,0,27,0,0,0,40,18,0,0,0,0,0,0,0,28,0,0
6,11044,5,N0CALL,0.24,3,   boost,65.06,98095.00,272.41,3.08,19.35,16.7,4.05,4.05,4.05,-77.22,-5.62,2.14,22.02,-3.27,-3.86,-0.97,-0.10,0.20,0.41,4.03,0.00,0.01,0.00,0.00,1,1,10,42.6264273,-88.1615511,249.0,2024,3,30,16,46,13,0,0,0,0,1.6,1.0,1.3,0,29,0,0,0,0,36,29,0,0,0,0,31,26,36,0,27,0,0,0,40,18,0,0,0,0,0,0,0,28,0,0
6,11044,5,N0CALL,0.25,3,   boost,64.10,98119.00,270.36,1.03,20.00,16.7,4.05,4.05,4.05,-77.43,-2.82,2.70,17.69,-2.17,-4.41,-0.97,-0.10,0.20,0.36,4.03,0.00,0.01,0.00,0.00,1,1,10,42.6264273,-88.1615511,249.0,2024,3,30,16,46,13,0,0,0,0,1.6,1.0,1.3,0,29,0,0,0,0,36,29,0,0,0,0,31,26,36,0,27,0,0,0,40,18,0,0,0,0,0,0,0,28,0,0
6,11044,5,N0CALL,0.26,3,   boost,66.49,98119.00,270.36,1.03,20.66,16.7,4.05,4.05,4.05,-77.50,-3.24,-1.62,21.29,-2.35,-5.51,-0.98,-0.10,0.19,0.30,4.03,0.00,0.01,0.00,0.00,1,1,10,42.6264273,-88.1615511,249.0,2024,3,30,16,46,13,0,0,0,0,1.6,1.0,1.3,0,29,0,0,0,0,36,29,0,0,0,0,31,26,36,0,27,0,0,0,40,18,0,0,0,0,0,0,0,28,0,0
6,11044,5,N0CALL,0.27,3,   boost,66.49,98107.00,271.39,2.05,21.32,16.7,4.05,4.05,4.05,-77.96,-2.87,1.98,18.85,-2.47,-5.38,-0.98,-0.10,0.20,0.25,4.03,0.00,0.01,0.00,0.00,1,1,10,42.6264273,-88.1615511,249.0,2024,3,30,16,46,13,0,0,0,0,1.6,1.0,1.3,0,29,0,0,0,0,36,29,0,0,0,0,31,26,36,0,27,0,0,0,40,18,0,0,0,0,0,0,0,28,0,0
6,11044,5,N0CALL,0.28,3,   boost,68.41,98107.00,271.39,2.05,21.99,16.7,4.05,4.05,4.05,-78.12,0.76,3.05,16.04,-1.56,-5.14,-0.98,-0.10,0.20,0.19,4.03,0.00,0.01,0.00,0.00,1,1,10,42.6264273,-88.1615511,249.0,2024,3,30,16,46,13,0,0,0,0,1.6,1.0,1.3,0,29,0,0,0,0,36,29,0,0,0,0,31,26,36,0,27,0,0,0,40,18,0,0,0,0,0,0,0,28,0,0
6,11044,5,N0CALL,0.29,3,   boost,67.45,98092.00,272.67,3.33,22.66,16.7,4.05,4.05,4.05,-78.44,0.11,1.08,18.36,-2.11,-4.29,-0.98,-0.10,0.19,0.15,4.03,0.00,0.01,0.00,0.00,1,1,10,42.6264273,-88.1615511,249.0,2024,3,30,16,46,13,0,0,0,0,1.6,1.0,1.3,0,29,0,0,0,0,36,29,0,0,0,0,31,26,36,0,27,0,0,0,40,18,0,0,0,0,0,0,0,28,0,0
6,11044,5,N0CALL,0.30,3,   boost,66.02,98092.00,272.67,3.33,23.33,16.7,4.05,4.05,4.05,-78.56,-2.11,2.31,15.92,-1.19,-3.61,-0.98,-0.10,0.20,0.11,4.03,0.00,0.01,0.00,0.00,1,1,10,42.6264273,-88.1615511,249.0,2024,3,30,16,46,13,0,0,0,0,1.6,1.0,1.3,0,29,0,0,0,0,36,29,0,0,0,0,31,26,36,0,27,0,0,0,40,18,0,0,0,0,0,0,0,28,0,0
6,11044,5,N0CALL,0.31,3,   boost,67.93,98100.00,271.98,2.65,24.01,16.7,4.05,4.05,4.05,-78.81,-1.77,0.29,17.57,-1.01,-3.86,-0.98,-0.10,0.20,0.07,4.03,0.00,0.01,0.00,0.00,1,1,10,42.6264273,-88.1615511,249.0,2024,3,30,16,46,13,0,0,0,0,1.6,1.0,1.3,0,29,0,0,0,0,36,29,0,0,0,0,31,26,36,0,27,0,0,0,40,18,0,0,0,0,0,0,0,28,0,0
6,11044,5,N0CALL,0.32,3,   boost,67.45,98100.00,271.98,2.65,24.68,16.7,4.05,4.05,4.05,-79.42,-2.34,2.00,17.51,-0.64,-3.67,-0.98,-0.10,0.20,0.05,4.03,0.00,0.01,0.00,0.00,1,1,10,42.6264273,-88.1615511,249.0,2024,3,30,16,46,13,0,0,0,0,1.6,1.0,1.3,0,29,0,0,0,0,36,29,0,0,0,0,31,26,36,0,27,0,0,0,40,18,0,0,0,0,0,0,0,28,0,0
6,11044,5,N0CALL,0.33,3,   boost,66.97,98085.00,273.27,3.93,25.36,16.7,4.05,4.05,4.05,-79.80,0.18,2.20,17.38,-0.46,-3.49,-0.98,-0.10,0.20,0.05,4.03,0.00,0.01,0.00,0.00,1,1,10,42.6264273,-88.1615511,249.0,2024,3,30,16,46,13,0,0,0,0,1.6,1.0,1.3,0,29,0,0,0,0,36,29,0,0,0,0,31,26,36,0,27,0,0,0,40,18,0,0,0,0,0,0,0,28,0,0
6,11044,5,N0CALL,0.34,3,   boost,69.36,98085.00,273.27,3.93,26.04,16.7,4.03,4.03,4.03,-80.01,-0.99,2.09,19.64,-0.46,-3.13,-0.98,-0.10,0.20,0.07,4.03,0.00,0.01,0.00,0.00,1,1,10,42.6264273,-88.1615511,249.0,2024,3,30,16,46,13,0,0,0,0,1.6,1.0,1.3,0,29,0,0,0,0,36,29,0,0,0,0,31,26,36,0,27,0,0,0,40,18,0,0,0,0,0,0,0,28,0,0
6,11044,5,N0CALL,0.34,3,   boost,69.36,98085.00,273.27,3.93,26.04,16.7,4.03,4.03,4.03,-80.01,-0.99,2.09,19.64,-0.46,-3.13,-0.98,-0.10,0.20,0.07,4.03,0.00,0.01,0.00,0.00,1,1,10,42.6264273,-88.1615511,249.0,2024,3,30,16,46,13,0,0,0,0,1.6,1.0,1.3,0,29,0,0,0,0,36,29,0,0,0,0,31,26,36,0,27,0,0,0,40,18,0,0,0,0,0,0,0,28,0,0
6,11044,5,N0CALL,0.35,3,   boost,67.93,98089.00,272.92,3.59,26.72,16.7,4.03,4.03,4.03,-80.14,-1.40,1.03,19.58,-0.15,-2.76,-0.98,-0.10,0.20,0.09,4.03,0.00,0.01,0.00,0.00,1,1,10,42.6264273,-88.1615511,249.0,2024,3,30,16,46,13,0,0,0,0,1.6,1.0,1.3,0,29,0,0,0,0,36,29,0,0,0,0,31,26,36,0,27,0,0,0,40,18,0,0,0,0,0,0,0,28,0,0
6,11044,5,N0CALL,0.36,3,   boost,67.45,98089.00,272.92,3.59,27.40,16.7,4.03,4.03,4.03,-80.36,-2.13,0.99,19.95,0.40,-2.21,-0.98,-0.10,0.20,0.11,4.03,0.00,0.01,0.00,0.00,1,1,10,42.6264273,-88.1615511,249.0,2024,3,30,16,46,13,0,0,0,0,1.6,1.0,1.3,0,29,0,0,0,0,36,29,0,0,0,0,31,26,36,0,27,0,0,0,40,18,0,0,0,0,0,0,0,28,0,0
6,11044,5,N0CALL,0.37,3,   boost,69.84,98077.00,273.95,4.61,28.09,16.7,4.03,4.03,4.03,-80.67,-2.20,1.89,21.29,0.64,-2.64,-0.97,-0.09,0.19,0.14,4.03,0.00,0.01,0.00,0.00,1,1,10,42.6264273,-88.1615511,249.0,2024,3,30,16,46,13,0,0,0,0,1.6,1.0,1.3,0,29,0,0,0,0,36,29,0,0,0,0,31,26,36,0,27,0,0,0,40,18,0,0,0,0,0,0,0,28,0,0
6,11044,5,N0CALL,0.38,3,   boost,68.89,98077.00,273.95,4.61,28.78,16.7,4.03,4.03,4.03,-81.02,-0.83,1.77,20.44,0.52,-2.45,-0.98,-0.09,0.19,0.16,4.03,0.00,0.01,0.00,0.00,1,1,10,42.6264273,-88.1615511,249.0,2024,3,30,16,46,13,0,0,0,0,1.6,1.0,1.3,0,29,0,0,0,0,36,29,0,0,0,0,31,26,36,0,27,0,0,0,40,18,0,0,0,0,0,0,0,28,0,0
6,11044,5,N0CALL,0.39,3,   boost,69.36,98086.00,273.18,3.85,29.47,16.7,4.03,4.03,4.03,-81.10,-1.46,1.67,19.52,1.07,-2.03,-0.98,-0.09,0.19,0.19,4.03,0.00,0.01,0.00,0.00,1,1,10,42.6264273,-88.1615511,249.0,2024,3,30,16,46,13,0,0,0,0,1.6,1.0,1.3,0,29,0,0,0,0,36,29,0,0,0,0,31,26,36,0,27,0,0,0,40,18,0,0,0,0,0,0,0,28,0,0
6,11044,5,N0CALL,0.40,3,   boost,69.84,98086.00,273.18,3.85,30.16,16.7,4.03,4.03,4.03,-81.31,-1.68,1.37,18.12,1.62,-1.54,-0.98,-0.09,0.19,0.21,4.03,0.00,0.01,0.00,0.00,1,1,10,42.6264273,-88.1615511,249.0,2024,3,30,16,46,13,0,0,0,0,1.6,1.0,1.3,0,29,0,0,0,0,36,29,0,0,0,0,31,26,36,0,27,0,0,0,40,18,0,0,0,0,0,0,0,28,0,0
6,11044,5,N0CALL,0.41,3,   boost,68.89,98079.00,273.78,4.44,30.86,16.7,4.03,4.03,4.03,-81.80,-2.05,1.58,17.75,2.17,-1.29,-0.98,-0.09,0.20,0.23,4.03,0.00,0.01,0.00,0.00,1,1,10,42.6264273,-88.1615511,249.0,2024,3,30,16,46,13,0,0,0,0,1.6,1.0,1.3,0,29,0,0,0,0,36,29,0,0,0,0,31,26,36,0,27,0,0,0,40,18,0,0,0,0,0,0,0,28,0,0
6,11044,5,N0CALL,0.42,3,   boost,70.32,98079.00,273.78,4.44,31.56,16.7,4.03,4.03,4.03,-81.89,-1.75,2.28,16.83,2.41,-1.05,-0.98,-0.09,0.20,0.25,4.03,0.00,0.01,0.00,0.00,1,1,10,42.6264273,-88.1615511,249.0,2024,3,30,16,46,13,0,0,0,0,1.6,1.0,1.3,0,29,0,0,0,0,36,29,0,0,0,0,31,26,36,0,27,0,0,0,40,18,0,0,0,0,0,0,0,28,0,0
6,11044,5,N0CALL,0.43,3,   boost,69.36,98052.00,276.09,6.75,32.25,16.7,4.03,4.03,4.03,-82.04,-1.46,1.90,15.98,2.41,-0.62,-0.98,-0.09,0.20,0.27,4.03,0.00,0.01,0.00,0.00,1,1,10,42.6264273,-88.1615511,249.0,2024,3,30,16,46,13,0,0,0,0,1.6,1.0,1.3,0,29,0,0,0,0,36,29,0,0,0,0,31,26,36,0,27,0,0,0,40,18,0,0,0,0,0,0,0,28,0,0
6,11044,5,N0CALL,0.44,3,   boost,69.84,98052.00,276.09,6.75,32.95,16.7,4.03,4.03,4.03,-82.17,-1.29,1.67,15.31,3.02,-0.32,-0.98,-0.09,0.20,0.29,4.03,0.00,0.01,0.00,0.00,1,1,10,42.6264273,-88.1615511,249.0,2024,3,30,16,46,13,0,0,0,0,1.6,1.0,1.3,0,29,0,0,0,0,36,29,0,0,0,0,31,26,36,0,27,0,0,0,40,18,0,0,0,0,0,0,0,28,0,0
6,11044,5,N0CALL,0.45,3,   boost,70.80,98038.00,277.28,7.95,33.66,16.7,4.03,4.03,4.03,-82.47,-1.58,1.47,16.65,3.27,0.23,-0.98,-0.09,0.20,0.31,4.03,0.00,0.01,0.00,0.00,1,1,10,42.6264273,-88.1615511,249.0,2024,3,30,16,46,13,0,0,0,0,1.6,1.0,1.3,0,29,0,0,0,0,36,29,0,0,0,0,31,26,36,0,27,0,0,0,40,18,0,0,0,0,0,0,0,28,0,0
6,11044,5,N0CALL,0.46,3,   boost,70.80,98038.00,277.28,7.95,34.36,16.7,4.03,4.03,4.03,-82.68,-1.93,1.73,17.51,3.75,0.54,-0.98,-0.09,0.20,0.33,4.03,0.00,0.01,0.00,0.00,1,1,10,42.6264273,-88.1615511,249.0,2024,3,30,16,46,13,0,0,0,0,1.6,1.0,1.3,0,29,0,0,0,0,36,29,0,0,0,0,31,26,36,0,27,0,0,0,40,18,0,0,0,0,0,0,0,28,0,0
6,11044,5,N0CALL,0.47,3,   boost,70.32,98049.00,276.34,7.01,35.07,16.7,4.03,4.03,4.03,-82.90,-2.05,2.26,15.92,4.06,0.84,-0.98,-0.09,0.20,0.36,4.03,0.00,0.01,0.00,0.00,1,1,10,42.6264273,-88.1615511,249.0,2024,3,30,16,46,13,0,0,0,0,1.6,1.0,1.3,0,29,0,0,0,0,36,29,0,0,0,0,31,26,36,0,27,0,0,0,40,18,0,0,0,0,0,0,0,28,0,0
6,11044,5,N0CALL,0.48,3,   boost,71.28,98049.00,276.34,7.01,35.78,16.7,4.03,4.03,4.03,-83.08,-1.84,2.14,14.21,4.49,1.02,-0.97,-0.09,0.20,0.39,4.03,0.00,0.01,0.00,0.00,1,1,10,42.6264273,-88.1615511,249.0,2024,3,30,16,46,13,0,0,0,0,1.6,1.0,1.3,0,29,0,0,0,0,36,29,0,0,0,0,31,26,36,0,27,0,0,0,40,18,0,0,0,0,0,0,0,28,0,0
6,11044,5,N0CALL,0.49,3,   boost,71.28,98038.00,277.28,7.95,36.49,16.7,4.03,4.03,4.03,-83.32,-1.53,1.94,11.52,4.55,1.57,-0.98,-0.09,0.20,0.43,4.03,0.00,0.01,0.00,0.00,1,1,10,42.6264273,-88.1615511,249.0,2024,3,30,16,46,13,0,0,0,0,1.6,1.0,1.3,0,29,0,0,0,0,36,29,0,0,0,0,31,26,36,0,27,0,0,0,40,18,0,0,0,0,0,0,0,28,0,0
6,11044,5,N0CALL,0.50,3,   boost,73.19,98038.00,277.28,7.95,37.21,16.7,4.03,4.03,4.03,-83.59,-1.76,1.56,8.59,4.91,2.12,-0.98,-0.09,0.20,0.47,4.03,0.00,0.01,0.00,0.00,1,1,10,42.6264273,-88.1615511,249.0,2024,3,30,16,46,13,0,0,0,0,1.6,1.0,1.3,0,29,0,0,0,0,36,29,0,0,0,0,31,26,36,0,27,0,0,0,40,18,0,0,0,0,0,0,0,28,0,0
6,11044,5,N0CALL,0.51,3,   boost,71.76,98021.00,278.74,9.40,37.93,16.7,4.03,4.03,4.03,-83.84,-1.89,1.85,6.15,5.65,2.49,-0.97,-0.09,0.20,0.51,4.03,0.00,0.01,0.00,0.00,1,1,10,42.6264273,-88.1615511,249.0,2024,3,30,16,46,13,0,0,0,0,1.6,1.0,1.3,0,29,0,0,0,0,36,29,0,0,0,0,31,26,36,0,27,0,0,0,40,18,0,0,0,0,0,0,0,28,0,0
6,11044,5,N0CALL,0.52,3,   boost,72.71,98021.00,278.74,9.40,38.66,16.7,4.03,4.03,4.03,-84.01,-2.16,2.10,4.08,5.95,2.92,-0.98,-0.09,0.20,0.57,4.03,0.00,0.01,0.00,0.00,1,1,10,42.6264273,-88.1615511,249.0,2024,3,30,16,46,13,0,0,0,0,1.6,1.0,1.3,0,29,0,0,0,0,36,29,0,0,0,0,31,26,36,0,27,0,0,0,40,18,0,0,0,0,0,0,0,28,0,0
6,11044,5,N0CALL,0.53,3,   boost,71.76,98016.00,279.16,9.83,39.38,16.7,4.03,4.03,4.03,-84.29,-1.85,1.99,2.37,6.44,2.73,-0.98,-0.09,0.20,0.63,4.03,0.00,0.01,0.00,0.00,1,1,10,42.6264273,-88.1615511,249.0,2024,3,30,16,46,13,0,0,0,0,1.6,1.0,1.3,0,29,0,0,0,0,36,29,0,0,0,0,31,26,36,0,27,0,0,0,40,18,0,0,0,0,0,0,0,28,0,0
6,11044,5,N0CALL,0.54,3,   boost,73.19,98016.00,279.16,9.83,40.10,16.7,4.03,4.03,4.03,-84.77,-1.80,1.64,0.48,6.50,3.34,-0.98,-0.09,0.20,0.69,4.03,0.00,0.01,0.00,0.00,1,1,10,42.6264273,-88.1615511,249.0,2024,3,30,16,46,13,0,0,0,0,1.6,1.0,1.3,0,29,0,0,0,0,36,29,0,0,0,0,31,26,36,0,27,0,0,0,40,18,0,0,0,0,0,0,0,28,0,0
6,11044,5,N0CALL,0.55,3,   boost,73.19,97994.00,281.05,11.71,40.83,16.7,4.03,4.03,4.03,-85.02,-1.77,1.77,-0.44,7.05,3.65,-0.98,-0.09,0.20,0.76,4.03,0.00,0.01,0.00,0.00,1,1,10,42.6264273,-88.1615511,249.0,2024,3,30,16,46,13,0,0,0,0,1.6,1.0,1.3,0,29,0,0,0,0,36,29,0,0,0,0,31,26,36,0,27,0,0,0,40,18,0,0,0,0,0,0,0,28,0,0
6,11044,5,N0CALL,0.56,3,   boost,70.32,97994.00,281.05,11.71,41.55,16.7,4.03,4.03,4.03,-85.16,-1.88,1.77,-1.29,7.17,3.89,-0.98,-0.09,0.20,0.83,4.03,0.00,0.01,0.00,0.00,1,1,10,42.6264273,-88.1615511,249.0,2024,3,30,16,46,13,0,0,0,0,1.6,1.0,1.3,0,29,0,0,0,0,36,29,0,0,0,0,31,26,36,0,27,0,0,0,40,18,0,0,0,0,0,0,0,28,0,0
6,11044,5,N0CALL,0.57,3,   boost,73.19,98004.00,280.19,10.86,42.28,16.7,4.03,4.03,4.03,-85.20,-2.13,1.65,-2.21,7.97,4.44,-0.98,-0.09,0.20,0.91,4.03,0.00,0.01,0.00,0.00,1,1,10,42.6264273,-88.1615511,249.0,2024,3,30,16,46,13,0,0,0,0,1.6,1.0,1.3,0,29,0,0,0,0,36,29,0,0,0,0,31,26,36,0,27,0,0,0,40,18,0,0,0,0,0,0,0,28,0,0
6,11044,5,N0CALL,0.58,3,   boost,73.19,98004.00,280.19,10.86,43.01,16.7,4.03,4.03,4.03,-85.51,-2.08,1.59,-3.18,7.90,4.87,-0.98,-0.09,0.20,1.00,4.03,0.00,0.01,0.00,0.00,1,1,10,42.6264273,-88.1615511,249.0,2024,3,30,16,46,13,0,0,0,0,1.6,1.0,1.3,0,29,0,0,0,0,36,29,0,0,0,0,31,26,36,0,27,0,0,0,40,18,0,0,0,0,0,0,0,28,0,0
6,11044,5,N0CALL,0.59,3,   boost,72.71,97989.00,281.47,12.14,43.74,16.7,4.03,4.03,4.03,-85.72,-2.12,1.42,-5.14,8.27,5.24,-0.97,-0.08,0.20,1.09,4.03,0.00,0.01,0.00,0.00,1,1,10,42.6264273,-88.1615511,249.0,2024,3,30,16,46,13,0,0,0,0,1.6,1.0,1.3,0,29,0,0,0,0,36,29,0,0,0,0,31,26,36,0,27,0,0,0,40,18,0,0,0,0,0,0,0,28,0,0
6,11044,5,N0CALL,0.60,3,   boost,75.10,97989.00,281.47,12.14,44.48,16.7,4.03,4.03,4.03,-85.86,-1.74,1.99,-5.57,8.64,5.79,-0.97,-0.08,0.20,1.18,4.03,0.00,0.01,0.00,0.00,1,1,10,42.6264273,-88.1615511,249.0,2024,3,30,16,46,13,0,0,0,0,1.6,1.0,1.3,0,29,0,0,0,0,36,29,0,0,0,0,31,26,36,0,27,0,0,0,40,18,0,0,0,0,0,0,0,28,0,0
6,11044,5,N0CALL,0.61,3,   boost,74.63,97985.00,281.81,12.48,45.22,16.7,4.03,4.03,4.03,-86.02,-2.07,1.75,-6.36,9.00,6.15,-0.97,-0.09,0.21,1.28,4.03,0.00,0.01,0.00,0.00,1,1,10,42.6264273,-88.1615511,249.0,2024,3,30,16,46,13,0,0,0,0,1.6,1.0,1.3,0,29,0,0,0,0,36,29,0,0,0,0,31,26,36,0,27,0,0,0,40,18,0,0,0,0,0,0,0,28,0,0
6,11044,5,N0CALL,0.62,3,   boost,75.10,97985.00,281.81,12.48,45.96,16.7,4.03,4.03,4.03,-86.36,-2.21,1.44,-6.30,9.19,6.27,-0.98,-0.09,0.21,1.39,4.03,0.00,0.01,0.00,0.00,1,1,10,42.6264273,-88.1615511,249.0,2024,3,30,16,46,13,0,0,0,0,1.6,1.0,1.3,0,29,0,0,0,0,36,29,0,0,0,0,31,26,36,0,27,0,0,0,40,18,0,0,0,0,0,0,0,28,0,0
6,11044,5,N0CALL,0.63,3,   boost,74.63,97970.00,283.10,13.76,46.71,16.7,4.03,4.03,4.03,-86.40,-2.06,1.43,-4.77,9.74,6.70,-0.97,-0.09,0.21,1.50,4.03,0.00,0.01,0.00,0.00,1,1,10,42.6264273,-88.1615511,249.0,2024,3,30,16,46,13,0,0,0,0,1.6,1.0,1.3,0,29,0,0,0,0,36,29,0,0,0,0,31,26,36,0,27,0,0,0,40,18,0,0,0,0,0,0,0,28,0,0
6,11044,5,N0CALL,0.64,3,   boost,73.19,97970.00,283.10,13.76,47.45,16.7,4.03,4.03,4.03,-86.41,-1.88,1.64,-5.38,10.16,7.31,-0.97,-0.08,0.21,1.62,4.03,0.00,0.01,0.00,0.00,1,1,10,42.6264273,-88.1615511,249.0,2024,3,30,16,46,13,0,0,0,0,1.6,1.0,1.3,0,29,0,0,0,0,36,29,0,0,0,0,31,26,36,0,27,0,0,0,40,18,0,0,0,0,0,0,0,28,0,0
6,11044,5,N0CALL,0.65,3,   boost,74.15,97959.00,284.04,14.70,48.19,16.7,4.03,4.03,4.03,-86.61,-2.07,1.67,-6.11,10.71,7.31,-0.97,-0.08,0.21,1.74,4.03,0.00,0.01,0.00,0.00,1,1,10,42.6264273,-88.1615511,249.0,2024,3,30,16,46,13,0,0,0,0,1.6,1.0,1.3,0,29,0,0,0,0,36,29,0,0,0,0,31,26,36,0,27,0,0,0,40,18,0,0,0,0,0,0,0,28,0,0
6,11044,5,N0CALL,0.66,3,   boost,74.15,97959.00,284.04,14.70,48.93,16.7,4.05,4.07,4.06,-86.83,-2.07,1.68,-6.91,10.77,7.80,-0.97,-0.08,0.21,1.87,4.05,0.00,0.00,0.00,0.00,1,1,10,42.6264273,-88.1615511,249.0,2024,3,30,16,46,13,0,0,0,0,1.6,1.0,1.3,0,29,0,0,0,0,36,29,0,0,0,0,31,26,36,0,27,0,0,0,40,18,0,0,0,0,0,0,0,28,0,0
6,11044,5,N0CALL,0.66,3,   boost,74.15,97959.00,284.04,14.70,48.93,16.7,4.05,4.07,4.06,-86.83,-2.07,1.68,-6.91,10.77,7.80,-0.97,-0.08,0.21,1.87,4.05,0.00,0.00,0.00,0.00,1,1,10,42.6264273,-88.1615511,249.0,2024,3,30,16,46,13,0,0,0,0,1.6,1.0,1.3,0,29,0,0,0,0,36,29,0,0,0,0,31,26,36,0,27,0,0,0,40,18,0,0,0,0,0,0,0,28,0,0
6,11044,5,N0CALL,0.67,3,   boost,74.15,97953.00,284.55,15.22,49.68,16.7,4.05,4.07,4.06,-86.84,-2.41,1.35,-7.46,11.20,8.47,-0.97,-0.08,0.21,2.00,4.05,0.00,0.00,0.00,0.00,1,1,10,42.6264273,-88.1615511,249.0,2024,3,30,16,46,13,0,0,0,0,1.6,1.0,1.3,0,29,0,0,0,0,36,29,0,0,0,0,31,26,36,0,27,0,0,0,40,18,0,0,0,0,0,0,0,28,0,0
6,11044,5,N0CALL,0.68,3,   boost,74.63,97953.00,284.55,15.22,50.42,16.7,4.05,4.07,4.06,-86.87,-1.88,1.39,-8.25,11.20,8.72,-0.97,-0.08,0.21,2.14,4.05,0.00,0.00,0.00,0.00,1,1,10,42.6264273,-88.1615511,249.0,2024,3,30,16,46,13,0,0,0,0,1.6,1.0,1.3,0,29,0,0,0,0,36,29,0,0,0,0,31,26,36,0,27,0,0,0,40,18,0,0,0,0,0,0,0,28,0,0
6,11044,5,N0CALL,0.69,3,   boost,75.10,97954.00,284.47,15.13,51.17,16.7,4.05,4.07,4.06,-87.16,-1.80,1.62,-8.92,11.93,8.84,-0.97,-0.08,0.21,2.29,4.05,0.00,0.00,0.00,0.00,1,1,10,42.6264273,-88.1615511,249.0,2024,3,30,16,46,13,0,0,0,0,1.6,1.0,1.3,0,29,0,0,0,0,36,29,0,0,0,0,31,26,36,0,27,0,0,0,40,18,0,0,0,0,0,0,0,28,0,0
6,11044,5,N0CALL,0.70,3,   boost,76.54,97954.00,284.47,15.13,51.93,16.7,4.05,4.07,4.06,-87.51,-1.87,1.64,-9.35,11.93,9.26,-0.97,-0.08,0.22,2.43,4.05,0.00,0.00,0.00,0.00,1,1,10,42.6264273,-88.1615511,249.0,2024,3,30,16,46,13,0,0,0,0,1.6,1.0,1.3,0,29,0,0,0,0,36,29,0,0,0,0,31,26,36,0,27,0,0,0,40,18,0,0,0,0,0,0,0,28,0,0
6,11044,5,N0CALL,0.71,3,   boost,75.58,97950.00,284.81,15.47,52.69,16.7,4.05,4.07,4.06,-87.80,-2.00,1.42,-10.33,12.30,9.63,-0.97,-0.08,0.22,2.58,4.05,0.00,0.00,0.00,0.00,1,1,10,42.6264273,-88.1615511,249.0,2024,3,30,16,46,13,0,0,0,0,1.6,1.0,1.3,0,29,0,0,0,0,36,29,0,0,0,0,31,26,36,0,27,0,0,0,40,18,0,0,0,0,0,0,0,28,0,0
6,11044,5,N0CALL,0.72,3,   boost,77.97,97950.00,284.81,15.47,53.45,16.7,4.05,4.07,4.06,-87.78,-2.16,1.31,-10.81,12.91,9.63,-0.97,-0.08,0.22,2.74,4.05,0.00,0.00,0.00,0.00,1,1,10,42.6264273,-88.1615511,249.0,2024,3,30,16,46,13,0,0,0,0,1.6,1.0,1.3,0,29,0,0,0,0,36,29,0,0,0,0,31,26,36,0,27,0,0,0,40,18,0,0,0,0,0,0,0,28,0,0
6,11044,5,N0CALL,0.73,3,   boost,75.58,97919.00,287.46,18.13,54.21,16.7,4.05,4.07,4.06,-87.85,-1.79,1.51,-11.61,13.09,10.00,-0.97,-0.08,0.22,2.90,4.05,0.00,0.00,0.00,0.00,1,1,10,42.6264273,-88.1615511,249.0,2024,3,30,16,46,13,0,0,0,0,1.6,1.0,1.3,0,29,0,0,0,0,36,29,0,0,0,0,31,26,36,0,27,0,0,0,40,18,0,0,0,0,0,0,0,28,0,0
6,11044,5,N0CALL,0.74,3,   boost,76.06,97919.00,287.46,18.13,54.97,16.7,4.05,4.07,4.06,-88.01,-1.73,1.69,-11.97,13.21,10.55,-0.97,-0.08,0.22,3.07,4.05,0.00,0.00,0.00,0.00,1,1,10,42.6264273,-88.1615511,249.0,2024,3,30,16,46,13,0,0,0,0,1.6,1.0,1.3,0,29,0,0,0,0,36,29,0,0,0,0,31,26,36,0,27,0,0,0,40,18,0,0,0,0,0,0,0,28,0,0
6,11044,5,N0CALL,0.75,3,   boost,75.58,97911.00,288.15,18.81,55.73,16.7,4.05,4.07,4.06,-88.19,-1.80,1.34,-12.58,13.82,10.73,-0.97,-0.08,0.22,3.24,4.05,0.00,0.00,0.00,0.00,1,1,10,42.6264273,-88.1615511,249.0,2024,3,30,16,46,13,0,0,0,0,1.6,1.0,1.3,0,29,0,0,0,0,36,29,0,0,0,0,31,26,36,0,27,0,0,0,40,18,0,0,0,0,0,0,0,28,0,0
6,11044,5,N0CALL,0.76,3,   boost,76.54,97911.00,288.15,18.81,56.50,16.7,4.05,4.07,4.06,-88.27,-1.87,1.14,-13.13,14.13,11.10,-0.97,-0.08,0.22,3.42,4.05,0.00,0.00,0.00,0.00,1,1,10,42.6264273,-88.1615511,249.0,2024,3,30,16,46,13,0,0,0,0,1.6,1.0,1.3,0,29,0,0,0,0,36,29,0,0,0,0,31,26,36,0,27,0,0,0,40,18,0,0,0,0,0,0,0,28,0,0
6,11044,5,N0CALL,0.77,3,   boost,77.50,97905.00,288.66,19.33,57.27,16.7,4.05,4.07,4.06,-88.35,-1.74,1.30,-14.17,14.50,11.28,-0.97,-0.08,0.22,3.60,4.05,0.00,0.00,0.00,0.00,1,1,10,42.6264273,-88.1615511,249.0,2024,3,30,16,46,13,0,0,0,0,1.6,1.0,1.3,0,29,0,0,0,0,36,29,0,0,0,0,31,26,36,0,27,0,0,0,40,18,0,0,0,0,0,0,0,28,0,0
6,11044,5,N0CALL,0.78,3,   boost,79.41,97905.00,288.66,19.33,58.04,16.7,4.05,4.07,4.06,-89.88,-1.78,1.61,-14.35,15.05,11.71,-0.97,-0.08,0.22,3.78,4.05,0.00,0.00,0.00,0.00,1,1,10,42.6264273,-88.1615511,249.0,2024,3,30,16,46,13,0,0,0,0,1.6,1.0,1.3,0,29,0,0,0,0,36,29,0,0,0,0,31,26,36,0,27,0,0,0,40,18,0,0,0,0,0,0,0,28,0,0
6,11044,5,N0CALL,0.79,3,   boost,76.54,97904.00,288.75,19.41,58.81,16.7,4.05,4.07,4.06,-90.73,-1.95,0.81,-15.03,15.11,11.77,-0.96,-0.07,0.23,3.97,4.05,0.00,0.00,0.00,0.00,1,1,10,42.6264273,-88.1615511,249.0,2024,3,30,16,46,13,0,0,0,0,1.6,1.0,1.3,0,29,0,0,0,0,36,29,0,0,0,0,31,26,36,0,27,0,0,0,40,18,0,0,0,0,0,0,0,28,0,0
6,11044,5,N0CALL,0.80,3,   boost,77.02,97904.00,288.75,19.41,59.58,16.7,4.05,4.07,4.06,-88.91,-2.00,0.51,-15.76,15.35,11.83,-0.96,-0.07,0.23,4.16,4.05,0.00,0.00,0.00,0.00,1,1,10,42.6264273,-88.1615511,249.0,2024,3,30,16,46,13,0,0,0,0,1.6,1.0,1.3,0,29,0,0,0,0,36,29,0,0,0,0,31,26,36,0,27,0,0,0,40,18,0,0,0,0,0,0,0,28,0,0
6,11044,5,N0CALL,0.81,3,   boost,77.02,97887.00,290.20,20.87,60.35,16.7,4.05,4.07,4.06,-88.81,-1.55,1.41,-16.55,15.84,12.26,-0.96,-0.07,0.23,4.36,4.05,0.00,0.00,0.00,0.00,1,1,10,42.6264273,-88.1615511,249.0,2024,3,30,16,46,13,0,0,0,0,1.6,1.0,1.3,0,29,0,0,0,0,36,29,0,0,0,0,31,26,36,0,27,0,0,0,40,18,0,0,0,0,0,0,0,28,0,0
6,11044,5,N0CALL,0.82,3,   boost,77.50,97887.00,290.20,20.87,61.12,16.7,4.05,4.07,4.06,-88.80,-1.73,0.97,-16.80,16.14,12.62,-0.96,-0.07,0.23,4.57,4.05,0.00,0.00,0.00,0.00,1,1,10,42.6264273,-88.1615511,249.0,2024,3,30,16,46,13,0,0,0,0,1.6,1.0,1.3,0,29,0,0,0,0,36,29,0,0,0,0,31,26,36,0,27,0,0,0,40,18,0,0,0,0,0,0,0,28,0,0
6,11044,5,N0CALL,0.83,3,   boost,77.97,97881.00,290.71,21.38,61.89,16.7,4.05,4.07,4.06,-88.76,-1.85,1.35,-17.35,16.45,12.80,-0.96,-0.08,0.23,4.77,4.05,0.00,0.00,0.00,0.00,1,1,10,42.6264273,-88.1615511,249.0,2024,3,30,16,46,13,0,0,0,0,1.6,1.0,1.3,0,29,0,0,0,0,36,29,0,0,0,0,31,26,36,0,27,0,0,0,40,18,0,0,0,0,0,0,0,28,0,0
6,11044,5,N0CALL,0.84,3,   boost,78.45,97881.00,290.71,21.38,62.67,16.7,4.05,4.07,4.06,-88.88,-1.77,0.96,-17.96,16.75,12.99,-0.96,-0.08,0.23,4.98,4.05,0.00,0.00,0.00,0.00,1,1,10,42.6264273,-88.1615511,249.0,2024,3,30,16,46,13,0,0,0,0,1.6,1.0,1.3,0,29,0,0,0,0,36,29,0,0,0,0,31,26,36,0,27,0,0,0,40,18,0,0,0,0,0,0,0,28,0,0
6,11044,5,N0CALL,0.85,3,   boost,77.02,97855.00,292.94,23.61,63.43,16.7,4.05,4.07,4.06,-88.78,-1.79,0.83,-18.63,16.82,13.11,-0.96,-0.08,0.24,5.19,4.05,0.00,0.00,0.00,0.00,1,1,10,42.6264273,-88.1615511,249.0,2024,3,30,16,46,13,0,0,0,0,1.6,1.0,1.3,0,29,0,0,0,0,36,29,0,0,0,0,31,26,36,0,27,0,0,0,40,18,0,0,0,0,0,0,0,28,0,0
6,11044,5,N0CALL,0.86,3,   boost,76.06,97855.00,292.94,23.61,64.20,16.7,4.05,4.07,4.06,-88.81,-1.54,1.07,-19.30,17.18,13.41,-0.96,-0.08,0.24,5.41,4.05,0.00,0.00,0.00,0.00,1,1,10,42.6264273,-88.1615511,249.0,2024,3,30,16,46,13,0,0,0,0,1.6,1.0,1.3,0,29,0,0,0,0,36,29,0,0,0,0,31,26,36,0,27,0,0,0,40,18,0,0,0,0,0,0,0,28,0,0
6,11044,5,N0CALL,0.87,3,   boost,75.10,97851.00,293.28,23.95,64.96,16.7,4.05,4.07,4.06,-88.81,-1.83,0.63,-19.60,17.55,13.78,-0.96,-0.07,0.24,5.63,4.05,0.00,0.00,0.00,0.00,1,1,10,42.6264273,-88.1615511,249.0,2024,3,30,16,46,13,0,0,0,0,1.6,1.0,1.3,0,29,0,0,0,0,36,29,0,0,0,0,31,26,36,0,27,0,0,0,40,18,0,0,0,0,0,0,0,28,0,0
6,11044,5,N0CALL,0.88,3,   boost,76.06,97851.00,293.28,23.95,65.72,16.7,4.05,4.07,4.06,-89.04,-1.73,0.65,-20.21,17.73,13.90,-0.96,-0.07,0.24,5.85,4.05,0.00,0.00,0.00,0.00,1,1,10,42.6264273,-88.1615511,249.0,2024,3,30,16,46,13,0,0,0,0,1.6,1.0,1.3,0,29,0,0,0,0,36,29,0,0,0,0,31,26,36,0,27,0,0,0,40,18,0,0,0,0,0,0,0,28,0,0
6,11044,5,N0CALL,0.89,3,   boost,77.97,97828.00,295.25,25.92,66.48,16.7,4.05,4.07,4.06,-89.00,-1.40,0.24,-20.64,17.79,14.27,-0.96,-0.07,0.24,6.08,4.05,0.00,0.00,0.00,0.00,1,1,10,42.6264273,-88.1615511,249.0,2024,3,30,16,46,13,0,0,0,0,1.6,1.0,1.3,0,29,0,0,0,0,36,29,0,0,0,0,31,26,36,0,27,0,0,0,40,18,0,0,0,0,0,0,0,28,0,0
6,11044,5,N0CALL,0.90,3,   boost,76.06,97828.00,295.25,25.92,67.25,16.7,4.05,4.07,4.06,-89.14,-1.34,0.29,-21.07,17.67,14.57,-0.96,-0.07,0.24,6.30,4.05,0.00,0.00,0.00,0.00,1,1,10,42.6264273,-88.1615511,249.0,2024,3,30,16,46,13,0,0,0,0,1.6,1.0,1.3,0,29,0,0,0,0,36,29,0,0,0,0,31,26,36,0,27,0,0,0,40,18,0,0,0,0,0,0,0,28,0,0
6,11044,5,N0CALL,0.91,3,   boost,78.45,97838.00,294.40,25.06,68.01,16.7,4.05,4.07,4.06,-89.45,-1.37,0.46,-22.11,17.85,14.76,-0.96,-0.07,0.24,6.53,4.05,0.00,0.00,0.00,0.00,1,1,10,42.6264273,-88.1615511,249.0,2024,3,30,16,46,13,0,0,0,0,1.6,1.0,1.3,0,29,0,0,0,0,36,29,0,0,0,0,31,26,36,0,27,0,0,0,40,18,0,0,0,0,0,0,0,28,0,0
6,11044,5,N0CALL,0.92,3,   boost,77.50,97838.00,294.40,25.06,68.78,16.7,4.05,4.07,4.06,-89.29,-1.42,0.27,-22.59,17.79,14.94,-0.95,-0.07,0.25,6.76,4.05,0.00,0.00,0.00,0.00,1,1,10,42.6264273,-88.1615511,249.0,2024,3,30,16,46,13,0,0,0,0,1.6,1.0,1.3,0,29,0,0,0,0,36,29,0,0,0,0,31,26,36,0,27,0,0,0,40,18,0,0,0,0,0,0,0,28,0,0
6,11044,5,N0CALL,0.93,3,   boost,77.50,97814.00,296.45,27.12,69.55,16.7,4.05,4.07,4.06,-89.41,-1.32,0.11,-23.63,18.10,14.88,-0.95,-0.07,0.25,6.99,4.05,0.00,0.00,0.00,0.00,1,1,10,42.6264273,-88.1615511,249.0,2024,3,30,16,46,13,0,0,0,0,1.6,1.0,1.3,0,29,0,0,0,0,36,29,0,0,0,0,31,26,36,0,27,0,0,0,40,18,0,0,0,0,0,0,0,28,0,0
6,11044,5,N0CALL,0.94,3,   boost,76.54,97814.00,296.45,27.12,70.31,16.7,4.05,4.07,4.06,-89.45,-0.82,0.27,-24.06,18.34,15.12,-0.95,-0.07,0.25,7.23,4.05,0.00,0.00,0.00,0.00,1,1,10,42.6264273,-88.1615511,249.0,2024,3,30,16,46,13,0,0,0,0,1.6,1.0,1.3,0,29,0,0,0,0,36,29,0,0,0,0,31,26,36,0,27,0,0,0,40,18,0,0,0,0,0,0,0,28,0,0
6,11044,5,N0CALL,0.95,3,   boost,76.54,97796.00,297.99,28.66,71.08,16.7,4.05,4.07,4.06,-89.62,-0.85,-0.15,-24.67,18.22,15.18,-0.95,-0.07,0.25,7.46,4.05,0.00,0.00,0.00,0.00,1,1,10,42.6264273,-88.1615511,249.0,2024,3,30,16,46,13,0,0,0,0,1.6,1.0,1.3,0,29,0,0,0,0,36,29,0,0,0,0,31,26,36,0,27,0,0,0,40,18,0,0,0,0,0,0,0,28,0,0
6,11044,5,N0CALL,0.96,3,   boost,77.50,97796.00,297.99,28.66,71.84,16.7,4.05,4.07,4.06,-89.99,-1.01,-0.50,-25.28,18.28,15.25,-0.95,-0.07,0.25,7.70,4.05,0.00,0.00,0.00,0.00,1,1,10,42.6264273,-88.1615511,249.0,2024,3,30,16,46,13,0,0,0,0,1.6,1.0,1.3,0,29,0,0,0,0,36,29,0,0,0,0,31,26,36,0,27,0,0,0,40,18,0,0,0,0,0,0,0,28,0,0
6,11044,5,N0CALL,0.97,3,   boost,78.45,97786.00,298.85,29.52,72.61,16.7,4.05,4.07,4.06,-89.83,-0.77,-0.30,-26.07,18.28,15.00,-0.95,-0.07,0.26,7.93,4.05,0.00,0.00,0.00,0.00,1,1,10,42.6264273,-88.1615511,249.0,2024,3,30,16,46,13,0,0,0,0,1.6,1.0,1.3,0,29,0,0,0,0,36,29,0,0,0,0,31,26,36,0,27,0,0,0,40,18,0,0,0,0,0,0,0,28,0,0
6,11044,5,N0CALL,0.97,3,   boost,78.45,97786.00,298.85,29.52,72.61,16.7,4.05,4.07,4.06,-89.83,-0.77,-0.30,-26.07,18.28,15.00,-0.95,-0.07,0.26,7.93,4.05,0.00,0.00,0.00,0.00,1,1,10,42.6264273,-88.1615511,249.0,2024,3,30,16,46,13,0,0,0,0,1.6,1.0,1.3,0,29,0,0,0,0,36,29,0,0,0,0,31,26,36,0,27,0,0,0,40,18,0,0,0,0,0,0,0,28,0,0
6,11044,5,N0CALL,0.97,3,   boost,78.45,97786.00,298.85,29.52,72.61,16.7,4.05,4.07,4.06,-89.83,-0.77,-0.30,-26.07,18.28,15.00,-0.95,-0.07,0.26,7.93,4.05,0.00,0.00,0.00,0.00,1,1,10,42.6264273,-88.1615511,249.0,2024,3,30,16,46,13,0,0,0,0,1.6,1.0,1.3,0,29,0,0,0,0,36,29,0,0,0,0,31,26,36,0,27,0,0,0,40,18,0,0,0,0,0,0,0,28,0,0
6,11044,5,N0CALL,0.98,3,   boost,77.50,97786.00,298.85,29.52,73.38,16.7,4.05,4.06,4.07,-89.78,-0.67,-0.29,-26.81,18.34,15.06,-0.95,-0.07,0.26,8.17,4.06,0.00,0.00,0.00,0.00,1,1,10,42.6263733,-88.1613741,258.0,2024,3,30,16,46,14,16,18,113,30,1.6,1.0,1.3,0,29,0,0,0,0,36,24,0,0,0,0,22,23,30,0,11,0,0,0,36,17,0,0,0,0,0,0,0,16,0,0
6,11044,5,N0CALL,0.98,3,   boost,77.50,97786.00,298.85,29.52,73.38,16.7,4.05,4.06,4.07,-89.78,-0.67,-0.29,-26.81,18.34,15.06,-0.95,-0.07,0.26,8.17,4.06,0.00,0.00,0.00,0.00,1,1,10,42.6263733,-88.1613741,258.0,2024,3,30,16,46,14,16,18,113,30,1.6,1.0,1.3,0,29,0,0,0,0,36,24,0,0,0,0,22,23,30,0,11,0,0,0,36,17,0,0,0,0,0,0,0,16,0,0
6,11044,5,N0CALL,0.99,3,   boost,77.50,97762.00,300.91,31.57,74.14,16.7,4.05,4.06,4.07,-90.06,-0.35,-0.45,-27.54,18.34,14.70,-0.95,-0.07,0.26,8.40,4.06,0.00,0.00,0.00,0.00,1,1,10,42.6263733,-88.1613741,258.0,2024,3,30,16,46,14,16,18,113,30,1.6,1.0,1.3,0,29,0,0,0,0,36,24,0,0,0,0,22,23,30,0,11,0,0,0,36,17,0,0,0,0,0,0,0,16,0,0
6,11044,5,N0CALL,1.00,3,   boost,77.50,97762.00,300.91,31.57,74.91,16.7,4.05,4.06,4.07,-89.76,-0.45,-0.65,-28.58,18.10,14.51,-0.95,-0.07,0.26,8.63,4.06,0.00,0.00,0.00,0.00,1,1,10,42.6263733,-88.1613741,258.0,2024,3,30,16,46,14,16,18,113,30,1.6,1.0,1.3,0,29,0,0,0,0,36,24,0,0,0,0,22,23,30,0,11,0,0,0,36,17,0,0,0,0,0,0,0,16,0,0
6,11044,5,N0CALL,1.01,3,   boost,77.02,97766.00,300.56,31.23,75.67,16.7,4.05,4.06,4.07,-89.71,-0.67,-0.92,-29.61,18.04,14.51,-0.94,-0.07,0.26,8.86,4.06,0.00,0.00,0.00,0.00,1,1,10,42.6263733,-88.1613741,258.0,2024,3,30,16,46,14,16,18,113,30,1.6,1.0,1.3,0,29,0,0,0,0,36,24,0,0,0,0,22,23,30,0,11,0,0,0,36,17,0,0,0,0,0,0,0,16,0,0
6,11044,5,N0CALL,1.02,3,   boost,77.02,97766.00,300.56,31.23,76.44,16.7,4.05,4.06,4.07,-89.90,-0.29,-0.88,-30.83,17.79,14.33,-0.94,-0.07,0.26,9.08,4.06,0.00,0.00,0.00,0.00,1,1,10,42.6263733,-88.1613741,258.0,2024,3,30,16,46,14,16,18,113,30,1.6,1.0,1.3,0,29,0,0,0,0,36,24,0,0,0,0,22,23,30,0,11,0,0,0,36,17,0,0,0,0,0,0,0,16,0,0
6,11044,5,N0CALL,1.03,3,   boost,78.93,97731.00,303.56,34.23,77.20,16.7,4.05,4.06,4.07,-89.91,-0.48,-0.70,-31.99,17.85,14.15,-0.94,-0.07,0.26,9.31,4.06,0.00,0.00,0.00,0.00,1,1,10,42.6263733,-88.1613741,258.0,2024,3,30,16,46,14,16,18,113,30,1.6,1.0,1.3,0,29,0,0,0,0,36,24,0,0,0,0,22,23,30,0,11,0,0,0,36,17,0,0,0,0,0,0,0,16,0,0
6,11044,5,N0CALL,1.04,3,   boost,77.50,97731.00,303.56,34.23,77.97,16.7,4.05,4.06,4.07,-89.96,-0.50,-0.73,-33.03,17.49,13.84,-0.94,-0.07,0.26,9.53,4.06,0.00,0.00,0.00,0.00,1,1,10,42.6263733,-88.1613741,258.0,2024,3,30,16,46,14,16,18,113,30,1.6,1.0,1.3,0,29,0,0,0,0,36,24,0,0,0,0,22,23,30,0,11,0,0,0,36,17,0,0,0,0,0,0,0,16,0,0
6,11044,5,N0CALL,1.05,3,   boost,77.97,97739.00,302.88,33.54,78.74,16.7,4.05,4.06,4.07,-89.91,-0.41,-0.97,-34.07,17.24,13.54,-0.94,-0.07,0.27,9.75,4.06,0.00,0.00,0.00,0.00,1,1,10,42.6263733,-88.1613741,258.0,2024,3,30,16,46,14,16,18,113,30,1.6,1.0,1.3,0,29,0,0,0,0,36,24,0,0,0,0,22,23,30,0,11,0,0,0,36,17,0,0,0,0,0,0,0,16,0,0
6,11044,5,N0CALL,1.06,3,   boost,78.93,97739.00,302.88,33.54,79.51,16.7,4.05,4.06,4.07,-89.96,-0.45,-1.40,-35.17,17.36,13.05,-0.94,-0.07,0.27,9.96,4.06,0.00,0.00,0.00,0.00,1,1,10,42.6263733,-88.1613741,258.0,2024,3,30,16,46,14,16,18,113,30,1.6,1.0,1.3,0,29,0,0,0,0,36,24,0,0,0,0,22,23,30,0,11,0,0,0,36,17,0,0,0,0,0,0,0,16,0,0
6,11044,5,N0CALL,1.07,3,   boost,78.45,97704.00,305.88,36.54,80.28,16.7,4.05,4.06,4.07,-90.03,-0.17,-1.66,-36.63,16.94,13.11,-0.94,-0.07,0.27,10.17,4.06,0.00,0.00,0.00,0.00,1,1,10,42.6263733,-88.1613741,258.0,2024,3,30,16,46,14,16,18,113,30,1.6,1.0,1.3,0,29,0,0,0,0,36,24,0,0,0,0,22,23,30,0,11,0,0,0,36,17,0,0,0,0,0,0,0,16,0,0
6,11044,5,N0CALL,1.08,3,   boost,78.93,97704.00,305.88,36.54,81.05,16.7,4.05,4.06,4.07,-90.19,0.18,-1.22,-37.73,16.82,12.99,-0.94,-0.07,0.27,10.39,4.06,0.00,0.00,0.00,0.00,1,1,10,42.6263733,-88.1613741,258.0,2024,3,30,16,46,14,16,18,113,30,1.6,1.0,1.3,0,29,0,0,0,0,36,24,0,0,0,0,22,23,30,0,11,0,0,0,36,17,0,0,0,0,0,0,0,16,0,0
6,11044,5,N0CALL,1.09,3,   boost,77.97,97696.00,306.56,37.23,81.82,16.7,4.05,4.06,4.07,-89.91,-0.11,-1.50,-39.44,16.45,12.44,-0.94,-0.08,0.27,10.59,4.06,0.00,0.00,0.00,0.00,1,1,10,42.6263733,-88.1613741,258.0,2024,3,30,16,46,14,16,18,113,30,1.6,1.0,1.3,0,29,0,0,0,0,36,24,0,0,0,0,22,23,30,0,11,0,0,0,36,17,0,0,0,0,0,0,0,16,0,0
6,11044,5,N0CALL,1.10,3,   boost,78.45,97696.00,306.56,37.23,82.59,16.7,4.05,4.06,4.07,-89.92,-0.17,-1.89,-40.60,15.72,12.32,-0.94,-0.08,0.27,10.79,4.06,0.00,0.00,0.00,0.00,1,1,10,42.6263733,-88.1613741,258.0,2024,3,30,16,46,14,16,18,113,30,1.6,1.0,1.3,0,29,0,0,0,0,36,24,0,0,0,0,22,23,30,0,11,0,0,0,36,17,0,0,0,0,0,0,0,16,0,0
6,11044,5,N0CALL,1.11,3,   boost,77.50,97672.00,308.62,39.29,83.35,16.7,4.05,4.06,4.07,-90.11,0.32,-2.03,-41.70,15.59,11.83,-0.94,-0.08,0.27,10.98,4.06,0.00,0.00,0.00,0.00,1,1,10,42.6263733,-88.1613741,258.0,2024,3,30,16,46,14,16,18,113,30,1.6,1.0,1.3,0,29,0,0,0,0,36,24,0,0,0,0,22,23,30,0,11,0,0,0,36,17,0,0,0,0,0,0,0,16,0,0
6,11044,5,N0CALL,1.12,3,   boost,78.93,97672.00,308.62,39.29,84.12,16.7,4.05,4.06,4.07,-90.04,0.57,-2.34,-43.41,14.98,11.64,-0.93,-0.08,0.27,11.17,4.06,0.00,0.00,0.00,0.00,1,1,10,42.6263733,-88.1613741,258.0,2024,3,30,16,46,14,16,18,113,30,1.6,1.0,1.3,0,29,0,0,0,0,36,24,0,0,0,0,22,23,30,0,11,0,0,0,36,17,0,0,0,0,0,0,0,16,0,0
