#version,serial,flight,call,time,state,state_name,acceleration,pressure,altitude,height,speed,temperature,drogue_voltage,main_voltage,battery_voltage,accel_x,accel_y,accel_z,gyro_roll,gyro_pitch,gyro_yaw,mag_x,mag_y,mag_z,tilt,pyro,igniter_a,igniter_b,igniter_c,igniter_d,connected,locked,nsat,latitude,longitude,altitude,year,month,day,hour,minute,second,pad_dist,pad_range,pad_az,pad_el,pdop,hdop,vdop,sat01,sat02,sat03,sat04,sat05,sat06,sat07,sat08,sat09,sat10,sat11,sat12,sat13,sat14,sat15,sat16,sat17,sat18,sat19,sat20,sat21,sat22,sat23,sat24,sat25,sat26,sat27,sat28,sat29,sat30,sat31,sat32
6, 11044, 6,N0CALL,    -0.30, 3,   boost,   -1.91, 100194.00,   94.58,   -0.42,    0.00, 27.7, 4.01, 4.01, 4.02,  -9.89,  -0.07,  -0.22,   0.14,  -0.07,   0.29,  -0.95,  -0.04,  -0.22,   1.63, 4.01, 0.00, 0.00, 0.00, 0.00, 1, 1, 10,  41.7770887, -86.5780190,   198.0, 2024,  4,  6, 18, 15, 14,        0,        0, 133,   0,   1.6,   1.1,   1.1,  0, 28, 15,  0,  0,  0,  0,  0,  0,  0, 30,  0,  0, 29,  0,  0, 30,  0, 31,  0,  0, 33,  0,  0,  0,  0,  0,  0,  0, 40,  0,  0
6, 11044, 6,N0CALL,    -0.29, 3,   boost,   -0.96, 100179.00,   95.84,    0.84,    0.00, 27.7, 4.01, 4.01, 4.02,  -9.88,  -0.11,  -0.28,   0.20,  -0.19,   0.41,  -0.95,  -0.04,  -0.22,   1.63, 4.01, 0.00, 0.00, 0.00, 0.00, 1, 1, 10,  41.7770887, -86.5780190,   198.0, 2024,  4,  6, 18, 15, 14,        0,        0, 133,   0,   1.6,   1.1,   1.1,  0, 28, 15,  0,  0,  0,  0,  0,  0,  0, 30,  0,  0, 29,  0,  0, 30,  0, 31,  0,  0, 33,  0,  0,  0,  0,  0,  0,  0, 40,  0,  0
6, 11044, 6,N0CALL,    -0.28, 3,   boost,    0.48, 100179.00,   95.84,    0.84,    0.00, 27.7, 4.01, 4.01, 4.02,  -9.89,  -0.04,  -0.35,  -0.04,   0.05,  -0.01,  -0.95,  -0.04,  -0.22,   1.63, 4.01, 0.00, 0.00, 0.00, 0.00, 1, 1, 10,  41.7770887, -86.5780190,   198.0, 2024,  4,  6, 18, 15, 14,        0,        0, 133,   0,   1.6,   1.1,   1.1,  0, 28, 15,  0,  0,  0,  0,  0,  0,  0, 30,  0,  0, 29,  0,  0, 30,  0, 31,  0,  0, 33,  0,  0,  0,  0,  0,  0,  0, 40,  0,  0
6, 11044, 6,N0CALL,    -0.27, 3,   boost,   -0.48, 100180.00,   95.75,    0.76,    0.00, 27.7, 4.01, 4.01, 4.02,  -9.84,  -0.04,  -0.23,  -0.04,  -0.07,   0.17,  -0.94,  -0.04,  -0.22,   1.63, 4.01, 0.00, 0.00, 0.00, 0.00, 1, 1, 10,  41.7770887, -86.5780190,   198.0, 2024,  4,  6, 18, 15, 14,        0,        0, 133,   0,   1.6,   1.1,   1.1,  0, 28, 15,  0,  0,  0,  0,  0,  0,  0, 30,  0,  0, 29,  0,  0, 30,  0, 31,  0,  0, 33,  0,  0,  0,  0,  0,  0,  0, 40,  0,  0
6, 11044, 6,N0CALL,    -0.26, 3,   boost,    2.39, 100180.00,   95.75,    0.76,    0.00, 27.7, 4.01, 4.01, 4.02,  -9.86,  -0.12,  -0.34,   0.02,   0.36,  -0.20,  -0.94,  -0.04,  -0.22,   1.63, 4.01, 0.00, 0.00, 0.00, 0.00, 1, 1, 10,  41.7770887, -86.5780190,   198.0, 2024,  4,  6, 18, 15, 14,        0,        0, 133,   0,   1.6,   1.1,   1.1,  0, 28, 15,  0,  0,  0,  0,  0,  0,  0, 30,  0,  0, 29,  0,  0, 30,  0, 31,  0,  0, 33,  0,  0,  0,  0,  0,  0,  0, 40,  0,  0
6, 11044, 6,N0CALL,    -0.25, 3,   boost,   -1.44, 100211.00,   93.15,   -1.85,    0.00, 27.7, 4.01, 4.01, 4.02,  -9.90,   0.01,  -0.24,   0.14,   0.05,   0.05,  -0.94,  -0.04,  -0.22,   1.63, 4.01, 0.00, 0.00, 0.00, 0.00, 1, 1, 10,  41.7770887, -86.5780190,   198.0, 2024,  4,  6, 18, 15, 14,        0,        0, 133,   0,   1.6,   1.1,   1.1,  0, 28, 15,  0,  0,  0,  0,  0,  0,  0, 30,  0,  0, 29,  0,  0, 30,  0, 31,  0,  0, 33,  0,  0,  0,  0,  0,  0,  0, 40,  0,  0
6, 11044, 6,N0CALL,    -0.24, 3,   boost,   -1.44, 100211.00,   93.15,   -1.85,    0.00, 27.7, 4.01, 4.01, 4.02,  -9.86,  -0.08,  -0.27,  -0.04,   0.24,   0.17,  -0.94,  -0.04,  -0.22,   1.63, 4.01, 0.00, 0.00, 0.00, 0.00, 1, 1, 10,  41.7770887, -86.5780190,   198.0, 2024,  4,  6, 18, 15, 14,        0,        0, 133,   0,   1.6,   1.1,   1.1,  0, 28, 15,  0,  0,  0,  0,  0,  0,  0, 30,  0,  0, 29,  0,  0, 30,  0, 31,  0,  0, 33,  0,  0,  0,  0,  0,  0,  0, 40,  0,  0
6, 11044, 6,N0CALL,    -0.23, 3,   boost,   -0.96, 100216.00,   92.73,   -2.27,    0.00, 27.7, 4.01, 4.01, 4.02,  -9.84,  -0.05,  -0.30,  -0.04,  -0.19,   0.05,  -0.94,  -0.04,  -0.22,   1.63, 4.01, 0.00, 0.00, 0.00, 0.00, 1, 1,  9,  41.7770901, -86.5780210,   198.0, 2024,  4,  6, 18, 15, 15,        0,        0,   0,   0,   1.6,   1.2,   1.1,  0, 28,  8,  0,  0,  0,  0,  0,  0,  0, 30,  0,  0, 29,  0,  0, 30,  0, 31,  0,  0, 33,  0,  0,  0,  0,  0,  0,  0, 40,  0,  0
6, 11044, 6,N0CALL,    -0.22, 3,   boost,   -0.48, 100216.00,   92.73,   -2.27,    0.00, 27.7, 4.01, 4.01, 4.02,  -9.86,  -0.03,  -0.24,   0.02,  -0.13,  -0.01,  -0.94,  -0.04,  -0.22,   1.63, 4.01, 0.00, 0.00, 0.00, 0.00, 1, 1,  9,  41.7770901, -86.5780210,   198.0, 2024,  4,  6, 18, 15, 15,        0,        0,   0,   0,   1.6,   1.2,   1.1,  0, 28,  8,  0,  0,  0,  0,  0,  0,  0, 30,  0,  0, 29,  0,  0, 30,  0, 31,  0,  0, 33,  0,  0,  0,  0,  0,  0,  0, 40,  0,  0
6, 11044, 6,N0CALL,    -0.21, 3,   boost,   -0.00, 100183.00,   95.50,    0.50,    0.00, 27.7, 4.01, 4.01, 4.02,  -9.86,  -0.08,  -0.34,  -0.04,   0.05,   0.17,  -0.94,  -0.04,  -0.22,   1.63, 4.01, 0.00, 0.00, 0.00, 0.00, 1, 1,  9,  41.7770901, -86.5780210,   198.0, 2024,  4,  6, 18, 15, 15,        0,        0,   0,   0,   1.6,   1.2,   1.1,  0, 28,  8,  0,  0,  0,  0,  0,  0,  0, 30,  0,  0, 29,  0,  0, 30,  0, 31,  0,  0, 33,  0,  0,  0,  0,  0,  0,  0, 40,  0,  0
6, 11044, 6,N0CALL,    -0.20, 3,   boost,    1.44, 100183.00,   95.50,    0.50,    0.00, 27.7, 4.01, 4.01, 4.02,  -9.87,  -0.11,  -0.25,   0.02,  -0.25,  -0.01,  -0.95,  -0.04,  -0.22,   1.63, 4.01, 0.00, 0.00, 0.00, 0.00, 1, 1,  9,  41.7770901, -86.5780210,   198.0, 2024,  4,  6, 18, 15, 15,        0,        0,   0,   0,   1.6,   1.2,   1.1,  0, 28,  8,  0,  0,  0,  0,  0,  0,  0, 30,  0,  0, 29,  0,  0, 30,  0, 31,  0,  0, 33,  0,  0,  0,  0,  0,  0,  0, 40,  0,  0
6, 11044, 6,N0CALL,    -0.19, 3,   boost,   -0.48, 100218.00,   92.56,   -2.44,    0.00, 27.7, 4.01, 4.01, 4.02,  -9.91,  -0.01,  -0.34,  -0.04,   0.24,  -0.13,  -0.95,  -0.04,  -0.22,   1.63, 4.01, 0.00, 0.00, 0.00, 0.00, 1, 1,  9,  41.7770901, -86.5780210,   198.0, 2024,  4,  6, 18, 15, 15,        0,        0,   0,   0,   1.6,   1.2,   1.1,  0, 28,  8,  0,  0,  0,  0,  0,  0,  0, 30,  0,  0, 29,  0,  0, 30,  0, 31,  0,  0, 33,  0,  0,  0,  0,  0,  0,  0, 40,  0,  0
6, 11044, 6,N0CALL,    -0.18, 3,   boost,   -0.00, 100218.00,   92.56,   -2.44,    0.00, 27.7, 4.01, 4.01, 4.02,  -9.87,  -0.14,  -0.32,   0.02,   0.05,   0.23,  -0.94,  -0.04,  -0.22,   1.63, 4.01, 0.00, 0.00, 0.00, 0.00, 1, 1,  9,  41.7770901, -86.5780210,   198.0, 2024,  4,  6, 18, 15, 15,        0,        0,   0,   0,   1.6,   1.2,   1.1,  0, 28,  8,  0,  0,  0,  0,  0,  0,  0, 30,  0,  0, 29,  0,  0, 30,  0, 31,  0,  0, 33,  0,  0,  0,  0,  0,  0,  0, 40,  0,  0
6, 11044, 6,N0CALL,    -0.17, 3,   boost,    1.91, 100220.00,   92.39,   -2.60,    0.00, 27.7, 4.01, 4.01, 4.02,  -9.90,  -0.11,  -0.22,  -0.16,   0.12,  -0.26,  -0.95,  -0.04,  -0.22,   1.63, 4.01, 0.00, 0.00, 0.00, 0.00, 1, 1,  9,  41.7770901, -86.5780210,   198.0, 2024,  4,  6, 18, 15, 15,        0,        0,   0,   0,   1.6,   1.2,   1.1,  0, 28,  8,  0,  0,  0,  0,  0,  0,  0, 30,  0,  0, 29,  0,  0, 30,  0, 31,  0,  0, 33,  0,  0,  0,  0,  0,  0,  0, 40,  0,  0
6, 11044, 6,N0CALL,    -0.16, 3,   boost,   -0.96, 100220.00,   92.39,   -2.60,    0.00, 27.7, 4.01, 4.01, 4.02,  -9.90,  -0.02,  -0.27,  -0.04,   0.12,  -0.13,  -0.95,  -0.04,  -0.22,   1.63, 4.01, 0.00, 0.00, 0.00, 0.00, 1, 1,  9,  41.7770901, -86.5780210,   198.0, 2024,  4,  6, 18, 15, 15,        0,        0,   0,   0,   1.6,   1.2,   1.1,  0, 28,  8,  0,  0,  0,  0,  0,  0,  0, 30,  0,  0, 29,  0,  0, 30,  0, 31,  0,  0, 33,  0,  0,  0,  0,  0,  0,  0, 40,  0,  0
6, 11044, 6,N0CALL,    -0.15, 3,   boost,   -0.48, 100181.00,   95.67,    0.67,    0.00, 27.7, 4.01, 4.01, 4.02,  -9.84,  -0.09,  -0.23,   0.02,   0.24,   0.11,  -0.94,  -0.04,  -0.22,   1.63, 4.01, 0.00, 0.00, 0.00, 0.00, 1, 1,  9,  41.7770901, -86.5780210,   198.0, 2024,  4,  6, 18, 15, 15,        0,        0,   0,   0,   1.6,   1.2,   1.1,  0, 28,  8,  0,  0,  0,  0,  0,  0,  0, 30,  0,  0, 29,  0,  0, 30,  0, 31,  0,  0, 33,  0,  0,  0,  0,  0,  0,  0, 40,  0,  0
6, 11044, 6,N0CALL,    -0.14, 3,   boost,   -0.00, 100181.00,   95.67,    0.67,    0.00, 27.7, 4.01, 4.01, 4.02,  -9.90,  -0.04,  -0.31,  -0.04,   0.18,   0.05,  -0.94,  -0.04,  -0.22,   1.63, 4.01, 0.00, 0.00, 0.00, 0.00, 1, 1,  9,  41.7770901, -86.5780210,   198.0, 2024,  4,  6, 18, 15, 15,        0,        0,   0,   0,   1.6,   1.2,   1.1,  0, 28,  8,  0,  0,  0,  0,  0,  0,  0, 30,  0,  0, 29,  0,  0, 30,  0, 31,  0,  0, 33,  0,  0,  0,  0,  0,  0,  0, 40,  0,  0
6, 11044, 6,N0CALL,    -0.13, 3,   boost,   -0.00, 100206.00,   93.57,   -1.43,    0.00, 27.7, 4.01, 4.01, 4.02,  -9.86,  -0.06,  -0.35,  -0.04,  -0.07,  -0.13,  -0.95,  -0.04,  -0.22,   1.63, 4.01, 0.00, 0.00, 0.00, 0.00, 1, 1,  9,  41.7770901, -86.5780210,   198.0, 2024,  4,  6, 18, 15, 15,        0,        0,   0,   0,   1.6,   1.2,   1.1,  0, 28,  8,  0,  0,  0,  0,  0,  0,  0, 30,  0,  0, 29,  0,  0, 30,  0, 31,  0,  0, 33,  0,  0,  0,  0,  0,  0,  0, 40,  0,  0
6, 11044, 6,N0CALL,    -0.12, 3,   boost,    0.96, 100206.00,   93.57,   -1.43,    0.00, 27.7, 4.01, 4.01, 4.02,  -9.82,  -0.14,  -0.19,   0.02,  -0.13,   0.11,  -0.95,  -0.04,  -0.22,   1.63, 4.01, 0.00, 0.00, 0.00, 0.00, 1, 1,  9,  41.7770901, -86.5780210,   198.0, 2024,  4,  6, 18, 15, 15,        0,        0,   0,   0,   1.6,   1.2,   1.1,  0, 28,  8,  0,  0,  0,  0,  0,  0,  0, 30,  0,  0, 29,  0,  0, 30,  0, 31,  0,  0, 33,  0,  0,  0,  0,  0,  0,  0, 40,  0,  0
6, 11044, 6,N0CALL,    -0.11, 3,   boost,   -0.48, 100189.00,   95.00,    0.00,    0.00, 27.7, 4.01, 4.01, 4.02,  -9.90,  -0.07,  -0.34,  -0.10,  -0.07,   0.11,  -0.95,  -0.04,  -0.22,   1.63, 4.01, 0.00, 0.00, 0.00, 0.00, 1, 1,  9,  41.7770901, -86.5780210,   198.0, 2024,  4,  6, 18, 15, 15,        0,        0,   0,   0,   1.6,   1.2,   1.1,  0, 28,  8,  0,  0,  0,  0,  0,  0,  0, 30,  0,  0, 29,  0,  0, 30,  0, 31,  0,  0, 33,  0,  0,  0,  0,  0,  0,  0, 40,  0,  0
6, 11044, 6,N0CALL,    -0.10, 3,   boost,   -0.00, 100189.00,   95.00,    0.00,    0.03, 27.7, 4.01, 4.01, 4.02,  -9.89,  -0.09,  -0.41,  -0.10,  -0.07,  -0.13,  -0.95,  -0.04,  -0.22,   1.63, 4.01, 0.00, 0.00, 0.00, 0.00, 1, 1,  9,  41.7770901, -86.5780210,   198.0, 2024,  4,  6, 18, 15, 15,        0,        0,   0,   0,   1.6,   1.2,   1.1,  0, 28,  8,  0,  0,  0,  0,  0,  0,  0, 30,  0,  0, 29,  0,  0, 30,  0, 31,  0,  0, 33,  0,  0,  0,  0,  0,  0,  0, 40,  0,  0
6, 11044, 6,N0CALL,    -0.09, 3,   boost,   -0.48, 100181.00,   95.67,    0.67,    0.13, 27.7, 4.01, 4.01, 4.02,  -9.84,  -0.19,  -0.24,  -0.16,  -0.19,  -0.13,  -0.95,  -0.04,  -0.22,   1.63, 4.01, 0.00, 0.00, 0.00, 0.00, 1, 1,  9,  41.7770901, -86.5780210,   198.0, 2024,  4,  6, 18, 15, 15,        0,        0,   0,   0,   1.6,   1.2,   1.1,  0, 28,  8,  0,  0,  0,  0,  0,  0,  0, 30,  0,  0, 29,  0,  0, 30,  0, 31,  0,  0, 33,  0,  0,  0,  0,  0,  0,  0, 40,  0,  0
6, 11044, 6,N0CALL,    -0.08, 3,   boost,   -1.44, 100181.00,   95.67,    0.67,    0.34, 27.7, 4.01, 4.01, 4.02,  -9.90,   0.06,  -0.29,   0.20,  -0.07,  -0.13,  -0.95,  -0.04,  -0.22,   1.63, 4.01, 0.00, 0.00, 0.00, 0.00, 1, 1,  9,  41.7770901, -86.5780210,   198.0, 2024,  4,  6, 18, 15, 15,        0,        0,   0,   0,   1.6,   1.2,   1.1,  0, 28,  8,  0,  0,  0,  0,  0,  0,  0, 30,  0,  0, 29,  0,  0, 30,  0, 31,  0,  0, 33,  0,  0,  0,  0,  0,  0,  0, 40,  0,  0
6, 11044, 6,N0CALL,    -0.07, 3,   boost,   51.66, 100189.00,   95.00,    0.00,    0.72, 27.7, 4.01, 4.01, 4.02,  -9.89,  -0.04,  -0.17,   0.02,   0.12,  -0.13,  -0.95,  -0.04,  -0.22,   1.63, 4.01, 0.00, 0.00, 0.00, 0.00, 1, 1,  9,  41.7770901, -86.5780210,   198.0, 2024,  4,  6, 18, 15, 15,        0,        0,   0,   0,   1.6,   1.2,   1.1,  0, 28,  8,  0,  0,  0,  0,  0,  0,  0, 30,  0,  0, 29,  0,  0, 30,  0, 31,  0,  0, 33,  0,  0,  0,  0,  0,  0,  0, 40,  0,  0
6, 11044, 6,N0CALL,    -0.06, 3,   boost,   95.67, 100189.00,   95.00,    0.00,    1.28, 27.7, 4.01, 4.01, 4.02, -48.26,  -1.32,  -2.09,   0.26,  -1.29,  -0.68,  -0.95,  -0.04,  -0.22,   1.63, 4.01, 0.00, 0.00, 0.00, 0.00, 1, 1,  9,  41.7770901, -86.5780210,   198.0, 2024,  4,  6, 18, 15, 15,        0,        0,   0,   0,   1.6,   1.2,   1.1,  0, 28,  8,  0,  0,  0,  0,  0,  0,  0, 30,  0,  0, 29,  0,  0, 30,  0, 31,  0,  0, 33,  0,  0,  0,  0,  0,  0,  0, 40,  0,  0
6, 11044, 6,N0CALL,    -0.05, 3,   boost,   94.24, 100259.00,   89.12,   -5.88,    1.98, 27.7, 4.01, 4.01, 4.02, -96.65,   1.50,   1.43,  -5.05,  -1.04,  -3.06,  -0.94,  -0.04,  -0.22,   1.63, 4.01, 0.00, 0.00, 0.00, 0.00, 1, 1,  9,  41.7770901, -86.5780210,   198.0, 2024,  4,  6, 18, 15, 15,        0,        0,   0,   0,   1.6,   1.2,   1.1,  0, 28,  8,  0,  0,  0,  0,  0,  0,  0, 30,  0,  0, 29,  0,  0, 30,  0, 31,  0,  0, 33,  0,  0,  0,  0,  0,  0,  0, 40,  0,  0
6, 11044, 6,N0CALL,    -0.04, 3,   boost,   88.98, 100259.00,   89.12,   -5.88,    2.78, 27.7, 4.01, 4.01, 4.02,-109.43,   7.11,  23.28, -15.54,   5.91,  -6.85,  -0.94,  -0.04,  -0.22,   1.63, 4.01, 0.00, 0.00, 0.00, 0.00, 1, 1,  9,  41.7770901, -86.5780210,   198.0, 2024,  4,  6, 18, 15, 15,        0,        0,   0,   0,   1.6,   1.2,   1.1,  0, 28,  8,  0,  0,  0,  0,  0,  0,  0, 30,  0,  0, 29,  0,  0, 30,  0, 31,  0,  0, 33,  0,  0,  0,  0,  0,  0,  0, 40,  0,  0
6, 11044, 6,N0CALL,    -0.03, 3,   boost,   82.28, 100163.00,   97.18,    2.18,    3.62, 27.7, 4.01, 4.01, 4.02,-100.76,   4.63,  12.08,  -5.29,  23.06,   0.29,  -0.94,  -0.04,  -0.22,   1.63, 4.01, 0.00, 0.00, 0.00, 0.00, 1, 1,  9,  41.7770901, -86.5780210,   198.0, 2024,  4,  6, 18, 15, 15,        0,        0,   0,   0,   1.6,   1.2,   1.1,  0, 28,  8,  0,  0,  0,  0,  0,  0,  0, 30,  0,  0, 29,  0,  0, 30,  0, 31,  0,  0, 33,  0,  0,  0,  0,  0,  0,  0, 40,  0,  0
6, 11044, 6,N0CALL,    -0.02, 3,   boost,   79.41, 100163.00,   97.18,    2.18,    4.45, 27.7, 4.01, 4.01, 4.02, -95.47,  -0.07,   7.14, -12.07,   3.17,  -1.84,  -0.94,  -0.04,  -0.21,   1.63, 4.01, 0.00, 0.00, 0.00, 0.00, 1, 1,  9,  41.7770901, -86.5780210,   198.0, 2024,  4,  6, 18, 15, 15,        0,        0,   0,   0,   1.6,   1.2,   1.1,  0, 28,  8,  0,  0,  0,  0,  0,  0,  0, 30,  0,  0, 29,  0,  0, 30,  0, 31,  0,  0, 33,  0,  0,  0,  0,  0,  0,  0, 40,  0,  0
6, 11044, 6,N0CALL,    -0.01, 3,   boost,   77.02, 100172.00,   96.42,    1.43,    5.26, 27.7, 4.01, 4.01, 4.02, -93.04,  -2.59,  -9.32, -19.94,   3.29,   0.11,  -0.94,  -0.04,  -0.22,   1.63, 4.01, 0.00, 0.00, 0.00, 0.00, 1, 1,  9,  41.7770901, -86.5780210,   198.0, 2024,  4,  6, 18, 15, 15,        0,        0,   0,   0,   1.6,   1.2,   1.1,  0, 28,  8,  0,  0,  0,  0,  0,  0,  0, 30,  0,  0, 29,  0,  0, 30,  0, 31,  0,  0, 33,  0,  0,  0,  0,  0,  0,  0, 40,  0,  0
6, 11044, 6,N0CALL,     0.00, 3,   boost,   79.89, 100172.00,   96.42,    1.43,    6.08, 27.7, 4.01, 4.01, 4.02, -97.66,  -5.70,  -5.92, -15.67,  -2.94,   2.92,  -0.94,  -0.04,  -0.21,   1.63, 4.01, 0.00, 0.00, 0.00, 0.00, 1, 1,  9,  41.7770901, -86.5780210,   198.0, 2024,  4,  6, 18, 15, 15,        0,        0,   0,   0,   1.6,   1.2,   1.1,  0, 28,  8,  0,  0,  0,  0,  0,  0,  0, 30,  0,  0, 29,  0,  0, 30,  0, 31,  0,  0, 33,  0,  0,  0,  0,  0,  0,  0, 40,  0,  0
6, 11044, 6,N0CALL,     0.00, 3,   boost,   79.89, 100172.00,   96.42,    1.43,    6.08, 27.7, 4.01, 4.01, 4.02, -97.66,  -5.70,  -5.92, -15.67,  -2.94,   2.92,  -0.94,  -0.04,  -0.21,   1.63, 4.01, 0.00, 0.00, 0.00, 0.00, 1, 1,  9,  41.7770901, -86.5780210,   198.0, 2024,  4,  6, 18, 15, 15,        0,        0,   0,   0,   1.6,   1.2,   1.1,  0, 28,  8,  0,  0,  0,  0,  0,  0,  0, 30,  0,  0, 29,  0,  0, 30,  0, 31,  0,  0, 33,  0,  0,  0,  0,  0,  0,  0, 40,  0,  0
6, 11044, 6,N0CALL,     0.00, 3,   boost,   79.89, 100172.00,   96.42,    1.43,    6.08, 27.7, 4.01, 4.01, 4.02, -97.66,  -5.70,  -5.92, -15.67,  -2.94,   2.92,  -0.94,  -0.04,  -0.21,   1.63, 4.01, 0.00, 0.00, 0.00, 0.00, 1, 1,  9,  41.7770901, -86.5780210,   198.0, 2024,  4,  6, 18, 15, 15,        0,        0,   0,   0,   1.6,   1.2,   1.1,  0, 28,  8,  0,  0,  0,  0,  0,  0,  0, 30,  0,  0, 29,  0,  0, 30,  0, 31,  0,  0, 33,  0,  0,  0,  0,  0,  0,  0, 40,  0,  0
6, 11044, 6,N0CALL,     0.00, 3,   boost,   79.89, 100172.00,   96.42,    1.43,    6.08, 27.7, 4.01, 4.01, 4.02, -97.66,  -5.70,  -5.92, -15.67,  -2.94,   2.92,  -0.94,  -0.04,  -0.21,   1.63, 4.01, 0.00, 0.00, 0.00, 0.00, 1, 1,  9,  41.7770901, -86.5780210,   198.0, 2024,  4,  6, 18, 15, 15,        0,        0,   0,   0,   1.6,   1.2,   1.1,  0, 28,  8,  0,  0,  0,  0,  0,  0,  0, 30,  0,  0, 29,  0,  0, 30,  0, 31,  0,  0, 33,  0,  0,  0,  0,  0,  0,  0, 40,  0,  0
6, 11044, 6,N0CALL,     0.00, 3,   boost,   79.89, 100172.00,   96.42,    1.43,    6.08, 27.7, 4.01, 4.01, 4.02, -97.66,  -5.70,  -5.92, -15.67,  -2.94,   2.92,  -0.94,  -0.04,  -0.21,   1.63, 4.01, 0.00, 0.00, 0.00, 0.00, 1, 1,  9,  41.7770901, -86.5780210,   198.0, 2024,  4,  6, 18, 15, 15,        0,        0,   0,   0,   1.6,   1.2,   1.1,  0, 28,  8,  0,  0,  0,  0,  0,  0,  0, 30,  0,  0, 29,  0,  0, 30,  0, 31,  0,  0, 33,  0,  0,  0,  0,  0,  0,  0, 40,  0,  0
6, 11044, 6,N0CALL,     0.00, 3,   boost,   79.89, 100172.00,   96.42,    1.43,    6.08, 27.7, 4.01, 4.01, 4.02, -97.66,  -5.70,  -5.92, -15.67,  -2.94,   2.92,  -0.94,  -0.04,  -0.21,   1.63, 4.01, 0.00, 0.00, 0.00, 0.00, 1, 1,  9,  41.7770901, -86.5780210,   198.0, 2024,  4,  6, 18, 15, 15,        0,        0,   0,   0,   1.6,   1.2,   1.1,  0, 28,  8,  0,  0,  0,  0,  0,  0,  0, 30,  0,  0, 29,  0,  0, 30,  0, 31,  0,  0, 33,  0,  0,  0,  0,  0,  0,  0, 40,  0,  0
6, 11044, 6,N0CALL,     0.00, 3,   boost,   79.89, 100172.00,   96.42,    1.43,    6.08, 27.7, 4.01, 4.01, 4.02, -97.66,  -5.70,  -5.92, -15.67,  -2.94,   2.92,  -0.94,  -0.04,  -0.21,   1.63, 4.01, 0.00, 0.00, 0.00, 0.00, 1, 1,  9,  41.7770901, -86.5780210,   198.0, 2024,  4,  6, 18, 15, 15,        0,        0,   0,   0,   1.6,   1.2,   1.1,  0, 28,  8,  0,  0,  0,  0,  0,  0,  0, 30,  0,  0, 29,  0,  0, 30,  0, 31,  0,  0, 33,  0,  0,  0,  0,  0,  0,  0, 40,  0,  0
6, 11044, 6,N0CALL,     0.00, 3,   boost,   79.89, 100172.00,   96.42,    1.43,    6.08, 27.7, 4.01, 4.01, 4.02, -97.66,  -5.70,  -5.92, -15.67,  -2.94,   2.92,  -0.94,  -0.04,  -0.21,   1.63, 4.01, 0.00, 0.00, 0.00, 0.00, 1, 1,  9,  41.7770901, -86.5780210,   198.0, 2024,  4,  6, 18, 15, 15,        0,        0,   0,   0,   1.6,   1.2,   1.1,  0, 28,  8,  0,  0,  0,  0,  0,  0,  0, 30,  0,  0, 29,  0,  0, 30,  0, 31,  0,  0, 33,  0,  0,  0,  0,  0,  0,  0, 40,  0,  0
6, 11044, 6,N0CALL,     0.00, 3,   boost,   79.89, 100172.00,   96.42,    1.43,    6.08, 27.7, 4.01, 4.01, 4.02, -97.66,  -5.70,  -5.92, -15.67,  -2.94,   2.92,  -0.94,  -0.04,  -0.21,   1.63, 4.01, 0.00, 0.00, 0.00, 0.00, 1, 1,  9,  41.7770901, -86.5780210,   198.0, 2024,  4,  6, 18, 15, 15,        0,        0,   0,   0,   1.6,   1.2,   1.1,  0, 28,  8,  0,  0,  0,  0,  0,  0,  0, 30,  0,  0, 29,  0,  0, 30,  0, 31,  0,  0, 33,  0,  0,  0,  0,  0,  0,  0, 40,  0,  0
6, 11044, 6,N0CALL,     0.00, 3,   boost,   79.89, 100172.00,   96.42,    1.43,    6.08, 27.7, 4.01, 4.01, 4.02, -97.66,  -5.70,  -5.92, -15.67,  -2.94,   2.92,  -0.94,  -0.04,  -0.21,   1.63, 4.01, 0.00, 0.00, 0.00, 0.00, 1, 1,  9,  41.7770901, -86.5780210,   198.0, 2024,  4,  6, 18, 15, 15,        0,        0,   0,   0,   1.6,   1.2,   1.1,  0, 28,  8,  0,  0,  0,  0,  0,  0,  0, 30,  0,  0, 29,  0,  0, 30,  0, 31,  0,  0, 33,  0,  0,  0,  0,  0,  0,  0, 40,  0,  0
6, 11044, 6,N0CALL,     0.00, 3,   boost,   79.89, 100172.00,   96.42,    1.43,    6.08, 27.7, 4.01, 4.01, 4.02, -97.66,  -5.70,  -5.92, -15.67,  -2.94,   2.92,  -0.94,  -0.04,  -0.21,   1.62, 4.01, 0.00, 0.00, 0.00, 0.00, 1, 1,  9,  41.7770901, -86.5780210,   198.0, 2024,  4,  6, 18, 15, 15,        0,        0,   0,   0,   1.6,   1.2,   1.1,  0, 28,  8,  0,  0,  0,  0,  0,  0,  0, 30,  0,  0, 29,  0,  0, 30,  0, 31,  0,  0, 33,  0,  0,  0,  0,  0,  0,  0, 40,  0,  0
6, 11044, 6,N0CALL,     0.00, 3,   boost,   79.89, 100172.00,   96.42,    1.43,    6.08, 27.7, 4.01, 4.01, 4.02, -97.66,  -5.70,  -5.92, -15.67,  -2.94,   2.92,  -0.94,  -0.04,  -0.21,   1.62, 4.01, 0.00, 0.00, 0.00, 0.00, 1, 1,  9,  41.7770901, -86.5780210,   198.0, 2024,  4,  6, 18, 15, 15,        0,        0,   0,   0,   1.6,   1.2,   1.1,  0, 28,  8,  0,  0,  0,  0,  0,  0,  0, 30,  0,  0, 29,  0,  0, 30,  0, 31,  0,  0, 33,  0,  0,  0,  0,  0,  0,  0, 40,  0,  0
6, 11044, 6,N0CALL,     0.00, 3,   boost,   79.89, 100172.00,   96.42,    1.43,    6.08, 27.7, 4.01, 4.01, 4.02, -97.66,  -5.70,  -5.92, -15.67,  -2.94,   2.92,  -0.94,  -0.04,  -0.21,   1.62, 4.01, 0.00, 0.00, 0.00, 0.00, 1, 1,  9,  41.7770901, -86.5780210,   198.0, 2024,  4,  6, 18, 15, 15,        0,        0,   0,   0,   1.6,   1.2,   1.1,  0, 28,  8,  0,  0,  0,  0,  0,  0,  0, 30,  0,  0, 29,  0,  0, 30,  0, 31,  0,  0, 33,  0,  0,  0,  0,  0,  0,  0, 40,  0,  0
6, 11044, 6,N0CALL,     0.00, 3,   boost,   79.89, 100172.00,   96.42,    1.43,    6.08, 27.7, 4.01, 4.01, 4.02, -97.66,  -5.70,  -5.92, -15.67,  -2.94,   2.92,  -0.94,  -0.04,  -0.21,   1.63, 4.01, 0.00, 0.00, 0.00, 0.00, 1, 1,  9,  41.7770901, -86.5780210,   198.0, 2024,  4,  6, 18, 15, 15,        0,        0,   0,   0,   1.6,   1.2,   1.1,  0, 28,  8,  0,  0,  0,  0,  0,  0,  0, 30,  0,  0, 29,  0,  0, 30,  0, 31,  0,  0, 33,  0,  0,  0,  0,  0,  0,  0, 40,  0,  0
6, 11044, 6,N0CALL,     0.00, 3,   boost,   79.89, 100172.00,   96.42,    1.43,    6.08, 27.7, 4.01, 4.01, 4.02, -97.66,  -5.70,  -5.92, -15.67,  -2.94,   2.92,  -0.94,  -0.04,  -0.21,   1.63, 4.01, 0.00, 0.00, 0.00, 0.00, 1, 1,  9,  41.7770901, -86.5780210,   198.0, 2024,  4,  6, 18, 15, 15,        0,        0,   0,   0,   1.6,   1.2,   1.1,  0, 28,  8,  0,  0,  0,  0,  0,  0,  0, 30,  0,  0, 29,  0,  0, 30,  0, 31,  0,  0, 33,  0,  0,  0,  0,  0,  0,  0, 40,  0,  0
6, 11044, 6,N0CALL,     0.00, 3,   boost,   79.89, 100172.00,   96.42,    1.43,    6.08, 27.7, 4.01, 4.01, 4.02, -97.66,  -5.70,  -5.92, -15.67,  -2.94,   2.92,  -0.94,  -0.04,  -0.21,   1.63, 4.01, 0.00, 0.00, 0.00, 0.00, 1, 1,  9,  41.7770901, -86.5780210,   198.0, 2024,  4,  6, 18, 15, 15,        0,        0,   0,   0,   1.6,   1.2,   1.1,  0, 28,  8,  0,  0,  0,  0,  0,  0,  0, 30,  0,  0, 29,  0,  0, 30,  0, 31,  0,  0, 33,  0,  0,  0,  0,  0,  0,  0, 40,  0,  0
6, 11044, 6,N0CALL,     0.00, 3,   boost,   79.89, 100172.00,   96.42,    1.43,    6.08, 27.7, 4.01, 4.01, 4.02, -97.66,  -5.70,  -5.92, -15.67,  -2.94,   2.92,  -0.94,  -0.04,  -0.21,   1.63, 4.01, 0.00, 0.00, 0.00, 0.00, 1, 1,  9,  41.7770901, -86.5780210,   198.0, 2024,  4,  6, 18, 15, 15,        0,        0,   0,   0,   1.6,   1.2,   1.1,  0, 28,  8,  0,  0,  0,  0,  0,  0,  0, 30,  0,  0, 29,  0,  0, 30,  0, 31,  0,  0, 33,  0,  0,  0,  0,  0,  0,  0, 40,  0,  0
6, 11044, 6,N0CALL,     0.00, 3,   boost,   79.89, 100172.00,   96.42,    1.43,    6.08, 27.7, 4.01, 4.01, 4.02, -97.66,  -5.70,  -5.92, -15.67,  -2.94,   2.92,  -0.94,  -0.04,  -0.21,   1.63, 4.01, 0.00, 0.00, 0.00, 0.00, 1, 1,  9,  41.7770901, -86.5780210,   198.0, 2024,  4,  6, 18, 15, 15,        0,        0,   0,   0,   1.6,   1.2,   1.1,  0, 28,  8,  0,  0,  0,  0,  0,  0,  0, 30,  0,  0, 29,  0,  0, 30,  0, 31,  0,  0, 33,  0,  0,  0,  0,  0,  0,  0, 40,  0,  0
6, 11044, 6,N0CALL,     0.00, 3,   boost,   79.89, 100172.00,   96.42,    1.43,    6.08, 27.7, 4.01, 4.01, 4.02, -97.66,  -5.70,  -5.92, -15.67,  -2.94,   2.92,  -0.94,  -0.04,  -0.21,   1.63, 4.01, 0.00, 0.00, 0.00, 0.00, 1, 1,  9,  41.7770901, -86.5780210,   198.0, 2024,  4,  6, 18, 15, 15,        0,        0,   0,   0,   1.6,   1.2,   1.1,  0, 28,  8,  0,  0,  0,  0,  0,  0,  0, 30,  0,  0, 29,  0,  0, 30,  0, 31,  0,  0, 33,  0,  0,  0,  0,  0,  0,  0, 40,  0,  0
6, 11044, 6,N0CALL,     0.00, 3,   boost,   79.89, 100172.00,   96.42,    1.43,    6.08, 27.7, 4.01, 4.01, 4.02, -97.66,  -5.70,  -5.92, -15.67,  -2.94,   2.92,  -0.94,  -0.04,  -0.21,   1.62, 4.01, 0.00, 0.00, 0.00, 0.00, 1, 1,  9,  41.7770901, -86.5780210,   198.0, 2024,  4,  6, 18, 15, 15,        0,        0,   0,   0,   1.6,   1.2,   1.1,  0, 28,  8,  0,  0,  0,  0,  0,  0,  0, 30,  0,  0, 29,  0,  0, 30,  0, 31,  0,  0, 33,  0,  0,  0,  0,  0,  0,  0, 40,  0,  0
6, 11044, 6,N0CALL,     0.00, 3,   boost,   79.89, 100172.00,   96.42,    1.43,    6.08, 27.7, 4.01, 4.01, 4.02, -97.66,  -5.70,  -5.92, -15.67,  -2.94,   2.92,  -0.94,  -0.04,  -0.21,   1.62, 4.01, 0.00, 0.00, 0.00, 0.00, 1, 1,  9,  41.7770901, -86.5780210,   198.0, 2024,  4,  6, 18, 15, 15,        0,        0,   0,   0,   1.6,   1.2,   1.1,  0, 28,  8,  0,  0,  0,  0,  0,  0,  0, 30,  0,  0, 29,  0,  0, 30,  0, 31,  0,  0, 33,  0,  0,  0,  0,  0,  0,  0, 40,  0,  0
6, 11044, 6,N0CALL,     0.00, 3,   boost,   79.89, 100172.00,   96.42,    1.43,    6.08, 27.7, 4.01, 4.01, 4.02, -97.66,  -5.70,  -5.92, -15.67,  -2.94,   2.92,  -0.94,  -0.04,  -0.21,   1.62, 4.01, 0.00, 0.00, 0.00, 0.00, 1, 1,  9,  41.7770901, -86.5780210,   198.0, 2024,  4,  6, 18, 15, 15,        0,        0,   0,   0,   1.6,   1.2,   1.1,  0, 28,  8,  0,  0,  0,  0,  0,  0,  0, 30,  0,  0, 29,  0,  0, 30,  0, 31,  0,  0, 33,  0,  0,  0,  0,  0,  0,  0, 40,  0,  0
6, 11044, 6,N0CALL,     0.00, 3,   boost,   79.89, 100172.00,   96.42,    1.43,    6.08, 27.7, 4.01, 4.01, 4.02, -97.66,  -5.70,  -5.92, -15.67,  -2.94,   2.92,  -0.94,  -0.04,  -0.21,   1.62, 4.01, 0.00, 0.00, 0.00, 0.00, 1, 1,  9,  41.7770901, -86.5780210,   198.0, 2024,  4,  6, 18, 15, 15,        0,        0,   0,   0,   1.6,   1.2,   1.1,  0, 28,  8,  0,  0,  0,  0,  0,  0,  0, 30,  0,  0, 29,  0,  0, 30,  0, 31,  0,  0, 33,  0,  0,  0,  0,  0,  0,  0, 40,  0,  0
6, 11044, 6,N0CALL,     0.00, 3,   boost,   79.89, 100172.00,   96.42,    1.43,    6.08, 27.7, 4.01, 4.01, 4.02, -97.66,  -5.70,  -5.92, -15.67,  -2.94,   2.92,  -0.94,  -0.04,  -0.21,   1.62, 4.01, 0.00, 0.00, 0.00, 0.00, 1, 1,  9,  41.7770901, -86.5780210,   198.0, 2024,  4,  6, 18, 15, 15,        0,        0,   0,   0,   1.6,   1.2,   1.1,  0, 28,  8,  0,  0,  0,  0,  0,  0,  0, 30,  0,  0, 29,  0,  0, 30,  0, 31,  0,  0, 33,  0,  0,  0,  0,  0,  0,  0, 40,  0,  0
6, 11044, 6,N0CALL,     0.00, 3,   boost,   79.89, 100172.00,   96.42,    1.43,    6.08, 27.7, 4.01, 4.01, 4.02, -97.66,  -5.70,  -5.92, -15.67,  -2.94,   2.92,  -0.94,  -0.04,  -0.21,   1.62, 4.01, 0.00, 0.00, 0.00, 0.00, 1, 1,  9,  41.7770901, -86.5780210,   198.0, 2024,  4,  6, 18, 15, 15,        0,        0,   0,   0,   1.6,   1.2,   1.1,  0, 28,  8,  0,  0,  0,  0,  0,  0,  0, 30,  0,  0, 29,  0,  0, 30,  0, 31,  0,  0, 33,  0,  0,  0,  0,  0,  0,  0, 40,  0,  0
6, 11044, 6,N0CALL,     0.00, 3,   boost,   79.89, 100172.00,   96.42,    1.43,    6.08, 27.7, 4.01, 4.01, 4.02, -97.66,  -5.70,  -5.92, -15.67,  -2.94,   2.92,  -0.94,  -0.04,  -0.21,   1.62, 4.01, 0.00, 0.00, 0.00, 0.00, 1, 1,  9,  41.7770901, -86.5780210,   198.0, 2024,  4,  6, 18, 15, 15,        0,        0,   0,   0,   1.6,   1.2,   1.1,  0, 28,  8,  0,  0,  0,  0,  0,  0,  0, 30,  0,  0, 29,  0,  0, 30,  0, 31,  0,  0, 33,  0,  0,  0,  0,  0,  0,  0, 40,  0,  0
6, 11044, 6,N0CALL,     0.00, 3,   boost,   79.89, 100172.00,   96.42,    1.43,    6.08, 27.7, 4.01, 4.01, 4.02, -97.66,  -5.70,  -5.92, -15.67,  -2.94,   2.92,  -0.94,  -0.04,  -0.21,   1.62, 4.01, 0.00, 0.00, 0.00, 0.00, 1, 1,  9,  41.7770901, -86.5780210,   198.0, 2024,  4,  6, 18, 15, 15,        0,        0,   0,   0,   1.6,   1.2,   1.1,  0, 28,  8,  0,  0,  0,  0,  0,  0,  0, 30,  0,  0, 29,  0,  0, 30,  0, 31,  0,  0, 33,  0,  0,  0,  0,  0,  0,  0, 40,  0,  0
6, 11044, 6,N0CALL,     0.00, 3,   boost,   79.89, 100172.00,   96.42,    1.43,    6.08, 27.7, 4.01, 4.01, 4.02, -97.66,  -5.70,  -5.92, -15.67,  -2.94,   2.92,  -0.94,  -0.04,  -0.21,   1.62, 4.01, 0.00, 0.00, 0.00, 0.00, 1, 1,  9,  41.7770901, -86.5780210,   198.0, 2024,  4,  6, 18, 15, 15,        0,        0,   0,   0,   1.6,   1.2,   1.1,  0, 28,  8,  0,  0,  0,  0,  0,  0,  0, 30,  0,  0, 29,  0,  0, 30,  0, 31,  0,  0, 33,  0,  0,  0,  0,  0,  0,  0, 40,  0,  0
6, 11044, 6,N0CALL,     0.00, 3,   boost,   79.89, 100172.00,   96.42,    1.43,    6.08, 27.7, 4.01, 4.01, 4.02, -97.66,  -5.70,  -5.92, -15.67,  -2.94,   2.92,  -0.94,  -0.04,  -0.21,   1.62, 4.01, 0.00, 0.00, 0.00, 0.00, 1, 1,  9,  41.7770901, -86.5780210,   198.0, 2024,  4,  6, 18, 15, 15,        0,        0,   0,   0,   1.6,   1.2,   1.1,  0, 28,  8,  0,  0,  0,  0,  0,  0,  0, 30,  0,  0, 29,  0,  0, 30,  0, 31,  0,  0, 33,  0,  0,  0,  0,  0,  0,  0, 40,  0,  0
6, 11044, 6,N0CALL,     0.00, 3,   boost,   79.89, 100172.00,   96.42,    1.43,    6.08, 27.7, 4.01, 4.01, 4.02, -97.66,  -5.70,  -5.92, -15.67,  -2.94,   2.92,  -0.94,  -0.04,  -0.21,   1.62, 4.01, 0.00, 0.00, 0.00, 0.00, 1, 1,  9,  41.7770901, -86.5780210,   198.0, 2024,  4,  6, 18, 15, 15,        0,        0,   0,   0,   1.6,   1.2,   1.1,  0, 28,  8,  0,  0,  0,  0,  0,  0,  0, 30,  0,  0, 29,  0,  0, 30,  0, 31,  0,  0, 33,  0,  0,  0,  0,  0,  0,  0, 40,  0,  0
6, 11044, 6,N0CALL,     0.00, 3,   boost,   79.89, 100172.00,   96.42,    1.43,    6.08, 27.7, 4.01, 4.01, 4.02, -97.66,  -5.70,  -5.92, -15.67,  -2.94,   2.92,  -0.94,  -0.04,  -0.21,   1.63, 4.01, 0.00, 0.00, 0.00, 0.00, 1, 1,  9,  41.7770901, -86.5780210,   198.0, 2024,  4,  6, 18, 15, 15,        0,        0,   0,   0,   1.6,   1.2,   1.1,  0, 28,  8,  0,  0,  0,  0,  0,  0,  0, 30,  0,  0, 29,  0,  0, 30,  0, 31,  0,  0, 33,  0,  0,  0,  0,  0,  0,  0, 40,  0,  0
6, 11044, 6,N0CALL,     0.00, 3,   boost,   79.89, 100172.00,   96.42,    1.43,    6.08, 27.7, 4.01, 4.01, 4.02, -97.66,  -5.70,  -5.92, -15.67,  -2.94,   2.92,  -0.94,  -0.04,  -0.21,   1.64, 4.01, 0.00, 0.00, 0.00, 0.00, 1, 1,  9,  41.7770901, -86.5780210,   198.0, 2024,  4,  6, 18, 15, 15,        0,        0,   0,   0,   1.6,   1.2,   1.1,  0, 28,  8,  0,  0,  0,  0,  0,  0,  0, 30,  0,  0, 29,  0,  0, 30,  0, 31,  0,  0, 33,  0,  0,  0,  0,  0,  0,  0, 40,  0,  0
6, 11044, 6,N0CALL,     0.00, 3,   boost,   79.89, 100172.00,   96.42,    1.43,    6.08, 27.7, 4.01, 4.01, 4.02, -97.66,  -5.70,  -5.92, -15.67,  -2.94,   2.92,  -0.94,  -0.04,  -0.21,   1.57, 4.01, 0.00, 0.00, 0.00, 0.00, 1, 1,  9,  41.7770901, -86.5780210,   198.0, 2024,  4,  6, 18, 15, 15,        0,        0,   0,   0,   1.6,   1.2,   1.1,  0, 28,  8,  0,  0,  0,  0,  0,  0,  0, 30,  0,  0, 29,  0,  0, 30,  0, 31,  0,  0, 33,  0,  0,  0,  0,  0,  0,  0, 40,  0,  0
6, 11044, 6,N0CALL,     0.00, 3,   boost,   79.89, 100172.00,   96.42,    1.43,    6.08, 27.7, 4.01, 4.01, 4.02, -97.66,  -5.70,  -5.92, -15.67,  -2.94,   2.92,  -0.94,  -0.04,  -0.21,   1.34, 4.01, 0.00, 0.00, 0.00, 0.00, 1, 1,  9,  41.7770901, -86.5780210,   198.0, 2024,  4,  6, 18, 15, 15,        0,        0,   0,   0,   1.6,   1.2,   1.1,  0, 28,  8,  0,  0,  0,  0,  0,  0,  0, 30,  0,  0, 29,  0,  0, 30,  0, 31,  0,  0, 33,  0,  0,  0,  0,  0,  0,  0, 40,  0,  0
6, 11044, 6,N0CALL,     0.00, 3,   boost,   79.89, 100172.00,   96.42,    1.43,    6.08, 27.7, 4.01, 4.01, 4.02, -97.66,  -5.70,  -5.92, -15.67,  -2.94,   2.92,  -0.94,  -0.04,  -0.21,   1.31, 4.01, 0.00, 0.00, 0.00, 0.00, 1, 1,  9,  41.7770901, -86.5780210,   198.0, 2024,  4,  6, 18, 15, 15,        0,        0,   0,   0,   1.6,   1.2,   1.1,  0, 28,  8,  0,  0,  0,  0,  0,  0,  0, 30,  0,  0, 29,  0,  0, 30,  0, 31,  0,  0, 33,  0,  0,  0,  0,  0,  0,  0, 40,  0,  0
6, 11044, 6,N0CALL,     0.00, 3,   boost,   79.89, 100172.00,   96.42,    1.43,    6.08, 27.7, 4.01, 4.01, 4.02, -97.66,  -5.70,  -5.92, -15.67,  -2.94,   2.92,  -0.94,  -0.04,  -0.21,   1.27, 4.01, 0.00, 0.00, 0.00, 0.00, 1, 1,  9,  41.7770901, -86.5780210,   198.0, 2024,  4,  6, 18, 15, 15,        0,        0,   0,   0,   1.6,   1.2,   1.1,  0, 28,  8,  0,  0,  0,  0,  0,  0,  0, 30,  0,  0, 29,  0,  0, 30,  0, 31,  0,  0, 33,  0,  0,  0,  0,  0,  0,  0, 40,  0,  0
6, 11044, 6,N0CALL,     0.00, 3,   boost,   79.89, 100172.00,   96.42,    1.43,    6.08, 27.7, 4.01, 4.01, 4.02, -97.66,  -5.70,  -5.92, -15.67,  -2.94,   2.92,  -0.94,  -0.04,  -0.21,   1.31, 4.01, 0.00, 0.00, 0.00, 0.00, 1, 1,  9,  41.7770901, -86.5780210,   198.0, 2024,  4,  6, 18, 15, 15,        0,        0,   0,   0,   1.6,   1.2,   1.1,  0, 28,  8,  0,  0,  0,  0,  0,  0,  0, 30,  0,  0, 29,  0,  0, 30,  0, 31,  0,  0, 33,  0,  0,  0,  0,  0,  0,  0, 40,  0,  0
6, 11044, 6,N0CALL,     0.01, 3,   boost,   80.85, 100181.00,   95.67,    0.67,    6.90, 27.7, 4.01, 4.01, 4.02, -99.07,  -0.73,  33.75, -16.64,   5.67,   1.45,  -0.94,  -0.04,  -0.21,   1.26, 4.01, 0.00, 0.00, 0.00, 0.00, 1, 1,  9,  41.7770901, -86.5780210,   198.0, 2024,  4,  6, 18, 15, 15,        0,        0,   0,   0,   1.6,   1.2,   1.1,  0, 28,  8,  0,  0,  0,  0,  0,  0,  0, 30,  0,  0, 29,  0,  0, 30,  0, 31,  0,  0, 33,  0,  0,  0,  0,  0,  0,  0, 40,  0,  0
6, 11044, 6,N0CALL,     0.01, 3,   boost,   80.85, 100181.00,   95.67,    0.67,    6.90, 27.7, 4.01, 4.01, 4.02, -99.07,  -0.73,  33.75, -16.64,   5.67,   1.45,  -0.94,  -0.04,  -0.21,   1.26, 4.01, 0.00, 0.00, 0.00, 0.00, 1, 1,  9,  41.7770901, -86.5780210,   198.0, 2024,  4,  6, 18, 15, 15,        0,        0,   0,   0,   1.6,   1.2,   1.1,  0, 28,  8,  0,  0,  0,  0,  0,  0,  0, 30,  0,  0, 29,  0,  0, 30,  0, 31,  0,  0, 33,  0,  0,  0,  0,  0,  0,  0, 40,  0,  0
6, 11044, 6,N0CALL,     0.02, 3,   boost,   86.59, 100181.00,   95.67,    0.67,    7.73, 27.7, 3.98, 3.99, 3.99, -96.71,  -6.53, -25.94, -19.02,  -3.97,   1.15,  -0.94,  -0.03,  -0.22,   1.30, 4.00, 0.03, 0.02, 0.00, 0.00, 1, 1,  9,  41.7770901, -86.5780210,   198.0, 2024,  4,  6, 18, 15, 15,        0,        0,   0,   0,   1.6,   1.2,   1.1,  0, 28,  8,  0,  0,  0,  0,  0,  0,  0, 30,  0,  0, 29,  0,  0, 30,  0, 31,  0,  0, 33,  0,  0,  0,  0,  0,  0,  0, 40,  0,  0
6, 11044, 6,N0CALL,     0.02, 3,   boost,   86.59, 100181.00,   95.67,    0.67,    7.73, 27.7, 3.98, 3.99, 3.99, -96.71,  -6.53, -25.94, -19.02,  -3.97,   1.15,  -0.94,  -0.03,  -0.22,   1.30, 4.00, 0.03, 0.02, 0.00, 0.00, 1, 1,  9,  41.7770901, -86.5780210,   198.0, 2024,  4,  6, 18, 15, 15,        0,        0,   0,   0,   1.6,   1.2,   1.1,  0, 28,  8,  0,  0,  0,  0,  0,  0,  0, 30,  0,  0, 29,  0,  0, 30,  0, 31,  0,  0, 33,  0,  0,  0,  0,  0,  0,  0, 40,  0,  0
6, 11044, 6,N0CALL,     0.03, 3,   boost,   89.93, 100195.00,   94.49,   -0.50,    8.58, 27.7, 3.98, 3.99, 3.99, -99.25,   9.24,   5.58,   6.37,  -8.49,   2.06,  -0.94,  -0.04,  -0.22,   1.39, 4.00, 0.03, 0.02, 0.00, 0.00, 1, 1,  9,  41.7770901, -86.5780210,   198.0, 2024,  4,  6, 18, 15, 15,        0,        0,   0,   0,   1.6,   1.2,   1.1,  0, 28,  8,  0,  0,  0,  0,  0,  0,  0, 30,  0,  0, 29,  0,  0, 30,  0, 31,  0,  0, 33,  0,  0,  0,  0,  0,  0,  0, 40,  0,  0
6, 11044, 6,N0CALL,     0.04, 3,   boost,   85.63, 100195.00,   94.49,   -0.50,    9.43, 27.7, 3.98, 3.99, 3.99, -99.65,  -1.94,   5.98,  36.09,  -5.74,   1.45,  -0.94,  -0.04,  -0.22,   1.45, 4.00, 0.03, 0.02, 0.00, 0.00, 1, 1,  9,  41.7770901, -86.5780210,   198.0, 2024,  4,  6, 18, 15, 15,        0,        0,   0,   0,   1.6,   1.2,   1.1,  0, 28,  8,  0,  0,  0,  0,  0,  0,  0, 30,  0,  0, 29,  0,  0, 30,  0, 31,  0,  0, 33,  0,  0,  0,  0,  0,  0,  0, 40,  0,  0
6, 11044, 6,N0CALL,     0.05, 3,   boost,   82.76, 100171.00,   96.51,    1.51,   10.29, 27.7, 3.98, 3.99, 3.99, -98.12,   1.33,   2.97,  24.37,  -4.83,   1.09,  -0.94,  -0.04,  -0.22,   1.50, 4.00, 0.03, 0.02, 0.00, 0.00, 1, 1,  9,  41.7770901, -86.5780210,   198.0, 2024,  4,  6, 18, 15, 15,        0,        0,   0,   0,   1.6,   1.2,   1.1,  0, 28,  8,  0,  0,  0,  0,  0,  0,  0, 30,  0,  0, 29,  0,  0, 30,  0, 31,  0,  0, 33,  0,  0,  0,  0,  0,  0,  0, 40,  0,  0
6, 11044, 6,N0CALL,     0.06, 3,   boost,   87.06, 100171.00,   96.51,    1.51,   11.15, 27.7, 3.98, 3.99, 3.99,-100.89,  -3.23,  10.52,  19.55,  -9.16,   0.17,  -0.94,  -0.04,  -0.22,   1.58, 4.00, 0.03, 0.02, 0.00, 0.00, 1, 1,  9,  41.7770901, -86.5780210,   198.0, 2024,  4,  6, 18, 15, 15,        0,        0,   0,   0,   1.6,   1.2,   1.1,  0, 28,  8,  0,  0,  0,  0,  0,  0,  0, 30,  0,  0, 29,  0,  0, 30,  0, 31,  0,  0, 33,  0,  0,  0,  0,  0,  0,  0, 40,  0,  0
6, 11044, 6,N0CALL,     0.07, 3,   boost,   86.11, 100211.00,   93.15,   -1.85,   12.01, 27.7, 3.98, 3.99, 3.99,-100.62,   0.23,   8.59,   4.84,  -6.35,   0.05,  -0.94,  -0.04,  -0.22,   1.65, 4.00, 0.03, 0.02, 0.00, 0.00, 1, 1,  9,  41.7770901, -86.5780210,   198.0, 2024,  4,  6, 18, 15, 15,        0,        0,   0,   0,   1.6,   1.2,   1.1,  0, 28,  8,  0,  0,  0,  0,  0,  0,  0, 30,  0,  0, 29,  0,  0, 30,  0, 31,  0,  0, 33,  0,  0,  0,  0,  0,  0,  0, 40,  0,  0
6, 11044, 6,N0CALL,     0.08, 3,   boost,   87.54, 100211.00,   93.15,   -1.85,   12.88, 27.7, 3.98, 3.99, 3.99,-100.11,  -1.47,   4.68, -10.17,  -5.19,  -1.11,  -0.94,  -0.04,  -0.22,   1.70, 4.00, 0.03, 0.02, 0.00, 0.00, 1, 1,  9,  41.7770901, -86.5780210,   198.0, 2024,  4,  6, 18, 15, 15,        0,        0,   0,   0,   1.6,   1.2,   1.1,  0, 28,  8,  0,  0,  0,  0,  0,  0,  0, 30,  0,  0, 29,  0,  0, 30,  0, 31,  0,  0, 33,  0,  0,  0,  0,  0,  0,  0, 40,  0,  0
6, 11044, 6,N0CALL,     0.09, 3,   boost,   84.67, 100169.00,   96.68,    1.68,   13.74, 27.7, 3.98, 3.99, 3.99,-100.26,   0.47,  -4.59, -10.36,   0.91,  -0.93,  -0.94,  -0.04,  -0.22,   1.68, 4.00, 0.03, 0.02, 0.00, 0.00, 1, 1,  9,  41.7770901, -86.5780210,   198.0, 2024,  4,  6, 18, 15, 15,        0,        0,   0,   0,   1.6,   1.2,   1.1,  0, 28,  8,  0,  0,  0,  0,  0,  0,  0, 30,  0,  0, 29,  0,  0, 30,  0, 31,  0,  0, 33,  0,  0,  0,  0,  0,  0,  0, 40,  0,  0
6, 11044, 6,N0CALL,     0.10, 3,   boost,   89.93, 100169.00,   96.68,    1.68,   14.62, 27.7, 3.98, 3.99, 3.99,-100.81,  -2.40,  30.84,  16.07,  14.28,  -2.88,  -0.94,  -0.04,  -0.22,   1.54, 4.00, 0.03, 0.02, 0.00, 0.00, 1, 1,  9,  41.7770901, -86.5780210,   198.0, 2024,  4,  6, 18, 15, 15,        0,        0,   0,   0,   1.6,   1.2,   1.1,  0, 28,  8,  0,  0,  0,  0,  0,  0,  0, 30,  0,  0, 29,  0,  0, 30,  0, 31,  0,  0, 33,  0,  0,  0,  0,  0,  0,  0, 40,  0,  0
6, 11044, 6,N0CALL,     0.11, 3,   boost,   87.06, 100158.00,   97.60,    2.60,   15.49, 27.7, 3.98, 3.99, 3.99,-100.16,   0.73, -12.11,  -6.88,  -0.80,  -2.88,  -0.94,  -0.04,  -0.22,   1.54, 4.00, 0.03, 0.02, 0.00, 0.00, 1, 1,  9,  41.7770901, -86.5780210,   198.0, 2024,  4,  6, 18, 15, 15,        0,        0,   0,   0,   1.6,   1.2,   1.1,  0, 28,  8,  0,  0,  0,  0,  0,  0,  0, 30,  0,  0, 29,  0,  0, 30,  0, 31,  0,  0, 33,  0,  0,  0,  0,  0,  0,  0, 40,  0,  0
6, 11044, 6,N0CALL,     0.12, 3,   boost,   87.54, 100158.00,   97.60,    2.60,   16.36, 27.7, 3.98, 3.99, 3.99,-100.73,  -1.98,  -6.48,  14.30,  -3.12,  -2.03,  -0.94,  -0.04,  -0.22,   1.57, 4.00, 0.03, 0.02, 0.00, 0.00, 1, 1,  9,  41.7770901, -86.5780210,   198.0, 2024,  4,  6, 18, 15, 15,        0,        0,   0,   0,   1.6,   1.2,   1.1,  0, 28,  8,  0,  0,  0,  0,  0,  0,  0, 30,  0,  0, 29,  0,  0, 30,  0, 31,  0,  0, 33,  0,  0,  0,  0,  0,  0,  0, 40,  0,  0
6, 11044, 6,N0CALL,     0.13, 3,   boost,   86.59, 100189.00,   95.00,    0.00,   17.23, 27.7, 3.98, 3.99, 3.99,-101.19,  -1.34,   0.60,   0.81,  -4.34,  -1.36,  -0.94,  -0.04,  -0.22,   1.61, 4.00, 0.03, 0.02, 0.00, 0.00, 1, 1,  9,  41.7770901, -86.5780210,   198.0, 2024,  4,  6, 18, 15, 15,        0,        0,   0,   0,   1.6,   1.2,   1.1,  0, 28,  8,  0,  0,  0,  0,  0,  0,  0, 30,  0,  0, 29,  0,  0, 30,  0, 31,  0,  0, 33,  0,  0,  0,  0,  0,  0,  0, 40,  0,  0
6, 11044, 6,N0CALL,     0.14, 3,   boost,   87.06, 100189.00,   95.00,    0.00,   18.11, 27.7, 3.98, 3.99, 3.99,-101.19,  -0.39,   9.93, -13.23,  -2.63,  -1.36,  -0.94,  -0.04,  -0.22,   1.63, 4.00, 0.03, 0.02, 0.00, 0.00, 1, 1,  9,  41.7770901, -86.5780210,   198.0, 2024,  4,  6, 18, 15, 15,        0,        0,   0,   0,   1.6,   1.2,   1.1,  0, 28,  8,  0,  0,  0,  0,  0,  0,  0, 30,  0,  0, 29,  0,  0, 30,  0, 31,  0,  0, 33,  0,  0,  0,  0,  0,  0,  0, 40,  0,  0
6, 11044, 6,N0CALL,     0.15, 3,   boost,   88.02, 100156.00,   97.77,    2.77,   18.98, 27.7, 3.98, 3.99, 3.99, -99.39,  -2.27, -15.65, -32.51,  -7.03,   0.35,  -0.94,  -0.04,  -0.23,   1.70, 4.00, 0.03, 0.02, 0.00, 0.00, 1, 1,  9,  41.7770901, -86.5780210,   198.0, 2024,  4,  6, 18, 15, 15,        0,        0,   0,   0,   1.6,   1.2,   1.1,  0, 28,  8,  0,  0,  0,  0,  0,  0,  0, 30,  0,  0, 29,  0,  0, 30,  0, 31,  0,  0, 33,  0,  0,  0,  0,  0,  0,  0, 40,  0,  0
6, 11044, 6,N0CALL,     0.16, 3,   boost,   88.02, 100156.00,   97.77,    2.77,   19.86, 27.7, 3.98, 3.99, 3.99,-100.46,   1.93,  -2.74, -23.11, -15.63,   3.83,  -0.94,  -0.03,  -0.22,   1.86, 4.00, 0.03, 0.02, 0.00, 0.00, 1, 1,  9,  41.7770901, -86.5780210,   198.0, 2024,  4,  6, 18, 15, 15,        0,        0,   0,   0,   1.6,   1.2,   1.1,  0, 28,  8,  0,  0,  0,  0,  0,  0,  0, 30,  0,  0, 29,  0,  0, 30,  0, 31,  0,  0, 33,  0,  0,  0,  0,  0,  0,  0, 40,  0,  0
6, 11044, 6,N0CALL,     0.17, 3,   boost,   88.02, 100188.00,   95.08,    0.08,   20.74, 27.7, 3.98, 3.99, 3.99,-101.23,  -8.81,  -9.86, -21.95, -10.08,   3.04,  -0.94,  -0.04,  -0.22,   1.97, 4.00, 0.03, 0.02, 0.00, 0.00, 1, 1,  9,  41.7770901, -86.5780210,   198.0, 2024,  4,  6, 18, 15, 15,        0,        0,   0,   0,   1.6,   1.2,   1.1,  0, 28,  8,  0,  0,  0,  0,  0,  0,  0, 30,  0,  0, 29,  0,  0, 30,  0, 31,  0,  0, 33,  0,  0,  0,  0,  0,  0,  0, 40,  0,  0
6, 11044, 6,N0CALL,     0.18, 3,   boost,   87.06, 100188.00,   95.08,    0.08,   21.63, 27.7, 3.98, 3.99, 3.99,-100.50,  -5.81, -18.89, -18.54, -11.48,   3.47,  -0.94,  -0.03,  -0.22,   2.09, 4.00, 0.03, 0.02, 0.00, 0.00, 1, 1,  9,  41.7770901, -86.5780210,   198.0, 2024,  4,  6, 18, 15, 15,        0,        0,   0,   0,   1.6,   1.2,   1.1,  0, 28,  8,  0,  0,  0,  0,  0,  0,  0, 30,  0,  0, 29,  0,  0, 30,  0, 31,  0,  0, 33,  0,  0,  0,  0,  0,  0,  0, 40,  0,  0
6, 11044, 6,N0CALL,     0.19, 3,   boost,   91.85, 100162.00,   97.26,    2.27,   22.51, 27.7, 3.98, 3.99, 3.99,-101.96,  -4.41,  -0.40, -18.11, -10.81,   2.92,  -0.94,  -0.03,  -0.22,   2.20, 4.00, 0.03, 0.02, 0.00, 0.00, 1, 1,  9,  41.7770901, -86.5780210,   198.0, 2024,  4,  6, 18, 15, 15,        0,        0,   0,   0,   1.6,   1.2,   1.1,  0, 28,  8,  0,  0,  0,  0,  0,  0,  0, 30,  0,  0, 29,  0,  0, 30,  0, 31,  0,  0, 33,  0,  0,  0,  0,  0,  0,  0, 40,  0,  0
6, 11044, 6,N0CALL,     0.20, 3,   boost,   88.50, 100162.00,   97.26,    2.27,   23.40, 27.7, 3.98, 3.99, 3.99,-103.60,  -1.03,   2.83, -31.60, -10.87,   3.96,  -0.94,  -0.03,  -0.23,   2.31, 4.00, 0.03, 0.02, 0.00, 0.00, 1, 1,  9,  41.7770901, -86.5780210,   198.0, 2024,  4,  6, 18, 15, 15,        0,        0,   0,   0,   1.6,   1.2,   1.1,  0, 28,  8,  0,  0,  0,  0,  0,  0,  0, 30,  0,  0, 29,  0,  0, 30,  0, 31,  0,  0, 33,  0,  0,  0,  0,  0,  0,  0, 40,  0,  0
6, 11044, 6,N0CALL,     0.21, 3,   boost,   88.98, 100161.00,   97.35,    2.35,   24.29, 27.7, 3.98, 3.99, 3.99,-103.58,   5.32,   8.71, -31.47, -11.85,   5.18,  -0.94,  -0.03,  -0.22,   2.44, 4.00, 0.03, 0.02, 0.00, 0.00, 1, 1,  9,  41.7770901, -86.5780210,   198.0, 2024,  4,  6, 18, 15, 15,        0,        0,   0,   0,   1.6,   1.2,   1.1,  0, 28,  8,  0,  0,  0,  0,  0,  0,  0, 30,  0,  0, 29,  0,  0, 30,  0, 31,  0,  0, 33,  0,  0,  0,  0,  0,  0,  0, 40,  0,  0
6, 11044, 6,N0CALL,     0.22, 3,   boost,   88.50, 100161.00,   97.35,    2.35,   25.18, 27.7, 3.98, 3.99, 3.99,-103.21,  -0.22,  -0.09, -30.56, -14.29,   5.24,  -0.94,  -0.03,  -0.22,   2.59, 4.00, 0.03, 0.02, 0.00, 0.00, 1, 1,  9,  41.7770901, -86.5780210,   198.0, 2024,  4,  6, 18, 15, 15,        0,        0,   0,   0,   1.6,   1.2,   1.1,  0, 28,  8,  0,  0,  0,  0,  0,  0,  0, 30,  0,  0, 29,  0,  0, 30,  0, 31,  0,  0, 33,  0,  0,  0,  0,  0,  0,  0, 40,  0,  0
6, 11044, 6,N0CALL,     0.23, 3,   boost,   88.02, 100142.00,   98.94,    3.95,   26.07, 27.7, 3.98, 3.99, 3.99,-102.89,  -0.52,  -2.00, -30.44, -16.43,   6.82,  -0.94,  -0.03,  -0.23,   2.77, 4.00, 0.03, 0.02, 0.00, 0.00, 1, 1,  9,  41.7770901, -86.5780210,   198.0, 2024,  4,  6, 18, 15, 15,        0,        0,   0,   0,   1.6,   1.2,   1.1,  0, 28,  8,  0,  0,  0,  0,  0,  0,  0, 30,  0,  0, 29,  0,  0, 30,  0, 31,  0,  0, 33,  0,  0,  0,  0,  0,  0,  0, 40,  0,  0
6, 11044, 6,N0CALL,     0.24, 3,   boost,   89.46, 100142.00,   98.94,    3.95,   26.96, 27.7, 3.98, 3.99, 3.99,-103.45,  -3.20,  -4.86, -29.77, -16.49,   6.46,  -0.93,  -0.02,  -0.23,   2.94, 4.00, 0.03, 0.02, 0.00, 0.00, 1, 1,  9,  41.7770901, -86.5780210,   198.0, 2024,  4,  6, 18, 15, 15,        0,        0,   0,   0,   1.6,   1.2,   1.1,  0, 28,  8,  0,  0,  0,  0,  0,  0,  0, 30,  0,  0, 29,  0,  0, 30,  0, 31,  0,  0, 33,  0,  0,  0,  0,  0,  0,  0, 40,  0,  0
6, 11044, 6,N0CALL,     0.25, 3,   boost,   90.89, 100164.00,   97.10,    2.10,   27.85, 27.7, 3.98, 3.99, 3.99,-103.37,  -0.13,  -3.75, -31.47, -15.33,   6.15,  -0.93,  -0.02,  -0.23,   3.11, 4.00, 0.03, 0.02, 0.00, 0.00, 1, 1,  9,  41.7770901, -86.5780210,   198.0, 2024,  4,  6, 18, 15, 15,        0,        0,   0,   0,   1.6,   1.2,   1.1,  0, 28,  8,  0,  0,  0,  0,  0,  0,  0, 30,  0,  0, 29,  0,  0, 30,  0, 31,  0,  0, 33,  0,  0,  0,  0,  0,  0,  0, 40,  0,  0
6, 11044, 6,N0CALL,     0.26, 3,   boost,   89.93, 100164.00,   97.10,    2.10,   28.75, 27.7, 3.98, 3.99, 3.99,-103.30,   0.65,   1.01, -30.68, -14.78,   6.15,  -0.93,  -0.02,  -0.23,   3.26, 4.00, 0.03, 0.02, 0.00, 0.00, 1, 1,  9,  41.7770901, -86.5780210,   198.0, 2024,  4,  6, 18, 15, 15,        0,        0,   0,   0,   1.6,   1.2,   1.1,  0, 28,  8,  0,  0,  0,  0,  0,  0,  0, 30,  0,  0, 29,  0,  0, 30,  0, 31,  0,  0, 33,  0,  0,  0,  0,  0,  0,  0, 40,  0,  0
6, 11044, 6,N0CALL,     0.27, 3,   boost,   88.98, 100151.00,   98.19,    3.19,   29.64, 27.7, 3.98, 3.99, 3.99,-103.36,  -0.05,   0.20, -30.07, -14.78,   6.95,  -0.93,  -0.02,  -0.23,   3.43, 4.00, 0.03, 0.02, 0.00, 0.00, 1, 1,  9,  41.7770901, -86.5780210,   198.0, 2024,  4,  6, 18, 15, 15,        0,        0,   0,   0,   1.6,   1.2,   1.1,  0, 28,  8,  0,  0,  0,  0,  0,  0,  0, 30,  0,  0, 29,  0,  0, 30,  0, 31,  0,  0, 33,  0,  0,  0,  0,  0,  0,  0, 40,  0,  0
6, 11044, 6,N0CALL,     0.28, 3,   boost,   90.41, 100151.00,   98.19,    3.19,   30.54, 27.7, 3.98, 3.99, 3.99,-103.50,  -0.22,   2.61, -29.64, -16.49,   7.19,  -0.93,  -0.02,  -0.23,   3.60, 4.00, 0.03, 0.02, 0.00, 0.00, 1, 1,  9,  41.7770901, -86.5780210,   198.0, 2024,  4,  6, 18, 15, 15,        0,        0,   0,   0,   1.6,   1.2,   1.1,  0, 28,  8,  0,  0,  0,  0,  0,  0,  0, 30,  0,  0, 29,  0,  0, 30,  0, 31,  0,  0, 33,  0,  0,  0,  0,  0,  0,  0, 40,  0,  0
6, 11044, 6,N0CALL,     0.29, 3,   boost,   89.46, 100114.00,  101.30,    6.30,   31.43, 27.7, 3.98, 3.99, 3.99,-103.58,  -2.70,  -2.67, -28.91, -17.10,   7.25,  -0.93,  -0.01,  -0.24,   3.79, 4.00, 0.03, 0.02, 0.00, 0.00, 1, 1,  9,  41.7770901, -86.5780210,   198.0, 2024,  4,  6, 18, 15, 15,        0,        0,   0,   0,   1.6,   1.2,   1.1,  0, 28,  8,  0,  0,  0,  0,  0,  0,  0, 30,  0,  0, 29,  0,  0, 30,  0, 31,  0,  0, 33,  0,  0,  0,  0,  0,  0,  0, 40,  0,  0
6, 11044, 6,N0CALL,     0.30, 3,   boost,   88.02, 100114.00,  101.30,    6.30,   32.32, 27.7, 3.98, 3.99, 3.99,-103.48,  -0.84,  -1.94, -29.40, -17.71,   7.68,  -0.93,  -0.01,  -0.24,   3.98, 4.00, 0.03, 0.02, 0.00, 0.00, 1, 1,  9,  41.7770901, -86.5780210,   198.0, 2024,  4,  6, 18, 15, 15,        0,        0,   0,   0,   1.6,   1.2,   1.1,  0, 28,  8,  0,  0,  0,  0,  0,  0,  0, 30,  0,  0, 29,  0,  0, 30,  0, 31,  0,  0, 33,  0,  0,  0,  0,  0,  0,  0, 40,  0,  0
6, 11044, 6,N0CALL,     0.31, 3,   boost,   90.89, 100142.00,   98.94,    3.95,   33.21, 27.7, 3.98, 3.99, 3.99,-103.71,   0.09,  -1.88, -29.16, -17.46,   8.17,  -0.93,  -0.01,  -0.24,   4.17, 4.00, 0.03, 0.02, 0.00, 0.00, 1, 1,  9,  41.7770901, -86.5780210,   198.0, 2024,  4,  6, 18, 15, 15,        0,        0,   0,   0,   1.6,   1.2,   1.1,  0, 28,  8,  0,  0,  0,  0,  0,  0,  0, 30,  0,  0, 29,  0,  0, 30,  0, 31,  0,  0, 33,  0,  0,  0,  0,  0,  0,  0, 40,  0,  0
6, 11044, 6,N0CALL,     0.32, 3,   boost,   88.50, 100142.00,   98.94,    3.95,   34.10, 27.7, 3.98, 3.99, 3.99,-103.74,  -0.01,   0.42, -28.91, -18.13,   8.72,  -0.93,  -0.01,  -0.24,   4.37, 4.00, 0.03, 0.02, 0.00, 0.00, 1, 1,  9,  41.7770901, -86.5780210,   198.0, 2024,  4,  6, 18, 15, 15,        0,        0,   0,   0,   1.6,   1.2,   1.1,  0, 28,  8,  0,  0,  0,  0,  0,  0,  0, 30,  0,  0, 29,  0,  0, 30,  0, 31,  0,  0, 33,  0,  0,  0,  0,  0,  0,  0, 40,  0,  0
6, 11044, 6,N0CALL,     0.33, 3,   boost,   87.54, 100116.00,  101.13,    6.13,   34.99, 27.7, 3.98, 3.99, 3.99,-103.86,  -1.18,  -0.36, -28.85, -19.42,   9.27,  -0.93,  -0.01,  -0.24,   4.59, 4.00, 0.03, 0.02, 0.00, 0.00, 1, 1,  9,  41.7770901, -86.5780210,   198.0, 2024,  4,  6, 18, 15, 15,        0,        0,   0,   0,   1.6,   1.2,   1.1,  0, 28,  8,  0,  0,  0,  0,  0,  0,  0, 30,  0,  0, 29,  0,  0, 30,  0, 31,  0,  0, 33,  0,  0,  0,  0,  0,  0,  0, 40,  0,  0
6, 11044, 6,N0CALL,     0.34, 3,   boost,   88.50, 100116.00,  101.13,    6.13,   35.88, 27.7, 4.00, 4.01, 4.00,-103.89,  -2.09,  -0.98, -28.36, -20.27,   9.20,  -0.93,  -0.01,  -0.24,   4.81, 3.99, 0.00, 0.00, 0.00, 0.00, 1, 1,  9,  41.7770901, -86.5780210,   198.0, 2024,  4,  6, 18, 15, 15,        0,        0,   0,   0,   1.6,   1.2,   1.1,  0, 28,  8,  0,  0,  0,  0,  0,  0,  0, 30,  0,  0, 29,  0,  0, 30,  0, 31,  0,  0, 33,  0,  0,  0,  0,  0,  0,  0, 40,  0,  0
6, 11044, 6,N0CALL,     0.34, 3,   boost,   88.50, 100116.00,  101.13,    6.13,   35.88, 27.7, 4.00, 4.01, 4.00,-103.89,  -2.09,  -0.98, -28.36, -20.27,   9.20,  -0.93,  -0.01,  -0.24,   4.81, 3.99, 0.00, 0.00, 0.00, 0.00, 1, 1,  9,  41.7770901, -86.5780210,   198.0, 2024,  4,  6, 18, 15, 15,        0,        0,   0,   0,   1.6,   1.2,   1.1,  0, 28,  8,  0,  0,  0,  0,  0,  0,  0, 30,  0,  0, 29,  0,  0, 30,  0, 31,  0,  0, 33,  0,  0,  0,  0,  0,  0,  0, 40,  0,  0
6, 11044, 6,N0CALL,     0.35, 3,   boost,   91.85, 100135.00,   99.53,    4.54,   36.77, 27.7, 4.00, 4.01, 4.00,-104.05,  -0.36,  -2.38, -28.91, -20.82,   9.39,  -0.92,  -0.00,  -0.24,   5.04, 3.99, 0.00, 0.00, 0.00, 0.00, 1, 1,  9,  41.7770901, -86.5780210,   198.0, 2024,  4,  6, 18, 15, 15,        0,        0,   0,   0,   1.6,   1.2,   1.1,  0, 28,  8,  0,  0,  0,  0,  0,  0,  0, 30,  0,  0, 29,  0,  0, 30,  0, 31,  0,  0, 33,  0,  0,  0,  0,  0,  0,  0, 40,  0,  0
6, 11044, 6,N0CALL,     0.36, 3,   boost,   91.85, 100135.00,   99.53,    4.54,   37.67, 27.7, 4.00, 4.01, 4.00,-104.29,   0.31,  -0.66, -28.12, -20.94,   9.75,  -0.92,  -0.00,  -0.24,   5.27, 3.99, 0.00, 0.00, 0.00, 0.00, 1, 1,  9,  41.7770901, -86.5780210,   198.0, 2024,  4,  6, 18, 15, 15,        0,        0,   0,   0,   1.6,   1.2,   1.1,  0, 28,  8,  0,  0,  0,  0,  0,  0,  0, 30,  0,  0, 29,  0,  0, 30,  0, 31,  0,  0, 33,  0,  0,  0,  0,  0,  0,  0, 40,  0,  0
6, 11044, 6,N0CALL,     0.37, 3,   boost,   88.50, 100100.00,  102.47,    7.48,   38.57, 27.7, 4.00, 4.01, 4.00,-104.10,  -0.50,  -0.22, -27.63, -21.49,  10.42,  -0.92,   0.00,  -0.25,   5.51, 3.99, 0.00, 0.00, 0.00, 0.00, 1, 1,  9,  41.7770901, -86.5780210,   198.0, 2024,  4,  6, 18, 15, 15,        0,        0,   0,   0,   1.6,   1.2,   1.1,  0, 28,  8,  0,  0,  0,  0,  0,  0,  0, 30,  0,  0, 29,  0,  0, 30,  0, 31,  0,  0, 33,  0,  0,  0,  0,  0,  0,  0, 40,  0,  0
6, 11044, 6,N0CALL,     0.38, 3,   boost,   90.89, 100100.00,  102.47,    7.48,   39.47, 27.7, 4.00, 4.01, 4.00,-104.22,  -0.69,  -0.20, -28.18, -22.71,  10.67,  -0.92,   0.00,  -0.25,   5.76, 3.99, 0.00, 0.00, 0.00, 0.00, 1, 1,  9,  41.7770901, -86.5780210,   198.0, 2024,  4,  6, 18, 15, 15,        0,        0,   0,   0,   1.6,   1.2,   1.1,  0, 28,  8,  0,  0,  0,  0,  0,  0,  0, 30,  0,  0, 29,  0,  0, 30,  0, 31,  0,  0, 33,  0,  0,  0,  0,  0,  0,  0, 40,  0,  0
6, 11044, 6,N0CALL,     0.39, 3,   boost,   90.89, 100110.00,  101.63,    6.64,   40.37, 27.7, 4.00, 4.01, 4.00,-104.28,  -0.60,  -1.31, -27.93, -23.08,  10.12,  -0.92,   0.00,  -0.25,   6.01, 3.99, 0.00, 0.00, 0.00, 0.00, 1, 1,  9,  41.7770901, -86.5780210,   198.0, 2024,  4,  6, 18, 15, 15,        0,        0,   0,   0,   1.6,   1.2,   1.1,  0, 28,  8,  0,  0,  0,  0,  0,  0,  0, 30,  0,  0, 29,  0,  0, 30,  0, 31,  0,  0, 33,  0,  0,  0,  0,  0,  0,  0, 40,  0,  0
6, 11044, 6,N0CALL,     0.40, 3,   boost,   90.41, 100110.00,  101.63,    6.64,   41.27, 27.7, 4.00, 4.01, 4.00,-104.35,   0.49,  -0.80, -27.93, -23.51,  10.00,  -0.92,   0.01,  -0.25,   6.26, 3.99, 0.00, 0.00, 0.00, 0.00, 1, 1,  9,  41.7770901, -86.5780210,   198.0, 2024,  4,  6, 18, 15, 15,        0,        0,   0,   0,   1.6,   1.2,   1.1,  0, 28,  8,  0,  0,  0,  0,  0,  0,  0, 30,  0,  0, 29,  0,  0, 30,  0, 31,  0,  0, 33,  0,  0,  0,  0,  0,  0,  0, 40,  0,  0
6, 11044, 6,N0CALL,     0.41, 3,   boost,   90.41, 100113.00,  101.38,    6.39,   42.17, 27.7, 4.00, 4.01, 4.00,-104.23,   0.60,  -0.29, -28.24, -23.75,  10.61,  -0.92,   0.01,  -0.25,   6.52, 3.99, 0.00, 0.00, 0.00, 0.00, 1, 1,  9,  41.7770901, -86.5780210,   198.0, 2024,  4,  6, 18, 15, 15,        0,        0,   0,   0,   1.6,   1.2,   1.1,  0, 28,  8,  0,  0,  0,  0,  0,  0,  0, 30,  0,  0, 29,  0,  0, 30,  0, 31,  0,  0, 33,  0,  0,  0,  0,  0,  0,  0, 40,  0,  0
6, 11044, 6,N0CALL,     0.42, 3,   boost,   90.41, 100113.00,  101.38,    6.39,   43.07, 27.7, 4.00, 4.01, 4.00,-104.32,  -0.83,   0.49, -27.75, -23.75,  10.55,  -0.92,   0.01,  -0.25,   6.78, 3.99, 0.00, 0.00, 0.00, 0.00, 1, 1,  9,  41.7770901, -86.5780210,   198.0, 2024,  4,  6, 18, 15, 15,        0,        0,   0,   0,   1.6,   1.2,   1.1,  0, 28,  8,  0,  0,  0,  0,  0,  0,  0, 30,  0,  0, 29,  0,  0, 30,  0, 31,  0,  0, 33,  0,  0,  0,  0,  0,  0,  0, 40,  0,  0
6, 11044, 6,N0CALL,     0.43, 3,   boost,   91.85, 100068.00,  105.16,   10.17,   43.97, 27.7, 4.00, 4.01, 4.00,-104.47,  -0.40,  -0.50, -27.69, -24.60,  10.36,  -0.92,   0.01,  -0.25,   7.05, 3.99, 0.00, 0.00, 0.00, 0.00, 1, 1,  9,  41.7770901, -86.5780210,   198.0, 2024,  4,  6, 18, 15, 15,        0,        0,   0,   0,   1.6,   1.2,   1.1,  0, 28,  8,  0,  0,  0,  0,  0,  0,  0, 30,  0,  0, 29,  0,  0, 30,  0, 31,  0,  0, 33,  0,  0,  0,  0,  0,  0,  0, 40,  0,  0
6, 11044, 6,N0CALL,     0.44, 3,   boost,   92.80, 100068.00,  105.16,   10.17,   44.88, 27.7, 4.00, 4.01, 4.00,-104.37,   0.35,  -0.45, -28.42, -24.60,  10.36,  -0.92,   0.01,  -0.25,   7.32, 3.99, 0.00, 0.00, 0.00, 0.00, 1, 1,  9,  41.7770901, -86.5780210,   198.0, 2024,  4,  6, 18, 15, 15,        0,        0,   0,   0,   1.6,   1.2,   1.1,  0, 28,  8,  0,  0,  0,  0,  0,  0,  0, 30,  0,  0, 29,  0,  0, 30,  0, 31,  0,  0, 33,  0,  0,  0,  0,  0,  0,  0, 40,  0,  0
6, 11044, 6,N0CALL,     0.45, 3,   boost,   91.37, 100056.00,  106.17,   11.18,   45.78, 27.7, 4.00, 4.01, 4.00,-104.45,   0.32,  -0.34, -28.61, -24.97,  10.18,  -0.92,   0.01,  -0.25,   7.59, 3.99, 0.00, 0.00, 0.00, 0.00, 1, 1,  9,  41.7770901, -86.5780210,   198.0, 2024,  4,  6, 18, 15, 15,        0,        0,   0,   0,   1.6,   1.2,   1.1,  0, 28,  8,  0,  0,  0,  0,  0,  0,  0, 30,  0,  0, 29,  0,  0, 30,  0, 31,  0,  0, 33,  0,  0,  0,  0,  0,  0,  0, 40,  0,  0
6, 11044, 6,N0CALL,     0.46, 3,   boost,   89.93, 100056.00,  106.17,   11.18,   46.69, 27.7, 4.00, 4.01, 4.00,-104.54,   0.44,   0.63, -28.67, -25.09,  10.73,  -0.91,   0.02,  -0.26,   7.86, 3.99, 0.00, 0.00, 0.00, 0.00, 1, 1,  9,  41.7770901, -86.5780210,   198.0, 2024,  4,  6, 18, 15, 15,        0,        0,   0,   0,   1.6,   1.2,   1.1,  0, 28,  8,  0,  0,  0,  0,  0,  0,  0, 30,  0,  0, 29,  0,  0, 30,  0, 31,  0,  0, 33,  0,  0,  0,  0,  0,  0,  0, 40,  0,  0
6, 11044, 6,N0CALL,     0.47, 3,   boost,   91.37, 100076.00,  104.49,    9.50,   47.58, 27.7, 4.00, 4.01, 4.00,-104.74,  -0.81,   0.12, -29.09, -25.82,  10.61,  -0.91,   0.02,  -0.26,   8.14, 3.99, 0.00, 0.00, 0.00, 0.00, 1, 1,  9,  41.7770901, -86.5780210,   198.0, 2024,  4,  6, 18, 15, 15,        0,        0,   0,   0,   1.6,   1.2,   1.1,  0, 28,  8,  0,  0,  0,  0,  0,  0,  0, 30,  0,  0, 29,  0,  0, 30,  0, 31,  0,  0, 33,  0,  0,  0,  0,  0,  0,  0, 40,  0,  0
6, 11044, 6,N0CALL,     0.48, 3,   boost,   89.93, 100076.00,  104.49,    9.50,   48.48, 27.7, 4.00, 4.01, 4.00,-104.63,  -0.68,  -0.92, -29.40, -25.89,  10.55,  -0.91,   0.03,  -0.26,   8.42, 3.99, 0.00, 0.00, 0.00, 0.00, 1, 1,  9,  41.7770901, -86.5780210,   198.0, 2024,  4,  6, 18, 15, 15,        0,        0,   0,   0,   1.6,   1.2,   1.1,  0, 28,  8,  0,  0,  0,  0,  0,  0,  0, 30,  0,  0, 29,  0,  0, 30,  0, 31,  0,  0, 33,  0,  0,  0,  0,  0,  0,  0, 40,  0,  0
6, 11044, 6,N0CALL,     0.49, 3,   boost,   89.93, 100068.00,  105.16,   10.17,   49.37, 27.7, 4.00, 4.01, 4.00,-104.60,   0.66,  -0.73, -29.52, -26.43,  10.55,  -0.91,   0.03,  -0.26,   8.70, 3.99, 0.00, 0.00, 0.00, 0.00, 1, 1,  9,  41.7770901, -86.5780210,   198.0, 2024,  4,  6, 18, 15, 15,        0,        0,   0,   0,   1.6,   1.2,   1.1,  0, 28,  8,  0,  0,  0,  0,  0,  0,  0, 30,  0,  0, 29,  0,  0, 30,  0, 31,  0,  0, 33,  0,  0,  0,  0,  0,  0,  0, 40,  0,  0
6, 11044, 6,N0CALL,     0.50, 3,   boost,   90.41, 100068.00,  105.16,   10.17,   50.27, 27.7, 4.00, 4.01, 4.00,-104.68,   0.08,   0.27, -29.52, -26.07,  10.67,  -0.91,   0.03,  -0.26,   8.98, 3.99, 0.00, 0.00, 0.00, 0.00, 1, 1,  9,  41.7770901, -86.5780210,   198.0, 2024,  4,  6, 18, 15, 15,        0,        0,   0,   0,   1.6,   1.2,   1.1,  0, 28,  8,  0,  0,  0,  0,  0,  0,  0, 30,  0,  0, 29,  0,  0, 30,  0, 31,  0,  0, 33,  0,  0,  0,  0,  0,  0,  0, 40,  0,  0
6, 11044, 6,N0CALL,     0.51, 3,   boost,   91.37, 100025.00,  108.78,   13.79,   51.16, 27.7, 4.00, 4.01, 4.00,-104.99,  -0.22,   1.08, -29.77, -26.56,  11.10,  -0.90,   0.03,  -0.27,   9.27, 3.99, 0.00, 0.00, 0.00, 0.00, 1, 1,  9,  41.7770901, -86.5780210,   198.0, 2024,  4,  6, 18, 15, 15,        0,        0,   0,   0,   1.6,   1.2,   1.1,  0, 28,  8,  0,  0,  0,  0,  0,  0,  0, 30,  0,  0, 29,  0,  0, 30,  0, 31,  0,  0, 33,  0,  0,  0,  0,  0,  0,  0, 40,  0,  0
6, 11044, 6,N0CALL,     0.52, 3,   boost,   91.85, 100025.00,  108.78,   13.79,   52.06, 27.7, 4.00, 4.01, 4.00,-104.78,  -0.32,   0.24, -30.19, -26.68,  10.97,  -0.90,   0.03,  -0.27,   9.56, 3.99, 0.00, 0.00, 0.00, 0.00, 1, 1,  9,  41.7770901, -86.5780210,   198.0, 2024,  4,  6, 18, 15, 15,        0,        0,   0,   0,   1.6,   1.2,   1.1,  0, 28,  8,  0,  0,  0,  0,  0,  0,  0, 30,  0,  0, 29,  0,  0, 30,  0, 31,  0,  0, 33,  0,  0,  0,  0,  0,  0,  0, 40,  0,  0
6, 11044, 6,N0CALL,     0.53, 3,   boost,   90.41, 100037.00,  107.77,   12.78,   52.95, 27.7, 4.00, 4.01, 4.00,-104.89,  -0.07,  -0.09, -30.07, -27.17,  11.10,  -0.91,   0.03,  -0.27,   9.85, 3.99, 0.00, 0.00, 0.00, 0.00, 1, 1,  9,  41.7770901, -86.5780210,   198.0, 2024,  4,  6, 18, 15, 15,        0,        0,   0,   0,   1.6,   1.2,   1.1,  0, 28,  8,  0,  0,  0,  0,  0,  0,  0, 30,  0,  0, 29,  0,  0, 30,  0, 31,  0,  0, 33,  0,  0,  0,  0,  0,  0,  0, 40,  0,  0
6, 11044, 6,N0CALL,     0.54, 3,   boost,   90.41, 100037.00,  107.77,   12.78,   53.85, 27.7, 4.00, 4.01, 4.00,-105.37,   1.08,  -1.46, -30.44, -27.17,  11.22,  -0.90,   0.03,  -0.27,  10.15, 3.99, 0.00, 0.00, 0.00, 0.00, 1, 1,  9,  41.7770901, -86.5780210,   198.0, 2024,  4,  6, 18, 15, 15,        0,        0,   0,   0,   1.6,   1.2,   1.1,  0, 28,  8,  0,  0,  0,  0,  0,  0,  0, 30,  0,  0, 29,  0,  0, 30,  0, 31,  0,  0, 33,  0,  0,  0,  0,  0,  0,  0, 40,  0,  0
6, 11044, 6,N0CALL,     0.55, 3,   boost,   91.37,  99995.00,  111.31,   16.31,   54.74, 27.7, 4.00, 4.01, 4.00,-104.74,   2.01,   0.26, -30.62, -27.84,  10.67,  -0.90,   0.03,  -0.27,  10.44, 3.99, 0.00, 0.00, 0.00, 0.00, 1, 1,  9,  41.7770901, -86.5780210,   198.0, 2024,  4,  6, 18, 15, 15,        0,        0,   0,   0,   1.6,   1.2,   1.1,  0, 28,  8,  0,  0,  0,  0,  0,  0,  0, 30,  0,  0, 29,  0,  0, 30,  0, 31,  0,  0, 33,  0,  0,  0,  0,  0,  0,  0, 40,  0,  0
