#version,serial,flight,call,time,state,state_name,acceleration,pressure,altitude,height,speed,temperature,drogue_voltage,main_voltage,battery_voltage,accel_x,accel_y,accel_z,gyro_roll,gyro_pitch,gyro_yaw,mag_x,mag_y,mag_z,tilt,pyro,igniter_a,igniter_b,igniter_c,igniter_d,connected,locked,nsat,latitude,longitude,altitude,year,month,day,hour,minute,second,pad_dist,pad_range,pad_az,pad_el,pdop,hdop,vdop,sat01,sat02,sat03,sat04,sat05,sat06,sat07,sat08,sat09,sat10,sat11,sat12,sat13,sat14,sat15,sat16,sat17,sat18,sat19,sat20,sat21,sat22,sat23,sat24,sat25,sat26,sat27,sat28,sat29,sat30,sat31,sat32
6, 16162, 4,N0CALL,    -0.30, 3,   boost,    0.98,  99684.00,  137.50,   -0.08,    0.01, 21.7, 4.08, 4.09, 4.08,  -9.86,  -0.32,  -0.47,  -0.32,   0.10,  -0.14,  -0.61,   0.05,   0.02,   2.72, 4.07, 0.00, 0.01, 0.00, 0.00, 1, 1, 15,  40.3869923, -87.5142074,   214.0, 2026,  4, 19, 16, 50, 51,        0,        0,   0,   0,   0.9,   0.5,   0.7,  0,  0, 29,  0,  0, 37,  0,  0,  0,  0, 36, 32,  0, 29,  0,  0, 32,  0, 25,  0, 33, 31,  0, 40,  0,  0,  0,  0,  0,  0,  0,  0
6, 16162, 4,N0CALL,    -0.29, 3,   boost,    1.47,  99684.00,  137.50,   -0.08,    0.01, 21.7, 4.08, 4.09, 4.08,  -9.86,  -0.28,  -0.40,   0.59,   0.52,  -0.08,  -0.61,   0.05,   0.02,   2.72, 4.07, 0.00, 0.01, 0.00, 0.00, 1, 1, 15,  40.3869923, -87.5142074,   214.0, 2026,  4, 19, 16, 50, 51,        0,        0,   0,   0,   0.9,   0.5,   0.7,  0,  0, 29,  0,  0, 37,  0,  0,  0,  0, 36, 32,  0, 29,  0,  0, 32,  0, 25,  0, 33, 31,  0, 40,  0,  0,  0,  0,  0,  0,  0,  0
6, 16162, 4,N0CALL,    -0.28, 3,   boost,   -0.49,  99684.00,  137.50,   -0.08,    0.01, 21.7, 4.08, 4.09, 4.08,  -9.91,  -0.30,  -0.46,   0.96,   0.52,   0.04,  -0.61,   0.05,   0.02,   2.72, 4.07, 0.00, 0.01, 0.00, 0.00, 1, 1, 15,  40.3869923, -87.5142074,   214.0, 2026,  4, 19, 16, 50, 51,        0,        0,   0,   0,   0.9,   0.5,   0.7,  0,  0, 29,  0,  0, 37,  0,  0,  0,  0, 36, 32,  0, 29,  0,  0, 32,  0, 25,  0, 33, 31,  0, 40,  0,  0,  0,  0,  0,  0,  0,  0
6, 16162, 4,N0CALL,    -0.27, 3,   boost,   -0.00,  99675.00,  138.26,    0.67,    0.01, 21.7, 4.08, 4.09, 4.08,  -9.93,  -0.25,  -0.33,   0.35,   0.58,  -0.20,  -0.61,   0.05,   0.02,   2.72, 4.07, 0.00, 0.01, 0.00, 0.00, 1, 1, 15,  40.3869923, -87.5142074,   214.0, 2026,  4, 19, 16, 50, 51,        0,        0,   0,   0,   0.9,   0.5,   0.7,  0,  0, 29,  0,  0, 37,  0,  0,  0,  0, 36, 32,  0, 29,  0,  0, 32,  0, 25,  0, 33, 31,  0, 40,  0,  0,  0,  0,  0,  0,  0,  0
6, 16162, 4,N0CALL,    -0.26, 3,   boost,   -1.47,  99675.00,  138.26,    0.67,    0.01, 21.7, 4.08, 4.09, 4.08,  -9.90,  -0.21,  -0.40,  -0.14,   0.46,  -0.33,  -0.61,   0.05,   0.02,   2.72, 4.07, 0.00, 0.01, 0.00, 0.00, 1, 1, 15,  40.3869923, -87.5142074,   214.0, 2026,  4, 19, 16, 50, 51,        0,        0,   0,   0,   0.9,   0.5,   0.7,  0,  0, 29,  0,  0, 37,  0,  0,  0,  0, 36, 32,  0, 29,  0,  0, 32,  0, 25,  0, 33, 31,  0, 40,  0,  0,  0,  0,  0,  0,  0,  0
6, 16162, 4,N0CALL,    -0.25, 3,   boost,    0.49,  99686.00,  137.34,   -0.25,    0.00, 21.7, 4.08, 4.09, 4.08,  -9.86,  -0.22,  -0.35,  -0.63,   0.34,   0.10,  -0.61,   0.05,   0.02,   2.72, 4.07, 0.00, 0.01, 0.00, 0.00, 1, 1, 15,  40.3869923, -87.5142074,   214.0, 2026,  4, 19, 16, 50, 51,        0,        0,   0,   0,   0.9,   0.5,   0.7,  0,  0, 29,  0,  0, 37,  0,  0,  0,  0, 36, 32,  0, 29,  0,  0, 32,  0, 25,  0, 33, 31,  0, 40,  0,  0,  0,  0,  0,  0,  0,  0
6, 16162, 4,N0CALL,    -0.24, 3,   boost,   -1.47,  99686.00,  137.34,   -0.25,    0.00, 21.7, 4.08, 4.09, 4.08,  -9.89,  -0.21,  -0.25,  -0.32,   0.58,  -0.08,  -0.61,   0.05,   0.02,   2.72, 4.07, 0.00, 0.01, 0.00, 0.00, 1, 1, 15,  40.3869923, -87.5142074,   214.0, 2026,  4, 19, 16, 50, 51,        0,        0,   0,   0,   0.9,   0.5,   0.7,  0,  0, 29,  0,  0, 37,  0,  0,  0,  0, 36, 32,  0, 29,  0,  0, 32,  0, 25,  0, 33, 31,  0, 40,  0,  0,  0,  0,  0,  0,  0,  0
6, 16162, 4,N0CALL,    -0.23, 3,   boost,   -0.49,  99677.00,  138.10,    0.51,    0.00, 21.7, 4.08, 4.09, 4.08,  -9.87,  -0.27,  -0.22,   0.11,   0.28,  -0.20,  -0.61,   0.05,   0.02,   2.72, 4.07, 0.00, 0.01, 0.00, 0.00, 1, 1, 15,  40.3869923, -87.5142074,   214.0, 2026,  4, 19, 16, 50, 51,        0,        0,   0,   0,   0.9,   0.5,   0.7,  0,  0, 29,  0,  0, 37,  0,  0,  0,  0, 36, 32,  0, 29,  0,  0, 32,  0, 25,  0, 33, 31,  0, 40,  0,  0,  0,  0,  0,  0,  0,  0
6, 16162, 4,N0CALL,    -0.22, 3,   boost,    0.49,  99677.00,  138.10,    0.51,    0.00, 21.7, 4.08, 4.09, 4.08,  -9.86,  -0.19,  -0.25,   0.53,   0.71,  -0.02,  -0.61,   0.05,   0.02,   2.72, 4.07, 0.00, 0.01, 0.00, 0.00, 1, 1, 15,  40.3869923, -87.5142074,   214.0, 2026,  4, 19, 16, 50, 51,        0,        0,   0,   0,   0.9,   0.5,   0.7,  0,  0, 29,  0,  0, 37,  0,  0,  0,  0, 36, 32,  0, 29,  0,  0, 32,  0, 25,  0, 33, 31,  0, 40,  0,  0,  0,  0,  0,  0,  0,  0
6, 16162, 4,N0CALL,    -0.21, 3,   boost,    0.98,  99683.00,  137.59,    0.00,    0.00, 21.7, 4.08, 4.09, 4.08,  -9.90,  -0.22,  -0.12,   0.41,   0.71,   0.28,  -0.61,   0.04,   0.02,   2.72, 4.07, 0.00, 0.01, 0.00, 0.00, 1, 1, 15,  40.3869923, -87.5142074,   214.0, 2026,  4, 19, 16, 50, 51,        0,        0,   0,   0,   0.9,   0.5,   0.7,  0,  0, 29,  0,  0, 37,  0,  0,  0,  0, 36, 32,  0, 29,  0,  0, 32,  0, 25,  0, 33, 31,  0, 40,  0,  0,  0,  0,  0,  0,  0,  0
6, 16162, 4,N0CALL,    -0.20, 3,   boost,    0.49,  99683.00,  137.59,    0.00,    0.00, 21.7, 4.08, 4.09, 4.08,  -9.95,  -0.19,  -0.24,  -0.02,   0.52,   0.16,  -0.61,   0.04,   0.02,   2.72, 4.07, 0.00, 0.01, 0.00, 0.00, 1, 1, 15,  40.3869923, -87.5142074,   214.0, 2026,  4, 19, 16, 50, 51,        0,        0,   0,   0,   0.9,   0.5,   0.7,  0,  0, 29,  0,  0, 37,  0,  0,  0,  0, 36, 32,  0, 29,  0,  0, 32,  0, 25,  0, 33, 31,  0, 40,  0,  0,  0,  0,  0,  0,  0,  0
6, 16162, 4,N0CALL,    -0.19, 3,   boost,    0.49,  99696.00,  136.49,   -1.10,    0.00, 21.7, 4.08, 4.09, 4.08, -10.01,  -0.22,  -0.38,  -0.75,   0.22,   0.10,  -0.61,   0.04,   0.02,   2.72, 4.07, 0.00, 0.01, 0.00, 0.00, 1, 1, 15,  40.3869923, -87.5142074,   214.0, 2026,  4, 19, 16, 50, 51,        0,        0,   0,   0,   0.9,   0.5,   0.7,  0,  0, 29,  0,  0, 37,  0,  0,  0,  0, 36, 32,  0, 29,  0,  0, 32,  0, 25,  0, 33, 31,  0, 40,  0,  0,  0,  0,  0,  0,  0,  0
6, 16162, 4,N0CALL,    -0.18, 3,   boost,    1.96,  99696.00,  136.49,   -1.10,    0.01, 21.7, 4.08, 4.09, 4.08, -10.50,  -0.09,  -0.04,  -0.99,   0.46,  -0.02,  -0.61,   0.04,   0.02,   2.72, 4.07, 0.00, 0.01, 0.00, 0.00, 1, 1, 15,  40.3869923, -87.5142074,   214.0, 2026,  4, 19, 16, 50, 51,        0,        0,   0,   0,   0.9,   0.5,   0.7,  0,  0, 29,  0,  0, 37,  0,  0,  0,  0, 36, 32,  0, 29,  0,  0, 32,  0, 25,  0, 33, 31,  0, 40,  0,  0,  0,  0,  0,  0,  0,  0
6, 16162, 4,N0CALL,    -0.17, 3,   boost,  -22.56,  99695.00,  136.58,   -1.01,    0.00, 21.7, 4.08, 4.09, 4.08, -10.88,  -0.40,   0.14,  -0.08,  -0.21,   0.22,  -0.61,   0.04,   0.02,   2.72, 4.07, 0.00, 0.01, 0.00, 0.00, 1, 1, 15,  40.3869923, -87.5142074,   214.0, 2026,  4, 19, 16, 50, 51,        0,        0,   0,   0,   0.9,   0.5,   0.7,  0,  0, 29,  0,  0, 37,  0,  0,  0,  0, 36, 32,  0, 29,  0,  0, 32,  0, 25,  0, 33, 31,  0, 40,  0,  0,  0,  0,  0,  0,  0,  0
6, 16162, 4,N0CALL,    -0.16, 3,   boost,   -0.00,  99695.00,  136.58,   -1.01,    0.00, 21.7, 4.08, 4.09, 4.08,  -6.17,   0.29,   0.34,   0.05,   0.58,   0.41,  -0.61,   0.04,   0.02,   2.72, 4.07, 0.00, 0.01, 0.00, 0.00, 1, 1, 15,  40.3869923, -87.5142074,   214.0, 2026,  4, 19, 16, 50, 51,        0,        0,   0,   0,   0.9,   0.5,   0.7,  0,  0, 29,  0,  0, 37,  0,  0,  0,  0, 36, 32,  0, 29,  0,  0, 32,  0, 25,  0, 33, 31,  0, 40,  0,  0,  0,  0,  0,  0,  0,  0
6, 16162, 4,N0CALL,    -0.15, 3,   boost,    1.96,  99678.00,  138.01,    0.42,    0.01, 21.7, 4.08, 4.09, 4.08, -10.88,  -0.26,   1.81,   2.91,   1.26,  -0.02,  -0.61,   0.04,   0.02,   2.72, 4.07, 0.00, 0.01, 0.00, 0.00, 1, 1, 15,  40.3869923, -87.5142074,   214.0, 2026,  4, 19, 16, 50, 51,        0,        0,   0,   0,   0.9,   0.5,   0.7,  0,  0, 29,  0,  0, 37,  0,  0,  0,  0, 36, 32,  0, 29,  0,  0, 32,  0, 25,  0, 33, 31,  0, 40,  0,  0,  0,  0,  0,  0,  0,  0
6, 16162, 4,N0CALL,    -0.14, 3,   boost,    5.88,  99678.00,  138.01,    0.42,    0.04, 21.7, 4.08, 4.09, 4.08, -11.06,  -0.14,   1.65,  -1.42,  -0.57,   0.41,  -0.61,   0.04,   0.02,   2.72, 4.07, 0.00, 0.01, 0.00, 0.00, 1, 1, 15,  40.3869923, -87.5142074,   214.0, 2026,  4, 19, 16, 50, 51,        0,        0,   0,   0,   0.9,   0.5,   0.7,  0,  0, 29,  0,  0, 37,  0,  0,  0,  0, 36, 32,  0, 29,  0,  0, 32,  0, 25,  0, 33, 31,  0, 40,  0,  0,  0,  0,  0,  0,  0,  0
6, 16162, 4,N0CALL,    -0.13, 3,   boost,    3.92,  99687.00,  137.25,   -0.34,    0.12, 21.7, 4.08, 4.09, 4.08,  -7.35,  -0.34,  -1.36,  -0.81,  -0.82,   0.41,  -0.61,   0.04,   0.02,   2.72, 4.07, 0.00, 0.01, 0.00, 0.00, 1, 1, 15,  40.3869923, -87.5142074,   214.0, 2026,  4, 19, 16, 50, 51,        0,        0,   0,   0,   0.9,   0.5,   0.7,  0,  0, 29,  0,  0, 37,  0,  0,  0,  0, 36, 32,  0, 29,  0,  0, 32,  0, 25,  0, 33, 31,  0, 40,  0,  0,  0,  0,  0,  0,  0,  0
6, 16162, 4,N0CALL,    -0.12, 3,   boost,   18.63,  99687.00,  137.25,   -0.34,    0.27, 21.7, 4.08, 4.09, 4.08, -13.60,  -0.62,   1.43,  -0.63,  -1.98,   0.41,  -0.61,   0.04,   0.02,   2.72, 4.07, 0.00, 0.01, 0.00, 0.00, 1, 1, 15,  40.3869923, -87.5142074,   214.0, 2026,  4, 19, 16, 50, 51,        0,        0,   0,   0,   0.9,   0.5,   0.7,  0,  0, 29,  0,  0, 37,  0,  0,  0,  0, 36, 32,  0, 29,  0,  0, 32,  0, 25,  0, 33, 31,  0, 40,  0,  0,  0,  0,  0,  0,  0,  0
6, 16162, 4,N0CALL,    -0.11, 3,   boost,   44.62,  99770.00,  130.25,   -7.34,    0.52, 21.7, 4.08, 4.09, 4.08, -23.81,  -0.94,   1.59,   0.72,   1.81,   0.47,  -0.61,   0.04,   0.02,   2.72, 4.07, 0.00, 0.01, 0.00, 0.00, 1, 1, 15,  40.3869923, -87.5142074,   214.0, 2026,  4, 19, 16, 50, 51,        0,        0,   0,   0,   0.9,   0.5,   0.7,  0,  0, 29,  0,  0, 37,  0,  0,  0,  0, 36, 32,  0, 29,  0,  0, 32,  0, 25,  0, 33, 31,  0, 40,  0,  0,  0,  0,  0,  0,  0,  0
6, 16162, 4,N0CALL,    -0.10, 3,   boost,   39.23,  99770.00,  130.25,   -7.34,    0.86, 21.7, 4.08, 4.09, 4.08, -50.94,  -1.75,   2.18,   3.59,   1.93,  -0.27,  -0.61,   0.04,   0.02,   2.72, 4.07, 0.00, 0.01, 0.00, 0.00, 1, 1, 15,  40.3869923, -87.5142074,   214.0, 2026,  4, 19, 16, 50, 51,        0,        0,   0,   0,   0.9,   0.5,   0.7,  0,  0, 29,  0,  0, 37,  0,  0,  0,  0, 36, 32,  0, 29,  0,  0, 32,  0, 25,  0, 33, 31,  0, 40,  0,  0,  0,  0,  0,  0,  0,  0
6, 16162, 4,N0CALL,    -0.09, 3,   boost,   52.47,  99712.00,  135.14,   -2.45,    1.29, 21.7, 4.08, 4.09, 4.08, -53.17,  -0.24,   2.91,  12.62,   8.15,   0.10,  -0.61,   0.04,   0.02,   2.72, 4.07, 0.00, 0.01, 0.00, 0.00, 1, 1, 15,  40.3869923, -87.5142074,   214.0, 2026,  4, 19, 16, 50, 51,        0,        0,   0,   0,   0.9,   0.5,   0.7,  0,  0, 29,  0,  0, 37,  0,  0,  0,  0, 36, 32,  0, 29,  0,  0, 32,  0, 25,  0, 33, 31,  0, 40,  0,  0,  0,  0,  0,  0,  0,  0
6, 16162, 4,N0CALL,    -0.08, 3,   boost,   54.43,  99712.00,  135.14,   -2.45,    1.77, 21.7, 4.08, 4.09, 4.08, -64.21,  -3.74,   7.69,  25.37,  12.91,   0.89,  -0.61,   0.04,   0.02,   2.72, 4.07, 0.00, 0.01, 0.00, 0.00, 1, 1, 15,  40.3869923, -87.5142074,   214.0, 2026,  4, 19, 16, 50, 51,        0,        0,   0,   0,   0.9,   0.5,   0.7,  0,  0, 29,  0,  0, 37,  0,  0,  0,  0, 36, 32,  0, 29,  0,  0, 32,  0, 25,  0, 33, 31,  0, 40,  0,  0,  0,  0,  0,  0,  0,  0
6, 16162, 4,N0CALL,    -0.07, 3,   boost,   52.47,  99678.00,  138.01,    0.42,    2.29, 21.7, 4.08, 4.09, 4.08, -62.85,  -3.36,  17.98,  32.64,  25.00,   1.75,  -0.61,   0.04,   0.02,   2.72, 4.07, 0.00, 0.01, 0.00, 0.00, 1, 1, 15,  40.3869923, -87.5142074,   214.0, 2026,  4, 19, 16, 50, 51,        0,        0,   0,   0,   0.9,   0.5,   0.7,  0,  0, 29,  0,  0, 37,  0,  0,  0,  0, 36, 32,  0, 29,  0,  0, 32,  0, 25,  0, 33, 31,  0, 40,  0,  0,  0,  0,  0,  0,  0,  0
6, 16162, 4,N0CALL,    -0.06, 3,   boost,   55.41,  99678.00,  138.01,    0.42,    2.83, 21.7, 4.08, 4.09, 4.08, -60.79,   1.32,  -9.81,  10.60,  10.29,   1.20,  -0.61,   0.04,   0.02,   2.72, 4.07, 0.00, 0.01, 0.00, 0.00, 1, 1, 15,  40.3869923, -87.5142074,   214.0, 2026,  4, 19, 16, 50, 51,        0,        0,   0,   0,   0.9,   0.5,   0.7,  0,  0, 29,  0,  0, 37,  0,  0,  0,  0, 36, 32,  0, 29,  0,  0, 32,  0, 25,  0, 33, 31,  0, 40,  0,  0,  0,  0,  0,  0,  0,  0
6, 16162, 4,N0CALL,    -0.05, 3,   boost,   55.41,  99684.00,  137.50,   -0.08,    3.38, 21.7, 4.08, 4.09, 4.08, -64.65,  -1.39,   1.17,  -4.78,   3.15,   0.96,  -0.61,   0.04,   0.02,   2.72, 4.07, 0.00, 0.01, 0.00, 0.00, 1, 1, 15,  40.3869923, -87.5142074,   214.0, 2026,  4, 19, 16, 50, 51,        0,        0,   0,   0,   0.9,   0.5,   0.7,  0,  0, 29,  0,  0, 37,  0,  0,  0,  0, 36, 32,  0, 29,  0,  0, 32,  0, 25,  0, 33, 31,  0, 40,  0,  0,  0,  0,  0,  0,  0,  0
6, 16162, 4,N0CALL,    -0.04, 3,   boost,   56.88,  99684.00,  137.50,   -0.08,    3.95, 21.7, 4.08, 4.09, 4.08, -63.69,  -1.23,  -1.85,   0.05, -14.86,  -1.73,  -0.61,   0.04,   0.02,   2.72, 4.07, 0.00, 0.01, 0.00, 0.00, 1, 1, 15,  40.3869923, -87.5142074,   214.0, 2026,  4, 19, 16, 50, 51,        0,        0,   0,   0,   0.9,   0.5,   0.7,  0,  0, 29,  0,  0, 37,  0,  0,  0,  0, 36, 32,  0, 29,  0,  0, 32,  0, 25,  0, 33, 31,  0, 40,  0,  0,  0,  0,  0,  0,  0,  0
6, 16162, 4,N0CALL,    -0.03, 3,   boost,   60.31,  99679.00,  137.93,    0.34,    4.53, 21.7, 4.08, 4.09, 4.08, -66.58,  -1.42,   5.59,  -1.05, -18.03,  -1.06,  -0.61,   0.04,   0.02,   2.72, 4.07, 0.00, 0.01, 0.00, 0.00, 1, 1, 15,  40.3869923, -87.5142074,   214.0, 2026,  4, 19, 16, 50, 51,        0,        0,   0,   0,   0.9,   0.5,   0.7,  0,  0, 29,  0,  0, 37,  0,  0,  0,  0, 36, 32,  0, 29,  0,  0, 32,  0, 25,  0, 33, 31,  0, 40,  0,  0,  0,  0,  0,  0,  0,  0
6, 16162, 4,N0CALL,    -0.02, 3,   boost,   59.33,  99679.00,  137.93,    0.34,    5.12, 21.7, 4.08, 4.09, 4.08, -67.36,  -2.38,  -1.21,  -4.29,  -8.63,  -0.20,  -0.61,   0.04,   0.02,   2.72, 4.07, 0.00, 0.01, 0.00, 0.00, 1, 1, 15,  40.3869923, -87.5142074,   214.0, 2026,  4, 19, 16, 50, 51,        0,        0,   0,   0,   0.9,   0.5,   0.7,  0,  0, 29,  0,  0, 37,  0,  0,  0,  0, 36, 32,  0, 29,  0,  0, 32,  0, 25,  0, 33, 31,  0, 40,  0,  0,  0,  0,  0,  0,  0,  0
6, 16162, 4,N0CALL,    -0.01, 3,   boost,   60.80,  99694.00,  136.66,   -0.93,    5.71, 21.7, 4.08, 4.09, 4.08, -68.93,  -2.46,   8.42, -12.89,  -3.81,   1.02,  -0.61,   0.04,   0.02,   2.72, 4.07, 0.00, 0.01, 0.00, 0.00, 1, 1, 15,  40.3869923, -87.5142074,   214.0, 2026,  4, 19, 16, 50, 51,        0,        0,   0,   0,   0.9,   0.5,   0.7,  0,  0, 29,  0,  0, 37,  0,  0,  0,  0, 36, 32,  0, 29,  0,  0, 32,  0, 25,  0, 33, 31,  0, 40,  0,  0,  0,  0,  0,  0,  0,  0
6, 16162, 4,N0CALL,     0.00, 3,   boost,   58.84,  99694.00,  136.66,   -0.93,    6.31, 21.7, 4.08, 4.09, 4.08, -69.07,  -3.71,  -1.77,  -4.35,   1.81,   0.71,  -0.61,   0.04,   0.02,   2.72, 4.07, 0.00, 0.01, 0.00, 0.00, 1, 1, 15,  40.3869923, -87.5142074,   214.0, 2026,  4, 19, 16, 50, 51,        0,        0,   0,   0,   0.9,   0.5,   0.7,  0,  0, 29,  0,  0, 37,  0,  0,  0,  0, 36, 32,  0, 29,  0,  0, 32,  0, 25,  0, 33, 31,  0, 40,  0,  0,  0,  0,  0,  0,  0,  0
6, 16162, 4,N0CALL,     0.00, 3,   boost,   58.84,  99694.00,  136.66,   -0.93,    6.31, 21.7, 4.08, 4.09, 4.08, -69.07,  -3.71,  -1.77,  -4.35,   1.81,   0.71,  -0.61,   0.04,   0.02,   2.72, 4.07, 0.00, 0.01, 0.00, 0.00, 1, 1, 15,  40.3869923, -87.5142074,   214.0, 2026,  4, 19, 16, 50, 51,        0,        0,   0,   0,   0.9,   0.5,   0.7,  0,  0, 29,  0,  0, 37,  0,  0,  0,  0, 36, 32,  0, 29,  0,  0, 32,  0, 25,  0, 33, 31,  0, 40,  0,  0,  0,  0,  0,  0,  0,  0
6, 16162, 4,N0CALL,     0.00, 3,   boost,   58.84,  99694.00,  136.66,   -0.93,    6.31, 21.7, 4.08, 4.09, 4.08, -69.07,  -3.71,  -1.77,  -4.35,   1.81,   0.71,  -0.61,   0.04,   0.02,   2.72, 4.07, 0.00, 0.01, 0.00, 0.00, 1, 1, 15,  40.3869923, -87.5142074,   214.0, 2026,  4, 19, 16, 50, 51,        0,        0,   0,   0,   0.9,   0.5,   0.7,  0,  0, 29,  0,  0, 37,  0,  0,  0,  0, 36, 32,  0, 29,  0,  0, 32,  0, 25,  0, 33, 31,  0, 40,  0,  0,  0,  0,  0,  0,  0,  0
6, 16162, 4,N0CALL,     0.00, 3,   boost,   58.84,  99694.00,  136.66,   -0.93,    6.31, 21.7, 4.08, 4.09, 4.08, -69.07,  -3.71,  -1.77,  -4.35,   1.81,   0.71,  -0.61,   0.04,   0.02,   2.72, 4.07, 0.00, 0.01, 0.00, 0.00, 1, 1, 15,  40.3869923, -87.5142074,   214.0, 2026,  4, 19, 16, 50, 51,        0,        0,   0,   0,   0.9,   0.5,   0.7,  0,  0, 29,  0,  0, 37,  0,  0,  0,  0, 36, 32,  0, 29,  0,  0, 32,  0, 25,  0, 33, 31,  0, 40,  0,  0,  0,  0,  0,  0,  0,  0
6, 16162, 4,N0CALL,     0.00, 3,   boost,   58.84,  99694.00,  136.66,   -0.93,    6.31, 21.7, 4.08, 4.09, 4.08, -69.07,  -3.71,  -1.77,  -4.35,   1.81,   0.71,  -0.61,   0.04,   0.02,   2.72, 4.07, 0.00, 0.01, 0.00, 0.00, 1, 1, 15,  40.3869923, -87.5142074,   214.0, 2026,  4, 19, 16, 50, 51,        0,        0,   0,   0,   0.9,   0.5,   0.7,  0,  0, 29,  0,  0, 37,  0,  0,  0,  0, 36, 32,  0, 29,  0,  0, 32,  0, 25,  0, 33, 31,  0, 40,  0,  0,  0,  0,  0,  0,  0,  0
6, 16162, 4,N0CALL,     0.00, 3,   boost,   58.84,  99694.00,  136.66,   -0.93,    6.31, 21.7, 4.08, 4.09, 4.08, -69.07,  -3.71,  -1.77,  -4.35,   1.81,   0.71,  -0.61,   0.04,   0.02,   2.72, 4.07, 0.00, 0.01, 0.00, 0.00, 1, 1, 15,  40.3869923, -87.5142074,   214.0, 2026,  4, 19, 16, 50, 51,        0,        0,   0,   0,   0.9,   0.5,   0.7,  0,  0, 29,  0,  0, 37,  0,  0,  0,  0, 36, 32,  0, 29,  0,  0, 32,  0, 25,  0, 33, 31,  0, 40,  0,  0,  0,  0,  0,  0,  0,  0
6, 16162, 4,N0CALL,     0.00, 3,   boost,   58.84,  99694.00,  136.66,   -0.93,    6.31, 21.7, 4.08, 4.09, 4.08, -69.07,  -3.71,  -1.77,  -4.35,   1.81,   0.71,  -0.61,   0.04,   0.02,   2.72, 4.07, 0.00, 0.01, 0.00, 0.00, 1, 1, 15,  40.3869923, -87.5142074,   214.0, 2026,  4, 19, 16, 50, 51,        0,        0,   0,   0,   0.9,   0.5,   0.7,  0,  0, 29,  0,  0, 37,  0,  0,  0,  0, 36, 32,  0, 29,  0,  0, 32,  0, 25,  0, 33, 31,  0, 40,  0,  0,  0,  0,  0,  0,  0,  0
6, 16162, 4,N0CALL,     0.00, 3,   boost,   58.84,  99694.00,  136.66,   -0.93,    6.31, 21.7, 4.08, 4.09, 4.08, -69.07,  -3.71,  -1.77,  -4.35,   1.81,   0.71,  -0.61,   0.04,   0.02,   2.71, 4.07, 0.00, 0.01, 0.00, 0.00, 1, 1, 15,  40.3869923, -87.5142074,   214.0, 2026,  4, 19, 16, 50, 51,        0,        0,   0,   0,   0.9,   0.5,   0.7,  0,  0, 29,  0,  0, 37,  0,  0,  0,  0, 36, 32,  0, 29,  0,  0, 32,  0, 25,  0, 33, 31,  0, 40,  0,  0,  0,  0,  0,  0,  0,  0
6, 16162, 4,N0CALL,     0.00, 3,   boost,   58.84,  99694.00,  136.66,   -0.93,    6.31, 21.7, 4.08, 4.09, 4.08, -69.07,  -3.71,  -1.77,  -4.35,   1.81,   0.71,  -0.61,   0.04,   0.02,   2.71, 4.07, 0.00, 0.01, 0.00, 0.00, 1, 1, 15,  40.3869923, -87.5142074,   214.0, 2026,  4, 19, 16, 50, 51,        0,        0,   0,   0,   0.9,   0.5,   0.7,  0,  0, 29,  0,  0, 37,  0,  0,  0,  0, 36, 32,  0, 29,  0,  0, 32,  0, 25,  0, 33, 31,  0, 40,  0,  0,  0,  0,  0,  0,  0,  0
6, 16162, 4,N0CALL,     0.00, 3,   boost,   58.84,  99694.00,  136.66,   -0.93,    6.31, 21.7, 4.08, 4.09, 4.08, -69.07,  -3.71,  -1.77,  -4.35,   1.81,   0.71,  -0.61,   0.04,   0.02,   2.70, 4.07, 0.00, 0.01, 0.00, 0.00, 1, 1, 15,  40.3869923, -87.5142074,   214.0, 2026,  4, 19, 16, 50, 51,        0,        0,   0,   0,   0.9,   0.5,   0.7,  0,  0, 29,  0,  0, 37,  0,  0,  0,  0, 36, 32,  0, 29,  0,  0, 32,  0, 25,  0, 33, 31,  0, 40,  0,  0,  0,  0,  0,  0,  0,  0
6, 16162, 4,N0CALL,     0.00, 3,   boost,   58.84,  99694.00,  136.66,   -0.93,    6.31, 21.7, 4.08, 4.09, 4.08, -69.07,  -3.71,  -1.77,  -4.35,   1.81,   0.71,  -0.61,   0.04,   0.02,   2.70, 4.07, 0.00, 0.01, 0.00, 0.00, 1, 1, 15,  40.3869923, -87.5142074,   214.0, 2026,  4, 19, 16, 50, 51,        0,        0,   0,   0,   0.9,   0.5,   0.7,  0,  0, 29,  0,  0, 37,  0,  0,  0,  0, 36, 32,  0, 29,  0,  0, 32,  0, 25,  0, 33, 31,  0, 40,  0,  0,  0,  0,  0,  0,  0,  0
6, 16162, 4,N0CALL,     0.00, 3,   boost,   58.84,  99694.00,  136.66,   -0.93,    6.31, 21.7, 4.08, 4.09, 4.08, -69.07,  -3.71,  -1.77,  -4.35,   1.81,   0.71,  -0.61,   0.04,   0.02,   2.69, 4.07, 0.00, 0.01, 0.00, 0.00, 1, 1, 15,  40.3869923, -87.5142074,   214.0, 2026,  4, 19, 16, 50, 51,        0,        0,   0,   0,   0.9,   0.5,   0.7,  0,  0, 29,  0,  0, 37,  0,  0,  0,  0, 36, 32,  0, 29,  0,  0, 32,  0, 25,  0, 33, 31,  0, 40,  0,  0,  0,  0,  0,  0,  0,  0
6, 16162, 4,N0CALL,     0.00, 3,   boost,   58.84,  99694.00,  136.66,   -0.93,    6.31, 21.7, 4.08, 4.09, 4.08, -69.07,  -3.71,  -1.77,  -4.35,   1.81,   0.71,  -0.61,   0.04,   0.02,   2.69, 4.07, 0.00, 0.01, 0.00, 0.00, 1, 1, 15,  40.3869923, -87.5142074,   214.0, 2026,  4, 19, 16, 50, 51,        0,        0,   0,   0,   0.9,   0.5,   0.7,  0,  0, 29,  0,  0, 37,  0,  0,  0,  0, 36, 32,  0, 29,  0,  0, 32,  0, 25,  0, 33, 31,  0, 40,  0,  0,  0,  0,  0,  0,  0,  0
6, 16162, 4,N0CALL,     0.00, 3,   boost,   58.84,  99694.00,  136.66,   -0.93,    6.31, 21.7, 4.08, 4.09, 4.08, -69.07,  -3.71,  -1.77,  -4.35,   1.81,   0.71,  -0.61,   0.04,   0.02,   2.68, 4.07, 0.00, 0.01, 0.00, 0.00, 1, 1, 15,  40.3869923, -87.5142074,   214.0, 2026,  4, 19, 16, 50, 51,        0,        0,   0,   0,   0.9,   0.5,   0.7,  0,  0, 29,  0,  0, 37,  0,  0,  0,  0, 36, 32,  0, 29,  0,  0, 32,  0, 25,  0, 33, 31,  0, 40,  0,  0,  0,  0,  0,  0,  0,  0
6, 16162, 4,N0CALL,     0.00, 3,   boost,   58.84,  99694.00,  136.66,   -0.93,    6.31, 21.7, 4.08, 4.09, 4.08, -69.07,  -3.71,  -1.77,  -4.35,   1.81,   0.71,  -0.61,   0.04,   0.02,   2.68, 4.07, 0.00, 0.01, 0.00, 0.00, 1, 1, 15,  40.3869923, -87.5142074,   214.0, 2026,  4, 19, 16, 50, 51,        0,        0,   0,   0,   0.9,   0.5,   0.7,  0,  0, 29,  0,  0, 37,  0,  0,  0,  0, 36, 32,  0, 29,  0,  0, 32,  0, 25,  0, 33, 31,  0, 40,  0,  0,  0,  0,  0,  0,  0,  0
6, 16162, 4,N0CALL,     0.00, 3,   boost,   58.84,  99694.00,  136.66,   -0.93,    6.31, 21.7, 4.08, 4.09, 4.08, -69.07,  -3.71,  -1.77,  -4.35,   1.81,   0.71,  -0.61,   0.04,   0.02,   2.68, 4.07, 0.00, 0.01, 0.00, 0.00, 1, 1, 15,  40.3869923, -87.5142074,   214.0, 2026,  4, 19, 16, 50, 51,        0,        0,   0,   0,   0.9,   0.5,   0.7,  0,  0, 29,  0,  0, 37,  0,  0,  0,  0, 36, 32,  0, 29,  0,  0, 32,  0, 25,  0, 33, 31,  0, 40,  0,  0,  0,  0,  0,  0,  0,  0
6, 16162, 4,N0CALL,     0.00, 3,   boost,   58.84,  99694.00,  136.66,   -0.93,    6.31, 21.7, 4.08, 4.09, 4.08, -69.07,  -3.71,  -1.77,  -4.35,   1.81,   0.71,  -0.61,   0.04,   0.02,   2.67, 4.07, 0.00, 0.01, 0.00, 0.00, 1, 1, 15,  40.3869923, -87.5142074,   214.0, 2026,  4, 19, 16, 50, 51,        0,        0,   0,   0,   0.9,   0.5,   0.7,  0,  0, 29,  0,  0, 37,  0,  0,  0,  0, 36, 32,  0, 29,  0,  0, 32,  0, 25,  0, 33, 31,  0, 40,  0,  0,  0,  0,  0,  0,  0,  0
6, 16162, 4,N0CALL,     0.00, 3,   boost,   58.84,  99694.00,  136.66,   -0.93,    6.31, 21.7, 4.08, 4.09, 4.08, -69.07,  -3.71,  -1.77,  -4.35,   1.81,   0.71,  -0.61,   0.04,   0.02,   2.67, 4.07, 0.00, 0.01, 0.00, 0.00, 1, 1, 15,  40.3869923, -87.5142074,   214.0, 2026,  4, 19, 16, 50, 51,        0,        0,   0,   0,   0.9,   0.5,   0.7,  0,  0, 29,  0,  0, 37,  0,  0,  0,  0, 36, 32,  0, 29,  0,  0, 32,  0, 25,  0, 33, 31,  0, 40,  0,  0,  0,  0,  0,  0,  0,  0
6, 16162, 4,N0CALL,     0.00, 3,   boost,   58.84,  99694.00,  136.66,   -0.93,    6.31, 21.7, 4.08, 4.09, 4.08, -69.07,  -3.71,  -1.77,  -4.35,   1.81,   0.71,  -0.61,   0.04,   0.02,   2.67, 4.07, 0.00, 0.01, 0.00, 0.00, 1, 1, 15,  40.3869923, -87.5142074,   214.0, 2026,  4, 19, 16, 50, 51,        0,        0,   0,   0,   0.9,   0.5,   0.7,  0,  0, 29,  0,  0, 37,  0,  0,  0,  0, 36, 32,  0, 29,  0,  0, 32,  0, 25,  0, 33, 31,  0, 40,  0,  0,  0,  0,  0,  0,  0,  0
6, 16162, 4,N0CALL,     0.00, 3,   boost,   58.84,  99694.00,  136.66,   -0.93,    6.31, 21.7, 4.08, 4.09, 4.08, -69.07,  -3.71,  -1.77,  -4.35,   1.81,   0.71,  -0.61,   0.04,   0.02,   2.67, 4.07, 0.00, 0.01, 0.00, 0.00, 1, 1, 15,  40.3869923, -87.5142074,   214.0, 2026,  4, 19, 16, 50, 51,        0,        0,   0,   0,   0.9,   0.5,   0.7,  0,  0, 29,  0,  0, 37,  0,  0,  0,  0, 36, 32,  0, 29,  0,  0, 32,  0, 25,  0, 33, 31,  0, 40,  0,  0,  0,  0,  0,  0,  0,  0
6, 16162, 4,N0CALL,     0.00, 3,   boost,   58.84,  99694.00,  136.66,   -0.93,    6.31, 21.7, 4.08, 4.09, 4.08, -69.07,  -3.71,  -1.77,  -4.35,   1.81,   0.71,  -0.61,   0.04,   0.02,   2.67, 4.07, 0.00, 0.01, 0.00, 0.00, 1, 1, 15,  40.3869923, -87.5142074,   214.0, 2026,  4, 19, 16, 50, 51,        0,        0,   0,   0,   0.9,   0.5,   0.7,  0,  0, 29,  0,  0, 37,  0,  0,  0,  0, 36, 32,  0, 29,  0,  0, 32,  0, 25,  0, 33, 31,  0, 40,  0,  0,  0,  0,  0,  0,  0,  0
6, 16162, 4,N0CALL,     0.00, 3,   boost,   58.84,  99694.00,  136.66,   -0.93,    6.31, 21.7, 4.08, 4.09, 4.08, -69.07,  -3.71,  -1.77,  -4.35,   1.81,   0.71,  -0.61,   0.04,   0.02,   2.66, 4.07, 0.00, 0.01, 0.00, 0.00, 1, 1, 15,  40.3869923, -87.5142074,   214.0, 2026,  4, 19, 16, 50, 51,        0,        0,   0,   0,   0.9,   0.5,   0.7,  0,  0, 29,  0,  0, 37,  0,  0,  0,  0, 36, 32,  0, 29,  0,  0, 32,  0, 25,  0, 33, 31,  0, 40,  0,  0,  0,  0,  0,  0,  0,  0
6, 16162, 4,N0CALL,     0.00, 3,   boost,   58.84,  99694.00,  136.66,   -0.93,    6.31, 21.7, 4.08, 4.09, 4.08, -69.07,  -3.71,  -1.77,  -4.35,   1.81,   0.71,  -0.61,   0.04,   0.02,   2.67, 4.07, 0.00, 0.01, 0.00, 0.00, 1, 1, 15,  40.3869923, -87.5142074,   214.0, 2026,  4, 19, 16, 50, 51,        0,        0,   0,   0,   0.9,   0.5,   0.7,  0,  0, 29,  0,  0, 37,  0,  0,  0,  0, 36, 32,  0, 29,  0,  0, 32,  0, 25,  0, 33, 31,  0, 40,  0,  0,  0,  0,  0,  0,  0,  0
6, 16162, 4,N0CALL,     0.00, 3,   boost,   58.84,  99694.00,  136.66,   -0.93,    6.31, 21.7, 4.08, 4.09, 4.08, -69.07,  -3.71,  -1.77,  -4.35,   1.81,   0.71,  -0.61,   0.04,   0.02,   2.68, 4.07, 0.00, 0.01, 0.00, 0.00, 1, 1, 15,  40.3869923, -87.5142074,   214.0, 2026,  4, 19, 16, 50, 51,        0,        0,   0,   0,   0.9,   0.5,   0.7,  0,  0, 29,  0,  0, 37,  0,  0,  0,  0, 36, 32,  0, 29,  0,  0, 32,  0, 25,  0, 33, 31,  0, 40,  0,  0,  0,  0,  0,  0,  0,  0
6, 16162, 4,N0CALL,     0.00, 3,   boost,   58.84,  99694.00,  136.66,   -0.93,    6.31, 21.7, 4.08, 4.09, 4.08, -69.07,  -3.71,  -1.77,  -4.35,   1.81,   0.71,  -0.61,   0.04,   0.02,   2.69, 4.07, 0.00, 0.01, 0.00, 0.00, 1, 1, 15,  40.3869923, -87.5142074,   214.0, 2026,  4, 19, 16, 50, 51,        0,        0,   0,   0,   0.9,   0.5,   0.7,  0,  0, 29,  0,  0, 37,  0,  0,  0,  0, 36, 32,  0, 29,  0,  0, 32,  0, 25,  0, 33, 31,  0, 40,  0,  0,  0,  0,  0,  0,  0,  0
6, 16162, 4,N0CALL,     0.00, 3,   boost,   58.84,  99694.00,  136.66,   -0.93,    6.31, 21.7, 4.08, 4.09, 4.08, -69.07,  -3.71,  -1.77,  -4.35,   1.81,   0.71,  -0.61,   0.04,   0.02,   2.68, 4.07, 0.00, 0.01, 0.00, 0.00, 1, 1, 15,  40.3869923, -87.5142074,   214.0, 2026,  4, 19, 16, 50, 51,        0,        0,   0,   0,   0.9,   0.5,   0.7,  0,  0, 29,  0,  0, 37,  0,  0,  0,  0, 36, 32,  0, 29,  0,  0, 32,  0, 25,  0, 33, 31,  0, 40,  0,  0,  0,  0,  0,  0,  0,  0
6, 16162, 4,N0CALL,     0.00, 3,   boost,   58.84,  99694.00,  136.66,   -0.93,    6.31, 21.7, 4.08, 4.09, 4.08, -69.07,  -3.71,  -1.77,  -4.35,   1.81,   0.71,  -0.61,   0.04,   0.02,   2.67, 4.07, 0.00, 0.01, 0.00, 0.00, 1, 1, 15,  40.3869923, -87.5142074,   214.0, 2026,  4, 19, 16, 50, 51,        0,        0,   0,   0,   0.9,   0.5,   0.7,  0,  0, 29,  0,  0, 37,  0,  0,  0,  0, 36, 32,  0, 29,  0,  0, 32,  0, 25,  0, 33, 31,  0, 40,  0,  0,  0,  0,  0,  0,  0,  0
6, 16162, 4,N0CALL,     0.00, 3,   boost,   58.84,  99694.00,  136.66,   -0.93,    6.31, 21.7, 4.08, 4.09, 4.08, -69.07,  -3.71,  -1.77,  -4.35,   1.81,   0.71,  -0.61,   0.04,   0.02,   2.61, 4.07, 0.00, 0.01, 0.00, 0.00, 1, 1, 15,  40.3869923, -87.5142074,   214.0, 2026,  4, 19, 16, 50, 51,        0,        0,   0,   0,   0.9,   0.5,   0.7,  0,  0, 29,  0,  0, 37,  0,  0,  0,  0, 36, 32,  0, 29,  0,  0, 32,  0, 25,  0, 33, 31,  0, 40,  0,  0,  0,  0,  0,  0,  0,  0
6, 16162, 4,N0CALL,     0.00, 3,   boost,   58.84,  99694.00,  136.66,   -0.93,    6.31, 21.7, 4.08, 4.09, 4.08, -69.07,  -3.71,  -1.77,  -4.35,   1.81,   0.71,  -0.61,   0.04,   0.02,   2.52, 4.07, 0.00, 0.01, 0.00, 0.00, 1, 1, 15,  40.3869923, -87.5142074,   214.0, 2026,  4, 19, 16, 50, 51,        0,        0,   0,   0,   0.9,   0.5,   0.7,  0,  0, 29,  0,  0, 37,  0,  0,  0,  0, 36, 32,  0, 29,  0,  0, 32,  0, 25,  0, 33, 31,  0, 40,  0,  0,  0,  0,  0,  0,  0,  0
6, 16162, 4,N0CALL,     0.00, 3,   boost,   58.84,  99694.00,  136.66,   -0.93,    6.31, 21.7, 4.08, 4.09, 4.08, -69.07,  -3.71,  -1.77,  -4.35,   1.81,   0.71,  -0.61,   0.04,   0.02,   2.36, 4.07, 0.00, 0.01, 0.00, 0.00, 1, 1, 15,  40.3869923, -87.5142074,   214.0, 2026,  4, 19, 16, 50, 51,        0,        0,   0,   0,   0.9,   0.5,   0.7,  0,  0, 29,  0,  0, 37,  0,  0,  0,  0, 36, 32,  0, 29,  0,  0, 32,  0, 25,  0, 33, 31,  0, 40,  0,  0,  0,  0,  0,  0,  0,  0
6, 16162, 4,N0CALL,     0.00, 3,   boost,   58.84,  99694.00,  136.66,   -0.93,    6.31, 21.7, 4.08, 4.09, 4.08, -69.07,  -3.71,  -1.77,  -4.35,   1.81,   0.71,  -0.61,   0.04,   0.02,   2.30, 4.07, 0.00, 0.01, 0.00, 0.00, 1, 1, 15,  40.3869923, -87.5142074,   214.0, 2026,  4, 19, 16, 50, 51,        0,        0,   0,   0,   0.9,   0.5,   0.7,  0,  0, 29,  0,  0, 37,  0,  0,  0,  0, 36, 32,  0, 29,  0,  0, 32,  0, 25,  0, 33, 31,  0, 40,  0,  0,  0,  0,  0,  0,  0,  0
6, 16162, 4,N0CALL,     0.00, 3,   boost,   58.84,  99694.00,  136.66,   -0.93,    6.31, 21.7, 4.08, 4.09, 4.08, -69.07,  -3.71,  -1.77,  -4.35,   1.81,   0.71,  -0.61,   0.04,   0.02,   2.29, 4.07, 0.00, 0.01, 0.00, 0.00, 1, 1, 15,  40.3869923, -87.5142074,   214.0, 2026,  4, 19, 16, 50, 51,        0,        0,   0,   0,   0.9,   0.5,   0.7,  0,  0, 29,  0,  0, 37,  0,  0,  0,  0, 36, 32,  0, 29,  0,  0, 32,  0, 25,  0, 33, 31,  0, 40,  0,  0,  0,  0,  0,  0,  0,  0
6, 16162, 4,N0CALL,     0.00, 3,   boost,   58.84,  99694.00,  136.66,   -0.93,    6.31, 21.7, 4.08, 4.09, 4.08, -69.07,  -3.71,  -1.77,  -4.35,   1.81,   0.71,  -0.61,   0.04,   0.02,   2.37, 4.07, 0.00, 0.01, 0.00, 0.00, 1, 1, 15,  40.3869923, -87.5142074,   214.0, 2026,  4, 19, 16, 50, 51,        0,        0,   0,   0,   0.9,   0.5,   0.7,  0,  0, 29,  0,  0, 37,  0,  0,  0,  0, 36, 32,  0, 29,  0,  0, 32,  0, 25,  0, 33, 31,  0, 40,  0,  0,  0,  0,  0,  0,  0,  0
6, 16162, 4,N0CALL,     0.00, 3,   boost,   58.84,  99694.00,  136.66,   -0.93,    6.31, 21.7, 4.08, 4.09, 4.08, -69.07,  -3.71,  -1.77,  -4.35,   1.81,   0.71,  -0.61,   0.04,   0.02,   2.49, 4.07, 0.00, 0.01, 0.00, 0.00, 1, 1, 15,  40.3869923, -87.5142074,   214.0, 2026,  4, 19, 16, 50, 51,        0,        0,   0,   0,   0.9,   0.5,   0.7,  0,  0, 29,  0,  0, 37,  0,  0,  0,  0, 36, 32,  0, 29,  0,  0, 32,  0, 25,  0, 33, 31,  0, 40,  0,  0,  0,  0,  0,  0,  0,  0
6, 16162, 4,N0CALL,     0.00, 3,   boost,   58.84,  99694.00,  136.66,   -0.93,    6.31, 21.7, 4.08, 4.09, 4.08, -69.07,  -3.71,  -1.77,  -4.35,   1.81,   0.71,  -0.61,   0.04,   0.02,   2.55, 4.07, 0.00, 0.01, 0.00, 0.00, 1, 1, 15,  40.3869923, -87.5142074,   214.0, 2026,  4, 19, 16, 50, 51,        0,        0,   0,   0,   0.9,   0.5,   0.7,  0,  0, 29,  0,  0, 37,  0,  0,  0,  0, 36, 32,  0, 29,  0,  0, 32,  0, 25,  0, 33, 31,  0, 40,  0,  0,  0,  0,  0,  0,  0,  0
6, 16162, 4,N0CALL,     0.00, 3,   boost,   58.84,  99694.00,  136.66,   -0.93,    6.31, 21.7, 4.08, 4.09, 4.08, -69.07,  -3.71,  -1.77,  -4.35,   1.81,   0.71,  -0.61,   0.04,   0.02,   2.58, 4.07, 0.00, 0.01, 0.00, 0.00, 1, 1, 15,  40.3869923, -87.5142074,   214.0, 2026,  4, 19, 16, 50, 51,        0,        0,   0,   0,   0.9,   0.5,   0.7,  0,  0, 29,  0,  0, 37,  0,  0,  0,  0, 36, 32,  0, 29,  0,  0, 32,  0, 25,  0, 33, 31,  0, 40,  0,  0,  0,  0,  0,  0,  0,  0
6, 16162, 4,N0CALL,     0.00, 3,   boost,   58.84,  99694.00,  136.66,   -0.93,    6.31, 21.7, 4.08, 4.09, 4.08, -69.07,  -3.71,  -1.77,  -4.35,   1.81,   0.71,  -0.61,   0.04,   0.02,   2.58, 4.07, 0.00, 0.01, 0.00, 0.00, 1, 1, 15,  40.3869923, -87.5142074,   214.0, 2026,  4, 19, 16, 50, 51,        0,        0,   0,   0,   0.9,   0.5,   0.7,  0,  0, 29,  0,  0, 37,  0,  0,  0,  0, 36, 32,  0, 29,  0,  0, 32,  0, 25,  0, 33, 31,  0, 40,  0,  0,  0,  0,  0,  0,  0,  0
6, 16162, 4,N0CALL,     0.01, 3,   boost,   60.80,  99683.00,  137.59,    0.00,    6.90, 21.7, 4.08, 4.09, 4.08, -69.53,  -2.13,   0.31,  13.72,  -2.77,   1.69,  -0.61,   0.04,   0.02,   2.61, 4.07, 0.00, 0.01, 0.00, 0.00, 1, 1, 15,  40.3869923, -87.5142074,   214.0, 2026,  4, 19, 16, 50, 51,        0,        0,   0,   0,   0.9,   0.5,   0.7,  0,  0, 29,  0,  0, 37,  0,  0,  0,  0, 36, 32,  0, 29,  0,  0, 32,  0, 25,  0, 33, 31,  0, 40,  0,  0,  0,  0,  0,  0,  0,  0
6, 16162, 4,N0CALL,     0.01, 3,   boost,   60.80,  99683.00,  137.59,    0.00,    6.90, 21.7, 4.08, 4.09, 4.08, -69.53,  -2.13,   0.31,  13.72,  -2.77,   1.69,  -0.61,   0.04,   0.02,   2.61, 4.07, 0.00, 0.01, 0.00, 0.00, 1, 1, 15,  40.3869923, -87.5142074,   214.0, 2026,  4, 19, 16, 50, 51,        0,        0,   0,   0,   0.9,   0.5,   0.7,  0,  0, 29,  0,  0, 37,  0,  0,  0,  0, 36, 32,  0, 29,  0,  0, 32,  0, 25,  0, 33, 31,  0, 40,  0,  0,  0,  0,  0,  0,  0,  0
6, 16162, 4,N0CALL,     0.02, 3,   boost,   59.33,  99683.00,  137.59,    0.00,    7.50, 21.7, 4.07, 4.09, 4.07, -69.19,  -1.85,   1.82,  21.41,  -0.09,   0.59,  -0.61,   0.05,   0.02,   2.61, 4.08, 0.00, 0.01, 0.01, 0.00, 1, 1, 15,  40.3869923, -87.5142074,   214.0, 2026,  4, 19, 16, 50, 51,        0,        0,   0,   0,   0.9,   0.5,   0.7,  0,  0, 29,  0,  0, 37,  0,  0,  0,  0, 36, 32,  0, 29,  0,  0, 32,  0, 25,  0, 33, 31,  0, 40,  0,  0,  0,  0,  0,  0,  0,  0
6, 16162, 4,N0CALL,     0.02, 3,   boost,   59.33,  99683.00,  137.59,    0.00,    7.50, 21.7, 4.07, 4.09, 4.07, -69.19,  -1.85,   1.82,  21.41,  -0.09,   0.59,  -0.61,   0.05,   0.02,   2.61, 4.08, 0.00, 0.01, 0.01, 0.00, 1, 1, 15,  40.3869923, -87.5142074,   214.0, 2026,  4, 19, 16, 50, 51,        0,        0,   0,   0,   0.9,   0.5,   0.7,  0,  0, 29,  0,  0, 37,  0,  0,  0,  0, 36, 32,  0, 29,  0,  0, 32,  0, 25,  0, 33, 31,  0, 40,  0,  0,  0,  0,  0,  0,  0,  0
6, 16162, 4,N0CALL,     0.03, 3,   boost,   62.27,  99671.00,  138.60,    1.01,    8.09, 21.7, 4.07, 4.09, 4.07, -69.16,   0.18,  -2.13,  23.18,  -8.69,  -1.67,  -0.61,   0.05,   0.01,   2.66, 4.08, 0.00, 0.01, 0.01, 0.00, 1, 1, 15,  40.3869923, -87.5142074,   214.0, 2026,  4, 19, 16, 50, 51,        0,        0,   0,   0,   0.9,   0.5,   0.7,  0,  0, 29,  0,  0, 37,  0,  0,  0,  0, 36, 32,  0, 29,  0,  0, 32,  0, 25,  0, 33, 31,  0, 40,  0,  0,  0,  0,  0,  0,  0,  0
6, 16162, 4,N0CALL,     0.04, 3,   boost,   54.43,  99671.00,  138.60,    1.01,    8.68, 21.7, 4.07, 4.09, 4.07, -70.74,  -2.56,   6.31,  12.19,  -6.50,  -2.22,  -0.61,   0.04,   0.01,   2.70, 4.08, 0.00, 0.01, 0.01, 0.00, 1, 1, 15,  40.3869923, -87.5142074,   214.0, 2026,  4, 19, 16, 50, 51,        0,        0,   0,   0,   0.9,   0.5,   0.7,  0,  0, 29,  0,  0, 37,  0,  0,  0,  0, 36, 32,  0, 29,  0,  0, 32,  0, 25,  0, 33, 31,  0, 40,  0,  0,  0,  0,  0,  0,  0,  0
6, 16162, 4,N0CALL,     0.05, 3,   boost,   57.86,  99661.00,  139.45,    1.86,    9.26, 21.7, 4.07, 4.09, 4.07, -64.54,  -3.18,  -2.90,   4.87,  -7.53,  -0.81,  -0.61,   0.04,   0.01,   2.75, 4.08, 0.00, 0.01, 0.01, 0.00, 1, 1, 15,  40.3869923, -87.5142074,   214.0, 2026,  4, 19, 16, 50, 51,        0,        0,   0,   0,   0.9,   0.5,   0.7,  0,  0, 29,  0,  0, 37,  0,  0,  0,  0, 36, 32,  0, 29,  0,  0, 32,  0, 25,  0, 33, 31,  0, 40,  0,  0,  0,  0,  0,  0,  0,  0
6, 16162, 4,N0CALL,     0.06, 3,   boost,   57.37,  99661.00,  139.45,    1.86,    9.83, 21.7, 4.07, 4.09, 4.07, -70.08,  -3.24,   7.61,  -1.54, -10.22,   0.96,  -0.61,   0.05,   0.01,   2.84, 4.08, 0.00, 0.01, 0.01, 0.00, 1, 1, 15,  40.3869923, -87.5142074,   214.0, 2026,  4, 19, 16, 50, 51,        0,        0,   0,   0,   0.9,   0.5,   0.7,  0,  0, 29,  0,  0, 37,  0,  0,  0,  0, 36, 32,  0, 29,  0,  0, 32,  0, 25,  0, 33, 31,  0, 40,  0,  0,  0,  0,  0,  0,  0,  0
6, 16162, 4,N0CALL,     0.07, 3,   boost,   57.86,  99668.00,  138.85,    1.27,   10.41, 21.7, 4.07, 4.09, 4.07, -66.11,   0.47,  -5.75,  -3.13,  -9.61,   0.83,  -0.61,   0.05,   0.01,   2.92, 4.08, 0.00, 0.01, 0.01, 0.00, 1, 1, 15,  40.3869923, -87.5142074,   214.0, 2026,  4, 19, 16, 50, 51,        0,        0,   0,   0,   0.9,   0.5,   0.7,  0,  0, 29,  0,  0, 37,  0,  0,  0,  0, 36, 32,  0, 29,  0,  0, 32,  0, 25,  0, 33, 31,  0, 40,  0,  0,  0,  0,  0,  0,  0,  0
6, 16162, 4,N0CALL,     0.08, 3,   boost,   57.86,  99668.00,  138.85,    1.27,   10.99, 21.7, 4.07, 4.09, 4.07, -68.17,  -2.16,  12.27,  -9.29, -11.99,   0.41,  -0.61,   0.04,   0.01,   3.02, 4.08, 0.00, 0.01, 0.01, 0.00, 1, 1, 15,  40.3869923, -87.5142074,   214.0, 2026,  4, 19, 16, 50, 51,        0,        0,   0,   0,   0.9,   0.5,   0.7,  0,  0, 29,  0,  0, 37,  0,  0,  0,  0, 36, 32,  0, 29,  0,  0, 32,  0, 25,  0, 33, 31,  0, 40,  0,  0,  0,  0,  0,  0,  0,  0
6, 16162, 4,N0CALL,     0.09, 3,   boost,   59.82,  99663.00,  139.28,    1.69,   11.58, 21.7, 4.07, 4.09, 4.07, -66.63,  -1.13,  -8.61,   5.66,  -8.94,   0.53,  -0.61,   0.04,   0.01,   3.09, 4.08, 0.00, 0.01, 0.01, 0.00, 1, 1, 15,  40.3869923, -87.5142074,   214.0, 2026,  4, 19, 16, 50, 51,        0,        0,   0,   0,   0.9,   0.5,   0.7,  0,  0, 29,  0,  0, 37,  0,  0,  0,  0, 36, 32,  0, 29,  0,  0, 32,  0, 25,  0, 33, 31,  0, 40,  0,  0,  0,  0,  0,  0,  0,  0
6, 16162, 4,N0CALL,     0.10, 3,   boost,   58.35,  99663.00,  139.28,    1.69,   12.17, 21.7, 4.07, 4.09, 4.07, -68.40,  -2.61,   8.18,   6.27,  -5.46,   1.38,  -0.61,   0.04,   0.01,   3.15, 4.08, 0.00, 0.01, 0.01, 0.00, 1, 1, 15,  40.3869923, -87.5142074,   214.0, 2026,  4, 19, 16, 50, 51,        0,        0,   0,   0,   0.9,   0.5,   0.7,  0,  0, 29,  0,  0, 37,  0,  0,  0,  0, 36, 32,  0, 29,  0,  0, 32,  0, 25,  0, 33, 31,  0, 40,  0,  0,  0,  0,  0,  0,  0,  0
6, 16162, 4,N0CALL,     0.11, 3,   boost,   59.82,  99668.00,  138.85,    1.27,   12.76, 21.7, 4.07, 4.09, 4.07, -68.84,  -0.06,  -6.16,   6.27,  -7.66,   1.51,  -0.61,   0.04,   0.01,   3.22, 4.08, 0.00, 0.01, 0.01, 0.00, 1, 1, 15,  40.3869923, -87.5142074,   214.0, 2026,  4, 19, 16, 50, 51,        0,        0,   0,   0,   0.9,   0.5,   0.7,  0,  0, 29,  0,  0, 37,  0,  0,  0,  0, 36, 32,  0, 29,  0,  0, 32,  0, 25,  0, 33, 31,  0, 40,  0,  0,  0,  0,  0,  0,  0,  0
6, 16162, 4,N0CALL,     0.12, 3,   boost,   60.31,  99668.00,  138.85,    1.27,   13.36, 21.7, 4.07, 4.09, 4.07, -70.35,  -2.04,   5.71,  16.77,  -9.67,   0.96,  -0.61,   0.04,   0.01,   3.30, 4.08, 0.00, 0.01, 0.01, 0.00, 1, 1, 15,  40.3869923, -87.5142074,   214.0, 2026,  4, 19, 16, 50, 51,        0,        0,   0,   0,   0.9,   0.5,   0.7,  0,  0, 29,  0,  0, 37,  0,  0,  0,  0, 36, 32,  0, 29,  0,  0, 32,  0, 25,  0, 33, 31,  0, 40,  0,  0,  0,  0,  0,  0,  0,  0
6, 16162, 4,N0CALL,     0.13, 3,   boost,   61.78,  99671.00,  138.60,    1.01,   13.96, 21.7, 4.07, 4.09, 4.07, -69.88,  -0.40,  -1.65,  22.87,  -9.18,   0.77,  -0.61,   0.05,   0.01,   3.39, 4.08, 0.00, 0.01, 0.01, 0.00, 1, 1, 15,  40.3869923, -87.5142074,   214.0, 2026,  4, 19, 16, 50, 51,        0,        0,   0,   0,   0.9,   0.5,   0.7,  0,  0, 29,  0,  0, 37,  0,  0,  0,  0, 36, 32,  0, 29,  0,  0, 32,  0, 25,  0, 33, 31,  0, 40,  0,  0,  0,  0,  0,  0,  0,  0
6, 16162, 4,N0CALL,     0.14, 3,   boost,   59.82,  99671.00,  138.60,    1.01,   14.57, 21.7, 4.07, 4.09, 4.07, -71.14,  -2.15,   1.68,  20.43, -11.62,   1.51,  -0.61,   0.05,   0.01,   3.49, 4.08, 0.00, 0.01, 0.01, 0.00, 1, 1, 15,  40.3869923, -87.5142074,   214.0, 2026,  4, 19, 16, 50, 51,        0,        0,   0,   0,   0.9,   0.5,   0.7,  0,  0, 29,  0,  0, 37,  0,  0,  0,  0, 36, 32,  0, 29,  0,  0, 32,  0, 25,  0, 33, 31,  0, 40,  0,  0,  0,  0,  0,  0,  0,  0
6, 16162, 4,N0CALL,     0.15, 3,   boost,   63.74,  99659.00,  139.61,    2.02,   15.18, 21.7, 4.07, 4.09, 4.07, -70.81,  -2.21,  -3.39,  13.96, -10.10,   2.85,  -0.61,   0.05,   0.00,   3.60, 4.08, 0.00, 0.01, 0.01, 0.00, 1, 1, 15,  40.3869923, -87.5142074,   214.0, 2026,  4, 19, 16, 50, 51,        0,        0,   0,   0,   0.9,   0.5,   0.7,  0,  0, 29,  0,  0, 37,  0,  0,  0,  0, 36, 32,  0, 29,  0,  0, 32,  0, 25,  0, 33, 31,  0, 40,  0,  0,  0,  0,  0,  0,  0,  0
6, 16162, 4,N0CALL,     0.16, 3,   boost,   58.84,  99659.00,  139.61,    2.02,   15.79, 21.7, 4.07, 4.09, 4.07, -71.53,  -3.88,   9.68, -17.11, -11.01,   4.74,  -0.61,   0.05,   0.00,   3.71, 4.08, 0.00, 0.01, 0.01, 0.00, 1, 1, 15,  40.3869923, -87.5142074,   214.0, 2026,  4, 19, 16, 50, 51,        0,        0,   0,   0,   0.9,   0.5,   0.7,  0,  0, 29,  0,  0, 37,  0,  0,  0,  0, 36, 32,  0, 29,  0,  0, 32,  0, 25,  0, 33, 31,  0, 40,  0,  0,  0,  0,  0,  0,  0,  0
6, 16162, 4,N0CALL,     0.17, 3,   boost,   60.31,  99659.00,  139.61,    2.02,   16.40, 21.7, 4.07, 4.09, 4.07, -73.40,  -3.53,  10.51, -19.85,  -8.33,   5.53,  -0.61,   0.05,   0.00,   3.81, 4.08, 0.00, 0.01, 0.01, 0.00, 1, 1, 15,  40.3869923, -87.5142074,   214.0, 2026,  4, 19, 16, 50, 51,        0,        0,   0,   0,   0.9,   0.5,   0.7,  0,  0, 29,  0,  0, 37,  0,  0,  0,  0, 36, 32,  0, 29,  0,  0, 32,  0, 25,  0, 33, 31,  0, 40,  0,  0,  0,  0,  0,  0,  0,  0
6, 16162, 4,N0CALL,     0.18, 3,   boost,   62.27,  99659.00,  139.61,    2.02,   17.02, 21.7, 4.07, 4.09, 4.07, -71.78,   0.67, -12.55,  13.35,  -8.45,   2.05,  -0.61,   0.05,   0.00,   3.90, 4.08, 0.00, 0.01, 0.01, 0.00, 1, 1, 15,  40.3869923, -87.5142074,   214.0, 2026,  4, 19, 16, 50, 51,        0,        0,   0,   0,   0.9,   0.5,   0.7,  0,  0, 29,  0,  0, 37,  0,  0,  0,  0, 36, 32,  0, 29,  0,  0, 32,  0, 25,  0, 33, 31,  0, 40,  0,  0,  0,  0,  0,  0,  0,  0
6, 16162, 4,N0CALL,     0.19, 3,   boost,   63.74,  99656.00,  139.87,    2.28,   17.64, 21.7, 4.07, 4.09, 4.07, -69.57,   1.21, -11.14,   2.91,  -6.31,  -0.33,  -0.61,   0.05,   0.00,   3.95, 4.08, 0.00, 0.01, 0.01, 0.00, 1, 1, 15,  40.3869923, -87.5142074,   214.0, 2026,  4, 19, 16, 50, 51,        0,        0,   0,   0,   0.9,   0.5,   0.7,  0,  0, 29,  0,  0, 37,  0,  0,  0,  0, 36, 32,  0, 29,  0,  0, 32,  0, 25,  0, 33, 31,  0, 40,  0,  0,  0,  0,  0,  0,  0,  0
6, 16162, 4,N0CALL,     0.20, 3,   boost,   64.72,  99656.00,  139.87,    2.28,   18.26, 21.7, 4.07, 4.09, 4.07, -71.61,  -4.10,   2.99, -14.66,  -5.27,   3.76,  -0.61,   0.05,   0.00,   4.01, 4.08, 0.00, 0.01, 0.01, 0.00, 1, 1, 15,  40.3869923, -87.5142074,   214.0, 2026,  4, 19, 16, 50, 51,        0,        0,   0,   0,   0.9,   0.5,   0.7,  0,  0, 29,  0,  0, 37,  0,  0,  0,  0, 36, 32,  0, 29,  0,  0, 32,  0, 25,  0, 33, 31,  0, 40,  0,  0,  0,  0,  0,  0,  0,  0
6, 16162, 4,N0CALL,     0.21, 3,   boost,   60.80,  99661.00,  139.45,    1.86,   18.89, 21.7, 4.07, 4.09, 4.07, -70.93,  -4.32,  -0.46, -19.42,  -2.96,   5.35,  -0.61,   0.05,   0.00,   4.07, 4.08, 0.00, 0.01, 0.01, 0.00, 1, 1, 15,  40.3869923, -87.5142074,   214.0, 2026,  4, 19, 16, 50, 51,        0,        0,   0,   0,   0.9,   0.5,   0.7,  0,  0, 29,  0,  0, 37,  0,  0,  0,  0, 36, 32,  0, 29,  0,  0, 32,  0, 25,  0, 33, 31,  0, 40,  0,  0,  0,  0,  0,  0,  0,  0
6, 16162, 4,N0CALL,     0.22, 3,   boost,   63.74,  99661.00,  139.45,    1.86,   19.53, 21.7, 4.07, 4.09, 4.07, -72.20,  -1.27,   0.04, -23.27,  -7.11,   5.84,  -0.61,   0.05,   0.00,   4.16, 4.08, 0.00, 0.01, 0.01, 0.00, 1, 1, 15,  40.3869923, -87.5142074,   214.0, 2026,  4, 19, 16, 50, 51,        0,        0,   0,   0,   0.9,   0.5,   0.7,  0,  0, 29,  0,  0, 37,  0,  0,  0,  0, 36, 32,  0, 29,  0,  0, 32,  0, 25,  0, 33, 31,  0, 40,  0,  0,  0,  0,  0,  0,  0,  0
6, 16162, 4,N0CALL,     0.23, 3,   boost,   64.72,  99650.00,  140.37,    2.78,   20.17, 21.7, 4.07, 4.09, 4.07, -72.32,  -1.83,  -3.17, -16.98,  -9.79,   5.59,  -0.61,   0.05,   0.00,   4.27, 4.08, 0.00, 0.01, 0.01, 0.00, 1, 1, 15,  40.3869923, -87.5142074,   214.0, 2026,  4, 19, 16, 50, 51,        0,        0,   0,   0,   0.9,   0.5,   0.7,  0,  0, 29,  0,  0, 37,  0,  0,  0,  0, 36, 32,  0, 29,  0,  0, 32,  0, 25,  0, 33, 31,  0, 40,  0,  0,  0,  0,  0,  0,  0,  0
6, 16162, 4,N0CALL,     0.24, 3,   boost,   67.18,  99650.00,  140.37,    2.78,   20.81, 21.7, 4.07, 4.09, 4.07, -73.73,  -2.65,  -8.56,   3.83, -10.52,   4.07,  -0.60,   0.05,  -0.00,   4.38, 4.08, 0.00, 0.01, 0.01, 0.00, 1, 1, 15,  40.3869923, -87.5142074,   214.0, 2026,  4, 19, 16, 50, 51,        0,        0,   0,   0,   0.9,   0.5,   0.7,  0,  0, 29,  0,  0, 37,  0,  0,  0,  0, 36, 32,  0, 29,  0,  0, 32,  0, 25,  0, 33, 31,  0, 40,  0,  0,  0,  0,  0,  0,  0,  0
6, 16162, 4,N0CALL,     0.25, 3,   boost,   64.72,  99643.00,  140.96,    3.37,   21.46, 21.7, 4.07, 4.09, 4.07, -75.44,  -0.59,   3.87,   2.06, -10.22,   4.56,  -0.60,   0.05,  -0.00,   4.49, 4.08, 0.00, 0.01, 0.01, 0.00, 1, 1, 15,  40.3869923, -87.5142074,   214.0, 2026,  4, 19, 16, 50, 51,        0,        0,   0,   0,   0.9,   0.5,   0.7,  0,  0, 29,  0,  0, 37,  0,  0,  0,  0, 36, 32,  0, 29,  0,  0, 32,  0, 25,  0, 33, 31,  0, 40,  0,  0,  0,  0,  0,  0,  0,  0
6, 16162, 4,N0CALL,     0.26, 3,   boost,   64.23,  99643.00,  140.96,    3.37,   22.11, 21.7, 4.07, 4.09, 4.07, -75.49,  -4.50,   2.24,   3.83,  -8.20,   6.02,  -0.60,   0.05,  -0.00,   4.59, 4.08, 0.00, 0.01, 0.01, 0.00, 1, 1, 15,  40.3869923, -87.5142074,   214.0, 2026,  4, 19, 16, 50, 51,        0,        0,   0,   0,   0.9,   0.5,   0.7,  0,  0, 29,  0,  0, 37,  0,  0,  0,  0, 36, 32,  0, 29,  0,  0, 32,  0, 25,  0, 33, 31,  0, 40,  0,  0,  0,  0,  0,  0,  0,  0
6, 16162, 4,N0CALL,     0.27, 3,   boost,   63.74,  99640.00,  141.22,    3.63,   22.75, 21.7, 4.07, 4.09, 4.07, -75.11,  -1.84,   2.46,   4.32,  -4.60,   7.61,  -0.61,   0.05,  -0.00,   4.67, 4.08, 0.00, 0.01, 0.01, 0.00, 1, 1, 15,  40.3869923, -87.5142074,   214.0, 2026,  4, 19, 16, 50, 51,        0,        0,   0,   0,   0.9,   0.5,   0.7,  0,  0, 29,  0,  0, 37,  0,  0,  0,  0, 36, 32,  0, 29,  0,  0, 32,  0, 25,  0, 33, 31,  0, 40,  0,  0,  0,  0,  0,  0,  0,  0
6, 16162, 4,N0CALL,     0.28, 3,   boost,   65.21,  99640.00,  141.22,    3.63,   23.40, 21.7, 4.07, 4.09, 4.07, -74.29,  -1.67,  -4.66,   4.75,  -5.34,   8.34,  -0.61,   0.05,  -0.00,   4.76, 4.08, 0.00, 0.01, 0.01, 0.00, 1, 1, 15,  40.3869923, -87.5142074,   214.0, 2026,  4, 19, 16, 50, 51,        0,        0,   0,   0,   0.9,   0.5,   0.7,  0,  0, 29,  0,  0, 37,  0,  0,  0,  0, 36, 32,  0, 29,  0,  0, 32,  0, 25,  0, 33, 31,  0, 40,  0,  0,  0,  0,  0,  0,  0,  0
6, 16162, 4,N0CALL,     0.29, 3,   boost,   65.70,  99628.00,  142.23,    4.64,   24.04, 21.7, 4.07, 4.09, 4.07, -74.81,  -3.02,   1.08,   3.46,  -7.29,   7.67,  -0.60,   0.05,  -0.00,   4.86, 4.08, 0.00, 0.01, 0.01, 0.00, 1, 1, 15,  40.3869923, -87.5142074,   214.0, 2026,  4, 19, 16, 50, 51,        0,        0,   0,   0,   0.9,   0.5,   0.7,  0,  0, 29,  0,  0, 37,  0,  0,  0,  0, 36, 32,  0, 29,  0,  0, 32,  0, 25,  0, 33, 31,  0, 40,  0,  0,  0,  0,  0,  0,  0,  0
6, 16162, 4,N0CALL,     0.30, 3,   boost,   64.23,  99628.00,  142.23,    4.64,   24.68, 21.7, 4.07, 4.09, 4.07, -74.01,  -2.01,  -1.13,   3.16,  -6.62,   8.89,  -0.60,   0.06,  -0.01,   4.97, 4.08, 0.00, 0.01, 0.01, 0.00, 1, 1, 15,  40.3869923, -87.5142074,   214.0, 2026,  4, 19, 16, 50, 51,        0,        0,   0,   0,   0.9,   0.5,   0.7,  0,  0, 29,  0,  0, 37,  0,  0,  0,  0, 36, 32,  0, 29,  0,  0, 32,  0, 25,  0, 33, 31,  0, 40,  0,  0,  0,  0,  0,  0,  0,  0
6, 16162, 4,N0CALL,     0.31, 3,   boost,   63.25,  99627.00,  142.31,    4.72,   25.32, 21.7, 4.07, 4.09, 4.07, -74.53,  -3.01,   1.67,   4.07,  -4.42,  10.29,  -0.61,   0.05,  -0.00,   5.06, 4.08, 0.00, 0.01, 0.01, 0.00, 1, 1, 15,  40.3869923, -87.5142074,   214.0, 2026,  4, 19, 16, 50, 51,        0,        0,   0,   0,   0.9,   0.5,   0.7,  0,  0, 29,  0,  0, 37,  0,  0,  0,  0, 36, 32,  0, 29,  0,  0, 32,  0, 25,  0, 33, 31,  0, 40,  0,  0,  0,  0,  0,  0,  0,  0
6, 16162, 4,N0CALL,     0.32, 3,   boost,   63.74,  99627.00,  142.31,    4.72,   25.96, 21.7, 4.07, 4.09, 4.07, -74.44,  -0.31,  -4.15,   4.75,  -4.05,  11.09,  -0.61,   0.05,  -0.00,   5.15, 4.08, 0.00, 0.01, 0.01, 0.00, 1, 1, 15,  40.3869923, -87.5142074,   214.0, 2026,  4, 19, 16, 50, 51,        0,        0,   0,   0,   0.9,   0.5,   0.7,  0,  0, 29,  0,  0, 37,  0,  0,  0,  0, 36, 32,  0, 29,  0,  0, 32,  0, 25,  0, 33, 31,  0, 40,  0,  0,  0,  0,  0,  0,  0,  0
6, 16162, 4,N0CALL,     0.33, 3,   boost,   65.21,  99617.00,  143.16,    5.57,   26.60, 21.7, 4.07, 4.09, 4.07, -74.84,  -2.05,  -1.40,   4.56,  -5.03,  10.60,  -0.61,   0.05,  -0.00,   5.26, 4.08, 0.00, 0.01, 0.01, 0.00, 1, 1, 15,  40.3869923, -87.5142074,   214.0, 2026,  4, 19, 16, 50, 51,        0,        0,   0,   0,   0.9,   0.5,   0.7,  0,  0, 29,  0,  0, 37,  0,  0,  0,  0, 36, 32,  0, 29,  0,  0, 32,  0, 25,  0, 33, 31,  0, 40,  0,  0,  0,  0,  0,  0,  0,  0
6, 16162, 4,N0CALL,     0.34, 3,   boost,   64.23,  99617.00,  143.16,    5.57,   27.25, 21.7, 4.08, 4.11, 4.07, -74.88,  -2.20,  -0.52,   4.32,  -5.34,  11.21,  -0.61,   0.05,  -0.01,   5.36, 4.08, 0.00, 0.00, 0.00, 0.65, 1, 1, 15,  40.3869923, -87.5142074,   214.0, 2026,  4, 19, 16, 50, 51,        0,        0,   0,   0,   0.9,   0.5,   0.7,  0,  0, 29,  0,  0, 37,  0,  0,  0,  0, 36, 32,  0, 29,  0,  0, 32,  0, 25,  0, 33, 31,  0, 40,  0,  0,  0,  0,  0,  0,  0,  0
6, 16162, 4,N0CALL,     0.34, 3,   boost,   64.23,  99617.00,  143.16,    5.57,   27.25, 21.7, 4.08, 4.11, 4.07, -74.88,  -2.20,  -0.52,   4.32,  -5.34,  11.21,  -0.61,   0.05,  -0.01,   5.36, 4.08, 0.00, 0.00, 0.00, 0.65, 1, 1, 15,  40.3869923, -87.5142074,   214.0, 2026,  4, 19, 16, 50, 51,        0,        0,   0,   0,   0.9,   0.5,   0.7,  0,  0, 29,  0,  0, 37,  0,  0,  0,  0, 36, 32,  0, 29,  0,  0, 32,  0, 25,  0, 33, 31,  0, 40,  0,  0,  0,  0,  0,  0,  0,  0
6, 16162, 4,N0CALL,     0.35, 3,   boost,   65.21,  99605.00,  144.17,    6.58,   27.89, 21.7, 4.08, 4.11, 4.07, -75.13,  -2.70,   0.09,   4.50,  -4.18,  12.43,  -0.60,   0.06,  -0.01,   5.47, 4.08, 0.00, 0.00, 0.00, 0.65, 1, 1, 15,  40.3869923, -87.5142074,   214.0, 2026,  4, 19, 16, 50, 51,        0,        0,   0,   0,   0.9,   0.5,   0.7,  0,  0, 29,  0,  0, 37,  0,  0,  0,  0, 36, 32,  0, 29,  0,  0, 32,  0, 25,  0, 33, 31,  0, 40,  0,  0,  0,  0,  0,  0,  0,  0
6, 16162, 4,N0CALL,     0.36, 3,   boost,   65.70,  99605.00,  144.17,    6.58,   28.54, 21.7, 4.08, 4.11, 4.07, -75.36,  -1.28,  -1.77,   4.44,  -3.08,  13.47,  -0.60,   0.06,  -0.01,   5.57, 4.08, 0.00, 0.00, 0.00, 0.65, 1, 1, 15,  40.3869923, -87.5142074,   214.0, 2026,  4, 19, 16, 50, 51,        0,        0,   0,   0,   0.9,   0.5,   0.7,  0,  0, 29,  0,  0, 37,  0,  0,  0,  0, 36, 32,  0, 29,  0,  0, 32,  0, 25,  0, 33, 31,  0, 40,  0,  0,  0,  0,  0,  0,  0,  0
6, 16162, 4,N0CALL,     0.37, 3,   boost,   65.21,  99612.00,  143.58,    5.99,   29.19, 21.7, 4.08, 4.11, 4.07, -75.28,  -1.54,  -2.20,   4.13,  -4.30,  13.59,  -0.60,   0.06,  -0.01,   5.69, 4.08, 0.00, 0.00, 0.00, 0.65, 1, 1, 15,  40.3869923, -87.5142074,   214.0, 2026,  4, 19, 16, 50, 51,        0,        0,   0,   0,   0.9,   0.5,   0.7,  0,  0, 29,  0,  0, 37,  0,  0,  0,  0, 36, 32,  0, 29,  0,  0, 32,  0, 25,  0, 33, 31,  0, 40,  0,  0,  0,  0,  0,  0,  0,  0
6, 16162, 4,N0CALL,     0.38, 3,   boost,   65.70,  99612.00,  143.58,    5.99,   29.84, 21.7, 4.08, 4.11, 4.07, -75.28,  -2.21,  -0.32,   3.71,  -3.69,  14.26,  -0.60,   0.06,  -0.01,   5.81, 4.08, 0.00, 0.00, 0.00, 0.65, 1, 1, 15,  40.3869923, -87.5142074,   214.0, 2026,  4, 19, 16, 50, 51,        0,        0,   0,   0,   0.9,   0.5,   0.7,  0,  0, 29,  0,  0, 37,  0,  0,  0,  0, 36, 32,  0, 29,  0,  0, 32,  0, 25,  0, 33, 31,  0, 40,  0,  0,  0,  0,  0,  0,  0,  0
6, 16162, 4,N0CALL,     0.39, 3,   boost,   66.19,  99600.00,  144.59,    7.00,   30.50, 21.7, 4.08, 4.11, 4.07, -75.77,  -2.23,  -0.93,   3.77,  -3.81,  15.36,  -0.60,   0.06,  -0.01,   5.93, 4.08, 0.00, 0.00, 0.00, 0.65, 1, 1, 15,  40.3869923, -87.5142074,   214.0, 2026,  4, 19, 16, 50, 51,        0,        0,   0,   0,   0.9,   0.5,   0.7,  0,  0, 29,  0,  0, 37,  0,  0,  0,  0, 36, 32,  0, 29,  0,  0, 32,  0, 25,  0, 33, 31,  0, 40,  0,  0,  0,  0,  0,  0,  0,  0
6, 16162, 4,N0CALL,     0.40, 3,   boost,   66.69,  99600.00,  144.59,    7.00,   31.15, 21.7, 4.08, 4.11, 4.07, -75.82,  -1.62,  -1.10,   3.10,  -2.96,  16.21,  -0.60,   0.07,  -0.01,   6.06, 4.08, 0.00, 0.00, 0.00, 0.65, 1, 1, 15,  40.3869923, -87.5142074,   214.0, 2026,  4, 19, 16, 50, 51,        0,        0,   0,   0,   0.9,   0.5,   0.7,  0,  0, 29,  0,  0, 37,  0,  0,  0,  0, 36, 32,  0, 29,  0,  0, 32,  0, 25,  0, 33, 31,  0, 40,  0,  0,  0,  0,  0,  0,  0,  0
6, 16162, 4,N0CALL,     0.41, 3,   boost,   65.70,  99599.00,  144.68,    7.09,   31.81, 21.7, 4.08, 4.11, 4.07, -75.91,  -1.49,  -2.28,   2.24,  -3.44,  16.28,  -0.60,   0.07,  -0.01,   6.19, 4.08, 0.00, 0.00, 0.00, 0.65, 1, 1, 15,  40.3869923, -87.5142074,   214.0, 2026,  4, 19, 16, 50, 51,        0,        0,   0,   0,   0.9,   0.5,   0.7,  0,  0, 29,  0,  0, 37,  0,  0,  0,  0, 36, 32,  0, 29,  0,  0, 32,  0, 25,  0, 33, 31,  0, 40,  0,  0,  0,  0,  0,  0,  0,  0
6, 16162, 4,N0CALL,     0.42, 3,   boost,   66.19,  99599.00,  144.68,    7.09,   32.46, 21.7, 4.08, 4.11, 4.07, -76.33,  -2.28,  -0.24,   1.69,  -3.63,  16.89,  -0.60,   0.07,  -0.01,   6.33, 4.08, 0.00, 0.00, 0.00, 0.65, 1, 1, 15,  40.3869923, -87.5142074,   214.0, 2026,  4, 19, 16, 50, 51,        0,        0,   0,   0,   0.9,   0.5,   0.7,  0,  0, 29,  0,  0, 37,  0,  0,  0,  0, 36, 32,  0, 29,  0,  0, 32,  0, 25,  0, 33, 31,  0, 40,  0,  0,  0,  0,  0,  0,  0,  0
6, 16162, 4,N0CALL,     0.43, 3,   boost,   65.70,  99587.00,  145.69,    8.10,   33.12, 21.7, 4.08, 4.11, 4.07, -76.09,  -1.95,  -1.19,   1.39,  -3.26,  17.50,  -0.60,   0.07,  -0.01,   6.47, 4.08, 0.00, 0.00, 0.00, 0.65, 1, 1, 15,  40.3869923, -87.5142074,   214.0, 2026,  4, 19, 16, 50, 51,        0,        0,   0,   0,   0.9,   0.5,   0.7,  0,  0, 29,  0,  0, 37,  0,  0,  0,  0, 36, 32,  0, 29,  0,  0, 32,  0, 25,  0, 33, 31,  0, 40,  0,  0,  0,  0,  0,  0,  0,  0
6, 16162, 4,N0CALL,     0.44, 3,   boost,   64.23,  99587.00,  145.69,    8.10,   33.77, 21.7, 4.08, 4.11, 4.07, -75.99,  -1.72,  -1.17,  -0.26,  -3.08,  18.35,  -0.60,   0.07,  -0.01,   6.62, 4.08, 0.00, 0.00, 0.00, 0.65, 1, 1, 15,  40.3869923, -87.5142074,   214.0, 2026,  4, 19, 16, 50, 51,        0,        0,   0,   0,   0.9,   0.5,   0.7,  0,  0, 29,  0,  0, 37,  0,  0,  0,  0, 36, 32,  0, 29,  0,  0, 32,  0, 25,  0, 33, 31,  0, 40,  0,  0,  0,  0,  0,  0,  0,  0
6, 16162, 4,N0CALL,     0.45, 3,   boost,   66.69,  99568.00,  147.29,    9.70,   34.42, 21.7, 4.08, 4.11, 4.07, -76.26,  -1.52,  -1.94,  -1.05,  -3.20,  18.66,  -0.60,   0.07,  -0.01,   6.77, 4.08, 0.00, 0.00, 0.00, 0.65, 1, 1, 15,  40.3869923, -87.5142074,   214.0, 2026,  4, 19, 16, 50, 51,        0,        0,   0,   0,   0.9,   0.5,   0.7,  0,  0, 29,  0,  0, 37,  0,  0,  0,  0, 36, 32,  0, 29,  0,  0, 32,  0, 25,  0, 33, 31,  0, 40,  0,  0,  0,  0,  0,  0,  0,  0
6, 16162, 4,N0CALL,     0.46, 3,   boost,   66.69,  99568.00,  147.29,    9.70,   35.08, 21.7, 4.08, 4.11, 4.07, -75.79,  -2.18,  -0.96,  -2.21,  -3.26,  18.84,  -0.59,   0.08,  -0.01,   6.93, 4.08, 0.00, 0.00, 0.00, 0.65, 1, 1, 15,  40.3869923, -87.5142074,   214.0, 2026,  4, 19, 16, 50, 51,        0,        0,   0,   0,   0.9,   0.5,   0.7,  0,  0, 29,  0,  0, 37,  0,  0,  0,  0, 36, 32,  0, 29,  0,  0, 32,  0, 25,  0, 33, 31,  0, 40,  0,  0,  0,  0,  0,  0,  0,  0
6, 16162, 4,N0CALL,     0.47, 3,   boost,   65.70,  99572.00,  146.96,    9.37,   35.73, 21.7, 4.08, 4.11, 4.07, -76.22,  -1.47,  -0.91,  -3.98,  -2.83,  19.08,  -0.59,   0.08,  -0.01,   7.09, 4.08, 0.00, 0.00, 0.00, 0.65, 1, 1, 15,  40.3869923, -87.5142074,   214.0, 2026,  4, 19, 16, 50, 51,        0,        0,   0,   0,   0.9,   0.5,   0.7,  0,  0, 29,  0,  0, 37,  0,  0,  0,  0, 36, 32,  0, 29,  0,  0, 32,  0, 25,  0, 33, 31,  0, 40,  0,  0,  0,  0,  0,  0,  0,  0
6, 16162, 4,N0CALL,     0.48, 3,   boost,   66.69,  99572.00,  146.96,    9.37,   36.39, 21.7, 4.08, 4.11, 4.07, -76.00,  -1.93,  -1.18,  -5.51,  -2.71,  19.75,  -0.59,   0.08,  -0.01,   7.25, 4.08, 0.00, 0.00, 0.00, 0.65, 1, 1, 15,  40.3869923, -87.5142074,   214.0, 2026,  4, 19, 16, 50, 51,        0,        0,   0,   0,   0.9,   0.5,   0.7,  0,  0, 29,  0,  0, 37,  0,  0,  0,  0, 36, 32,  0, 29,  0,  0, 32,  0, 25,  0, 33, 31,  0, 40,  0,  0,  0,  0,  0,  0,  0,  0
6, 16162, 4,N0CALL,     0.49, 3,   boost,   66.19,  99557.00,  148.22,   10.63,   37.04, 21.7, 4.08, 4.11, 4.07, -75.53,  -1.63,  -1.54,  -6.67,  -2.53,  19.63,  -0.60,   0.08,  -0.01,   7.41, 4.08, 0.00, 0.00, 0.00, 0.65, 1, 1, 15,  40.3869923, -87.5142074,   214.0, 2026,  4, 19, 16, 50, 51,        0,        0,   0,   0,   0.9,   0.5,   0.7,  0,  0, 29,  0,  0, 37,  0,  0,  0,  0, 36, 32,  0, 29,  0,  0, 32,  0, 25,  0, 33, 31,  0, 40,  0,  0,  0,  0,  0,  0,  0,  0
6, 16162, 4,N0CALL,     0.50, 3,   boost,   65.21,  99557.00,  148.22,   10.63,   37.70, 21.7, 4.08, 4.11, 4.07, -75.55,  -1.69,  -1.11,  -8.80,  -2.89,  19.69,  -0.60,   0.08,  -0.01,   7.58, 4.08, 0.00, 0.00, 0.00, 0.65, 1, 1, 15,  40.3869923, -87.5142074,   214.0, 2026,  4, 19, 16, 50, 51,        0,        0,   0,   0,   0.9,   0.5,   0.7,  0,  0, 29,  0,  0, 37,  0,  0,  0,  0, 36, 32,  0, 29,  0,  0, 32,  0, 25,  0, 33, 31,  0, 40,  0,  0,  0,  0,  0,  0,  0,  0
6, 16162, 4,N0CALL,     0.51, 3,   boost,   66.19,  99556.00,  148.31,   10.72,   38.35, 21.7, 4.08, 4.11, 4.07, -75.39,  -1.77,  -0.99, -10.64,  -2.77,  19.94,  -0.59,   0.08,  -0.01,   7.75, 4.08, 0.00, 0.00, 0.00, 0.65, 1, 1, 15,  40.3869923, -87.5142074,   214.0, 2026,  4, 19, 16, 50, 51,        0,        0,   0,   0,   0.9,   0.5,   0.7,  0,  0, 29,  0,  0, 37,  0,  0,  0,  0, 36, 32,  0, 29,  0,  0, 32,  0, 25,  0, 33, 31,  0, 40,  0,  0,  0,  0,  0,  0,  0,  0
6, 16162, 4,N0CALL,     0.52, 3,   boost,   65.70,  99556.00,  148.31,   10.72,   39.00, 21.7, 4.08, 4.11, 4.07, -75.67,  -1.51,  -1.49, -12.47,  -2.28,  19.88,  -0.59,   0.08,  -0.01,   7.92, 4.08, 0.00, 0.00, 0.00, 0.65, 1, 1, 15,  40.3869923, -87.5142074,   214.0, 2026,  4, 19, 16, 50, 51,        0,        0,   0,   0,   0.9,   0.5,   0.7,  0,  0, 29,  0,  0, 37,  0,  0,  0,  0, 36, 32,  0, 29,  0,  0, 32,  0, 25,  0, 33, 31,  0, 40,  0,  0,  0,  0,  0,  0,  0,  0
6, 16162, 4,N0CALL,     0.53, 3,   boost,   66.19,  99550.00,  148.81,   11.22,   39.65, 21.7, 4.08, 4.11, 4.07, -75.58,  -1.75,  -1.34, -14.73,  -2.22,  20.00,  -0.59,   0.08,  -0.01,   8.09, 4.08, 0.00, 0.00, 0.00, 0.65, 1, 1, 15,  40.3869923, -87.5142074,   214.0, 2026,  4, 19, 16, 50, 51,        0,        0,   0,   0,   0.9,   0.5,   0.7,  0,  0, 29,  0,  0, 37,  0,  0,  0,  0, 36, 32,  0, 29,  0,  0, 32,  0, 25,  0, 33, 31,  0, 40,  0,  0,  0,  0,  0,  0,  0,  0
6, 16162, 4,N0CALL,     0.54, 3,   boost,   65.21,  99550.00,  148.81,   11.22,   40.31, 21.7, 4.08, 4.11, 4.07, -75.78,  -1.42,  -1.16, -17.78,  -2.22,  19.75,  -0.59,   0.08,  -0.01,   8.26, 4.08, 0.00, 0.00, 0.00, 0.65, 1, 1, 15,  40.3869923, -87.5142074,   214.0, 2026,  4, 19, 16, 50, 51,        0,        0,   0,   0,   0.9,   0.5,   0.7,  0,  0, 29,  0,  0, 37,  0,  0,  0,  0, 36, 32,  0, 29,  0,  0, 32,  0, 25,  0, 33, 31,  0, 40,  0,  0,  0,  0,  0,  0,  0,  0
6, 16162, 4,N0CALL,     0.55, 3,   boost,   67.18,  99546.00,  149.15,   11.56,   40.96, 21.7, 4.08, 4.11, 4.07, -76.17,  -1.67,  -1.34, -20.28,  -2.16,  19.45,  -0.59,   0.08,  -0.01,   8.43, 4.08, 0.00, 0.00, 0.00, 0.65, 1, 1, 15,  40.3869923, -87.5142074,   214.0, 2026,  4, 19, 16, 50, 51,        0,        0,   0,   0,   0.9,   0.5,   0.7,  0,  0, 29,  0,  0, 37,  0,  0,  0,  0, 36, 32,  0, 29,  0,  0, 32,  0, 25,  0, 33, 31,  0, 40,  0,  0,  0,  0,  0,  0,  0,  0
