#version,serial,flight,call,time,state,state_name,acceleration,pressure,altitude,height,speed,temperature,drogue_voltage,main_voltage,battery_voltage,accel_x,accel_y,accel_z,gyro_roll,gyro_pitch,gyro_yaw,mag_x,mag_y,mag_z,tilt,pyro,igniter_a,igniter_b,igniter_c,igniter_d,connected,locked,nsat,latitude,longitude,altitude,year,month,day,hour,minute,second,pad_dist,pad_range,pad_az,pad_el,pdop,hdop,vdop,sat01,sat02,sat03,sat04,sat05,sat06,sat07,sat08,sat09,sat10,sat11,sat12,sat13,sat14,sat15,sat16,sat17,sat18,sat19,sat20,sat21,sat22,sat23,sat24,sat25,sat26,sat27,sat28,sat29,sat30,sat31,sat32
6, 16162, 2,N0CALL,    -0.30, 3,   boost,    0.49,  98919.00,  202.23,    0.17,    0.00, 42.0, 4.05, 4.08, 4.05,   9.85,   0.09,   0.03,  -0.24,  -0.06,  -0.10,   1.87,   0.23,   0.48,   0.59, 4.07, 0.00, 0.00, 0.00, 0.01, 1, 1, 15,  42.6262289, -88.1607598,   245.0, 2025,  8, 16, 17, 28,  5,        0,        0, 236,   0,   0.9,   0.5,   0.7,  0,  0, 33,  0,  0,  0,  0, 32,  0, 34,  0,  0, 36,  0, 45,  0,  0, 43,  0,  0,  0,  0, 37, 41,  0,  0, 39,  0,  0,  0,  0, 39
6, 16162, 2,N0CALL,    -0.29, 3,   boost,   -0.00,  98919.00,  202.23,    0.17,    0.00, 42.0, 4.05, 4.08, 4.05,   9.85,   0.06,   0.06,   0.12,  -0.06,   0.08,   1.87,   0.23,   0.48,   0.59, 4.07, 0.00, 0.00, 0.00, 0.01, 1, 1, 15,  42.6262289, -88.1607598,   245.0, 2025,  8, 16, 17, 28,  5,        0,        0, 236,   0,   0.9,   0.5,   0.7,  0,  0, 33,  0,  0,  0,  0, 32,  0, 34,  0,  0, 36,  0, 45,  0,  0, 43,  0,  0,  0,  0, 37, 41,  0,  0, 39,  0,  0,  0,  0, 39
6, 16162, 2,N0CALL,    -0.28, 3,   boost,   -1.47,  98936.00,  200.79,   -1.27,    0.00, 42.0, 4.05, 4.08, 4.05,   9.86,   0.07,   0.06,  -0.06,  -0.25,  -0.28,   1.87,   0.23,   0.48,   0.59, 4.07, 0.00, 0.00, 0.00, 0.01, 1, 1, 15,  42.6262289, -88.1607598,   245.0, 2025,  8, 16, 17, 28,  5,        0,        0, 236,   0,   0.9,   0.5,   0.7,  0,  0, 33,  0,  0,  0,  0, 32,  0, 34,  0,  0, 36,  0, 45,  0,  0, 43,  0,  0,  0,  0, 37, 41,  0,  0, 39,  0,  0,  0,  0, 39
6, 16162, 2,N0CALL,    -0.27, 3,   boost,   -0.00,  98936.00,  200.79,   -1.27,    0.00, 42.0, 4.05, 4.08, 4.05,   9.88,   0.01,   0.09,  -0.12,  -0.31,   0.14,   1.87,   0.23,   0.48,   0.59, 4.07, 0.00, 0.00, 0.00, 0.01, 1, 1, 15,  42.6262289, -88.1607598,   245.0, 2025,  8, 16, 17, 28,  5,        0,        0, 236,   0,   0.9,   0.5,   0.7,  0,  0, 33,  0,  0,  0,  0, 32,  0, 34,  0,  0, 36,  0, 45,  0,  0, 43,  0,  0,  0,  0, 37, 41,  0,  0, 39,  0,  0,  0,  0, 39
6, 16162, 2,N0CALL,    -0.26, 3,   boost,    0.98,  98931.00,  201.22,   -0.85,    0.00, 42.0, 4.05, 4.08, 4.05,   9.87,   0.03,   0.06,  -0.31,   0.30,   0.08,   1.87,   0.23,   0.48,   0.59, 4.07, 0.00, 0.00, 0.00, 0.01, 1, 1, 15,  42.6262289, -88.1607598,   245.0, 2025,  8, 16, 17, 28,  5,        0,        0, 236,   0,   0.9,   0.5,   0.7,  0,  0, 33,  0,  0,  0,  0, 32,  0, 34,  0,  0, 36,  0, 45,  0,  0, 43,  0,  0,  0,  0, 37, 41,  0,  0, 39,  0,  0,  0,  0, 39
6, 16162, 2,N0CALL,    -0.25, 3,   boost,    0.98,  98931.00,  201.22,   -0.85,    0.00, 42.0, 4.05, 4.08, 4.05,   9.85,   0.01,   0.09,  -0.18,   0.06,  -0.04,   1.87,   0.23,   0.48,   0.59, 4.07, 0.00, 0.00, 0.00, 0.01, 1, 1, 15,  42.6262289, -88.1607598,   245.0, 2025,  8, 16, 17, 28,  5,        0,        0, 236,   0,   0.9,   0.5,   0.7,  0,  0, 33,  0,  0,  0,  0, 32,  0, 34,  0,  0, 36,  0, 45,  0,  0, 43,  0,  0,  0,  0, 37, 41,  0,  0, 39,  0,  0,  0,  0, 39
6, 16162, 2,N0CALL,    -0.24, 3,   boost,   -0.00,  98923.00,  201.89,   -0.17,    0.00, 42.0, 4.05, 4.08, 4.05,   9.84,   0.04,   0.08,  -0.18,   0.12,  -0.04,   1.87,   0.23,   0.48,   0.59, 4.07, 0.00, 0.00, 0.00, 0.01, 1, 1, 15,  42.6262289, -88.1607598,   245.0, 2025,  8, 16, 17, 28,  5,        0,        0, 236,   0,   0.9,   0.5,   0.7,  0,  0, 33,  0,  0,  0,  0, 32,  0, 34,  0,  0, 36,  0, 45,  0,  0, 43,  0,  0,  0,  0, 37, 41,  0,  0, 39,  0,  0,  0,  0, 39
6, 16162, 2,N0CALL,    -0.23, 3,   boost,    0.49,  98923.00,  201.89,   -0.17,    0.01, 42.0, 4.05, 4.08, 4.05,   9.87,   0.07,   0.07,  -0.24,   0.12,  -0.04,   1.87,   0.24,   0.48,   0.59, 4.07, 0.00, 0.00, 0.00, 0.01, 1, 1, 15,  42.6262289, -88.1607598,   245.0, 2025,  8, 16, 17, 28,  5,        0,        0, 236,   0,   0.9,   0.5,   0.7,  0,  0, 33,  0,  0,  0,  0, 32,  0, 34,  0,  0, 36,  0, 45,  0,  0, 43,  0,  0,  0,  0, 37, 41,  0,  0, 39,  0,  0,  0,  0, 39
6, 16162, 2,N0CALL,    -0.22, 3,   boost,   -0.98,  98909.00,  203.08,    1.02,    0.01, 42.0, 4.05, 4.08, 4.05,   9.84,   0.06,   0.09,  -0.12,  -0.00,   0.08,   1.87,   0.23,   0.48,   0.59, 4.07, 0.00, 0.00, 0.00, 0.01, 1, 1, 15,  42.6262289, -88.1607598,   245.0, 2025,  8, 16, 17, 28,  5,        0,        0, 236,   0,   0.9,   0.5,   0.7,  0,  0, 33,  0,  0,  0,  0, 32,  0, 34,  0,  0, 36,  0, 45,  0,  0, 43,  0,  0,  0,  0, 37, 41,  0,  0, 39,  0,  0,  0,  0, 39
6, 16162, 2,N0CALL,    -0.21, 3,   boost,   -0.00,  98909.00,  203.08,    1.02,    0.00, 42.0, 4.05, 4.08, 4.05,   9.88,   0.07,   0.07,  -0.18,   0.06,  -0.10,   1.87,   0.23,   0.48,   0.59, 4.07, 0.00, 0.00, 0.00, 0.01, 1, 1, 15,  42.6262289, -88.1607598,   245.0, 2025,  8, 16, 17, 28,  5,        0,        0, 236,   0,   0.9,   0.5,   0.7,  0,  0, 33,  0,  0,  0,  0, 32,  0, 34,  0,  0, 36,  0, 45,  0,  0, 43,  0,  0,  0,  0, 37, 41,  0,  0, 39,  0,  0,  0,  0, 39
6, 16162, 2,N0CALL,    -0.20, 3,   boost,   -0.00,  98916.00,  202.49,    0.42,    0.00, 42.0, 4.05, 4.08, 4.05,   9.86,   0.09,   0.06,  -0.12,  -0.31,  -0.04,   1.87,   0.23,   0.48,   0.59, 4.07, 0.00, 0.00, 0.00, 0.01, 1, 1, 15,  42.6262289, -88.1607598,   245.0, 2025,  8, 16, 17, 28,  5,        0,        0, 236,   0,   0.9,   0.5,   0.7,  0,  0, 33,  0,  0,  0,  0, 32,  0, 34,  0,  0, 36,  0, 45,  0,  0, 43,  0,  0,  0,  0, 37, 41,  0,  0, 39,  0,  0,  0,  0, 39
6, 16162, 2,N0CALL,    -0.19, 3,   boost,   -0.49,  98916.00,  202.49,    0.42,    0.00, 42.0, 4.05, 4.08, 4.05,   9.86,   0.09,   0.12,  -0.67,   0.18,  -0.16,   1.87,   0.23,   0.48,   0.59, 4.07, 0.00, 0.00, 0.00, 0.01, 1, 1, 15,  42.6262289, -88.1607598,   245.0, 2025,  8, 16, 17, 28,  5,        0,        0, 236,   0,   0.9,   0.5,   0.7,  0,  0, 33,  0,  0,  0,  0, 32,  0, 34,  0,  0, 36,  0, 45,  0,  0, 43,  0,  0,  0,  0, 37, 41,  0,  0, 39,  0,  0,  0,  0, 39
6, 16162, 2,N0CALL,    -0.18, 3,   boost,   -0.98,  98924.00,  201.81,   -0.25,    0.00, 42.0, 4.05, 4.08, 4.05,   9.89,   0.08,   0.14,  -0.67,   0.18,  -0.16,   1.87,   0.23,   0.48,   0.59, 4.07, 0.00, 0.00, 0.00, 0.01, 1, 1, 15,  42.6262290, -88.1607596,   245.0, 2025,  8, 16, 17, 28,  6,        0,        0,   0,   0,   0.9,   0.5,   0.7,  0,  0, 33,  0,  0,  0,  0, 32,  0, 34,  0,  0, 37,  0, 45,  0,  0, 43,  0,  0,  0,  0, 37, 41,  0,  0, 38,  0,  0,  0,  0, 39
6, 16162, 2,N0CALL,    -0.17, 3,   boost,   -0.98,  98924.00,  201.81,   -0.25,    0.00, 42.0, 4.05, 4.08, 4.05,   9.83,   0.11,   0.08,  -1.16,   0.42,   0.08,   1.87,   0.23,   0.48,   0.59, 4.07, 0.00, 0.00, 0.00, 0.01, 1, 1, 15,  42.6262290, -88.1607596,   245.0, 2025,  8, 16, 17, 28,  6,        0,        0,   0,   0,   0.9,   0.5,   0.7,  0,  0, 33,  0,  0,  0,  0, 32,  0, 34,  0,  0, 37,  0, 45,  0,  0, 43,  0,  0,  0,  0, 37, 41,  0,  0, 38,  0,  0,  0,  0, 39
6, 16162, 2,N0CALL,    -0.16, 3,   boost,    0.49,  98917.00,  202.40,    0.34,    0.00, 42.0, 4.05, 4.08, 4.05,   9.83,   0.12,   0.11,  -1.83,   0.12,   0.27,   1.87,   0.23,   0.48,   0.59, 4.07, 0.00, 0.00, 0.00, 0.01, 1, 1, 15,  42.6262290, -88.1607596,   245.0, 2025,  8, 16, 17, 28,  6,        0,        0,   0,   0,   0.9,   0.5,   0.7,  0,  0, 33,  0,  0,  0,  0, 32,  0, 34,  0,  0, 37,  0, 45,  0,  0, 43,  0,  0,  0,  0, 37, 41,  0,  0, 38,  0,  0,  0,  0, 39
6, 16162, 2,N0CALL,    -0.15, 3,   boost,    0.49,  98917.00,  202.40,    0.34,    0.00, 42.0, 4.05, 4.08, 4.05,   9.83,   0.08,   0.09,  -1.77,  -0.25,   0.02,   1.87,   0.23,   0.48,   0.59, 4.07, 0.00, 0.00, 0.00, 0.01, 1, 1, 15,  42.6262290, -88.1607596,   245.0, 2025,  8, 16, 17, 28,  6,        0,        0,   0,   0,   0.9,   0.5,   0.7,  0,  0, 33,  0,  0,  0,  0, 32,  0, 34,  0,  0, 37,  0, 45,  0,  0, 43,  0,  0,  0,  0, 37, 41,  0,  0, 38,  0,  0,  0,  0, 39
6, 16162, 2,N0CALL,    -0.14, 3,   boost,   -0.00,  98929.00,  201.39,   -0.68,    0.00, 42.0, 4.05, 4.08, 4.05,   9.87,   0.09,   0.14,  -1.34,  -0.00,  -0.41,   1.87,   0.23,   0.48,   0.59, 4.07, 0.00, 0.00, 0.00, 0.01, 1, 1, 15,  42.6262290, -88.1607596,   245.0, 2025,  8, 16, 17, 28,  6,        0,        0,   0,   0,   0.9,   0.5,   0.7,  0,  0, 33,  0,  0,  0,  0, 32,  0, 34,  0,  0, 37,  0, 45,  0,  0, 43,  0,  0,  0,  0, 37, 41,  0,  0, 38,  0,  0,  0,  0, 39
6, 16162, 2,N0CALL,    -0.13, 3,   boost,    1.47,  98929.00,  201.39,   -0.68,    0.00, 42.0, 4.05, 4.08, 4.05,   9.82,   0.09,   0.13,  -0.61,   0.18,   0.14,   1.87,   0.23,   0.48,   0.59, 4.07, 0.00, 0.00, 0.00, 0.01, 1, 1, 15,  42.6262290, -88.1607596,   245.0, 2025,  8, 16, 17, 28,  6,        0,        0,   0,   0,   0.9,   0.5,   0.7,  0,  0, 33,  0,  0,  0,  0, 32,  0, 34,  0,  0, 37,  0, 45,  0,  0, 43,  0,  0,  0,  0, 37, 41,  0,  0, 38,  0,  0,  0,  0, 39
6, 16162, 2,N0CALL,    -0.12, 3,   boost,   -0.00,  98914.00,  202.66,    0.59,    0.00, 42.0, 4.05, 4.08, 4.05,   9.84,   0.02,   0.05,   1.16,   0.12,  -0.35,   1.87,   0.23,   0.48,   0.59, 4.07, 0.00, 0.00, 0.00, 0.01, 1, 1, 15,  42.6262290, -88.1607596,   245.0, 2025,  8, 16, 17, 28,  6,        0,        0,   0,   0,   0.9,   0.5,   0.7,  0,  0, 33,  0,  0,  0,  0, 32,  0, 34,  0,  0, 37,  0, 45,  0,  0, 43,  0,  0,  0,  0, 37, 41,  0,  0, 38,  0,  0,  0,  0, 39
6, 16162, 2,N0CALL,    -0.11, 3,   boost,   -0.98,  98914.00,  202.66,    0.59,    0.00, 42.0, 4.05, 4.08, 4.05,   9.86,  -0.01,   0.06,   3.23,   0.06,  -0.41,   1.87,   0.23,   0.48,   0.59, 4.07, 0.00, 0.00, 0.00, 0.01, 1, 1, 15,  42.6262290, -88.1607596,   245.0, 2025,  8, 16, 17, 28,  6,        0,        0,   0,   0,   0.9,   0.5,   0.7,  0,  0, 33,  0,  0,  0,  0, 32,  0, 34,  0,  0, 37,  0, 45,  0,  0, 43,  0,  0,  0,  0, 37, 41,  0,  0, 38,  0,  0,  0,  0, 39
6, 16162, 2,N0CALL,    -0.10, 3,   boost,    0.49,  98923.00,  201.89,   -0.17,    0.00, 42.0, 4.05, 4.08, 4.05,   9.87,  -0.03,   0.11,   2.44,   0.24,   0.08,   1.87,   0.23,   0.48,   0.59, 4.07, 0.00, 0.00, 0.00, 0.01, 1, 1, 15,  42.6262290, -88.1607596,   245.0, 2025,  8, 16, 17, 28,  6,        0,        0,   0,   0,   0.9,   0.5,   0.7,  0,  0, 33,  0,  0,  0,  0, 32,  0, 34,  0,  0, 37,  0, 45,  0,  0, 43,  0,  0,  0,  0, 37, 41,  0,  0, 38,  0,  0,  0,  0, 39
6, 16162, 2,N0CALL,    -0.09, 3,   boost,   -0.98,  98923.00,  201.89,   -0.17,    0.00, 42.0, 4.05, 4.08, 4.05,   9.89,  -0.07,   0.03,   0.67,   0.36,  -0.22,   1.87,   0.23,   0.48,   0.59, 4.07, 0.00, 0.00, 0.00, 0.01, 1, 1, 15,  42.6262290, -88.1607596,   245.0, 2025,  8, 16, 17, 28,  6,        0,        0,   0,   0,   0.9,   0.5,   0.7,  0,  0, 33,  0,  0,  0,  0, 32,  0, 34,  0,  0, 37,  0, 45,  0,  0, 43,  0,  0,  0,  0, 37, 41,  0,  0, 38,  0,  0,  0,  0, 39
6, 16162, 2,N0CALL,    -0.08, 3,   boost,    0.98,  98929.00,  201.39,   -0.68,    0.01, 42.0, 4.05, 4.08, 4.05,   9.88,   0.01,  -0.04,  -0.24,   0.06,   0.33,   1.87,   0.23,   0.48,   0.59, 4.07, 0.00, 0.00, 0.00, 0.01, 1, 1, 15,  42.6262290, -88.1607596,   245.0, 2025,  8, 16, 17, 28,  6,        0,        0,   0,   0,   0.9,   0.5,   0.7,  0,  0, 33,  0,  0,  0,  0, 32,  0, 34,  0,  0, 37,  0, 45,  0,  0, 43,  0,  0,  0,  0, 37, 41,  0,  0, 38,  0,  0,  0,  0, 39
6, 16162, 2,N0CALL,    -0.07, 3,   boost,   -0.98,  98929.00,  201.39,   -0.68,    0.05, 42.0, 4.05, 4.08, 4.05,   9.86,   0.12,  -0.02,  -0.12,  -0.43,   0.20,   1.87,   0.23,   0.48,   0.59, 4.07, 0.00, 0.00, 0.00, 0.01, 1, 1, 15,  42.6262290, -88.1607596,   245.0, 2025,  8, 16, 17, 28,  6,        0,        0,   0,   0,   0.9,   0.5,   0.7,  0,  0, 33,  0,  0,  0,  0, 32,  0, 34,  0,  0, 37,  0, 45,  0,  0, 43,  0,  0,  0,  0, 37, 41,  0,  0, 38,  0,  0,  0,  0, 39
6, 16162, 2,N0CALL,    -0.06, 3,   boost,    0.49,  98923.00,  201.89,   -0.17,    0.17, 42.0, 4.05, 4.08, 4.05,   9.78,   0.20,   0.16,   0.43,  -0.31,  -0.22,   1.87,   0.23,   0.48,   0.59, 4.07, 0.00, 0.00, 0.00, 0.01, 1, 1, 15,  42.6262290, -88.1607596,   245.0, 2025,  8, 16, 17, 28,  6,        0,        0,   0,   0,   0.9,   0.5,   0.7,  0,  0, 33,  0,  0,  0,  0, 32,  0, 34,  0,  0, 37,  0, 45,  0,  0, 43,  0,  0,  0,  0, 37, 41,  0,  0, 38,  0,  0,  0,  0, 39
6, 16162, 2,N0CALL,    -0.05, 3,   boost,    0.98,  98923.00,  201.89,   -0.17,    0.46, 42.0, 4.05, 4.08, 4.05,   9.84,   0.14,   0.10,   0.98,   0.30,  -0.35,   1.87,   0.23,   0.48,   0.59, 4.07, 0.00, 0.00, 0.00, 0.01, 1, 1, 15,  42.6262290, -88.1607596,   245.0, 2025,  8, 16, 17, 28,  6,        0,        0,   0,   0,   0.9,   0.5,   0.7,  0,  0, 33,  0,  0,  0,  0, 32,  0, 34,  0,  0, 37,  0, 45,  0,  0, 43,  0,  0,  0,  0, 37, 41,  0,  0, 38,  0,  0,  0,  0, 39
6, 16162, 2,N0CALL,    -0.04, 3,   boost,   65.21,  98916.00,  202.49,    0.42,    0.97, 42.0, 4.05, 4.08, 4.05,  10.00,   0.04,   0.10,   1.34,   0.36,  -0.28,   1.87,   0.23,   0.48,   0.59, 4.07, 0.00, 0.00, 0.00, 0.01, 1, 1, 15,  42.6262290, -88.1607596,   245.0, 2025,  8, 16, 17, 28,  6,        0,        0,   0,   0,   0.9,   0.5,   0.7,  0,  0, 33,  0,  0,  0,  0, 32,  0, 34,  0,  0, 37,  0, 45,  0,  0, 43,  0,  0,  0,  0, 37, 41,  0,  0, 38,  0,  0,  0,  0, 39
6, 16162, 2,N0CALL,    -0.03, 3,   boost,  120.13,  98916.00,  202.49,    0.42,    1.74, 42.0, 4.05, 4.08, 4.05,  40.77,  -0.40,   1.29,  -4.94,  -1.35,  -2.79,   1.87,   0.24,   0.47,   0.59, 4.07, 0.00, 0.00, 0.00, 0.01, 1, 1, 15,  42.6262290, -88.1607596,   245.0, 2025,  8, 16, 17, 28,  6,        0,        0,   0,   0,   0.9,   0.5,   0.7,  0,  0, 33,  0,  0,  0,  0, 32,  0, 34,  0,  0, 37,  0, 45,  0,  0, 43,  0,  0,  0,  0, 37, 41,  0,  0, 38,  0,  0,  0,  0, 39
6, 16162, 2,N0CALL,    -0.02, 3,   boost,  131.41,  98937.00,  200.71,   -1.36,    2.73, 42.0, 4.05, 4.08, 4.05, 131.96,   0.38,   0.30,  -9.22,   3.11,  -0.22,   1.87,   0.24,   0.48,   0.59, 4.07, 0.00, 0.00, 0.00, 0.01, 1, 1, 15,  42.6262290, -88.1607596,   245.0, 2025,  8, 16, 17, 28,  6,        0,        0,   0,   0,   0.9,   0.5,   0.7,  0,  0, 33,  0,  0,  0,  0, 32,  0, 34,  0,  0, 37,  0, 45,  0,  0, 43,  0,  0,  0,  0, 37, 41,  0,  0, 38,  0,  0,  0,  0, 39
6, 16162, 2,N0CALL,    -0.01, 3,   boost,  131.90,  98937.00,  200.71,   -1.36,    3.91, 42.0, 4.05, 4.08, 4.05, 140.03,   1.42,  -8.56,  18.37,  -5.31,  -0.47,   1.87,   0.24,   0.48,   0.59, 4.07, 0.00, 0.00, 0.00, 0.01, 1, 1, 15,  42.6262290, -88.1607596,   245.0, 2025,  8, 16, 17, 28,  6,        0,        0,   0,   0,   0.9,   0.5,   0.7,  0,  0, 33,  0,  0,  0,  0, 32,  0, 34,  0,  0, 37,  0, 45,  0,  0, 43,  0,  0,  0,  0, 37, 41,  0,  0, 38,  0,  0,  0,  0, 39
6, 16162, 2,N0CALL,     0.00, 3,   boost,  136.31,  98892.00,  204.53,    2.46,    5.18, 42.0, 4.05, 4.08, 4.05, 146.24,  -0.19,  -8.54,  71.35, -11.54,  -2.66,   1.87,   0.24,   0.48,   0.59, 4.07, 0.00, 0.00, 0.00, 0.01, 1, 1, 15,  42.6262290, -88.1607596,   245.0, 2025,  8, 16, 17, 28,  6,        0,        0,   0,   0,   0.9,   0.5,   0.7,  0,  0, 33,  0,  0,  0,  0, 32,  0, 34,  0,  0, 37,  0, 45,  0,  0, 43,  0,  0,  0,  0, 37, 41,  0,  0, 38,  0,  0,  0,  0, 39
6, 16162, 2,N0CALL,     0.00, 3,   boost,  136.31,  98892.00,  204.53,    2.46,    5.18, 42.0, 4.05, 4.08, 4.05, 146.24,  -0.19,  -8.54,  71.35, -11.54,  -2.66,   1.87,   0.24,   0.48,   0.59, 4.07, 0.00, 0.00, 0.00, 0.01, 1, 1, 15,  42.6262290, -88.1607596,   245.0, 2025,  8, 16, 17, 28,  6,        0,        0,   0,   0,   0.9,   0.5,   0.7,  0,  0, 33,  0,  0,  0,  0, 32,  0, 34,  0,  0, 37,  0, 45,  0,  0, 43,  0,  0,  0,  0, 37, 41,  0,  0, 38,  0,  0,  0,  0, 39
6, 16162, 2,N0CALL,     0.00, 3,   boost,  136.31,  98892.00,  204.53,    2.46,    5.18, 42.0, 4.05, 4.08, 4.05, 146.24,  -0.19,  -8.54,  71.35, -11.54,  -2.66,   1.87,   0.24,   0.48,   0.59, 4.07, 0.00, 0.00, 0.00, 0.01, 1, 1, 15,  42.6262290, -88.1607596,   245.0, 2025,  8, 16, 17, 28,  6,        0,        0,   0,   0,   0.9,   0.5,   0.7,  0,  0, 33,  0,  0,  0,  0, 32,  0, 34,  0,  0, 37,  0, 45,  0,  0, 43,  0,  0,  0,  0, 37, 41,  0,  0, 38,  0,  0,  0,  0, 39
6, 16162, 2,N0CALL,     0.00, 3,   boost,  136.31,  98892.00,  204.53,    2.46,    5.18, 42.0, 4.05, 4.08, 4.05, 146.24,  -0.19,  -8.54,  71.35, -11.54,  -2.66,   1.87,   0.24,   0.48,   0.59, 4.07, 0.00, 0.00, 0.00, 0.01, 1, 1, 15,  42.6262290, -88.1607596,   245.0, 2025,  8, 16, 17, 28,  6,        0,        0,   0,   0,   0.9,   0.5,   0.7,  0,  0, 33,  0,  0,  0,  0, 32,  0, 34,  0,  0, 37,  0, 45,  0,  0, 43,  0,  0,  0,  0, 37, 41,  0,  0, 38,  0,  0,  0,  0, 39
6, 16162, 2,N0CALL,     0.00, 3,   boost,  136.31,  98892.00,  204.53,    2.46,    5.18, 42.0, 4.05, 4.08, 4.05, 146.24,  -0.19,  -8.54,  71.35, -11.54,  -2.66,   1.87,   0.24,   0.48,   0.59, 4.07, 0.00, 0.00, 0.00, 0.01, 1, 1, 15,  42.6262290, -88.1607596,   245.0, 2025,  8, 16, 17, 28,  6,        0,        0,   0,   0,   0.9,   0.5,   0.7,  0,  0, 33,  0,  0,  0,  0, 32,  0, 34,  0,  0, 37,  0, 45,  0,  0, 43,  0,  0,  0,  0, 37, 41,  0,  0, 38,  0,  0,  0,  0, 39
6, 16162, 2,N0CALL,     0.00, 3,   boost,  136.31,  98892.00,  204.53,    2.46,    5.18, 42.0, 4.05, 4.08, 4.05, 146.24,  -0.19,  -8.54,  71.35, -11.54,  -2.66,   1.87,   0.24,   0.48,   0.59, 4.07, 0.00, 0.00, 0.00, 0.01, 1, 1, 15,  42.6262290, -88.1607596,   245.0, 2025,  8, 16, 17, 28,  6,        0,        0,   0,   0,   0.9,   0.5,   0.7,  0,  0, 33,  0,  0,  0,  0, 32,  0, 34,  0,  0, 37,  0, 45,  0,  0, 43,  0,  0,  0,  0, 37, 41,  0,  0, 38,  0,  0,  0,  0, 39
6, 16162, 2,N0CALL,     0.00, 3,   boost,  136.31,  98892.00,  204.53,    2.46,    5.18, 42.0, 4.05, 4.08, 4.05, 146.24,  -0.19,  -8.54,  71.35, -11.54,  -2.66,   1.87,   0.24,   0.48,   0.60, 4.07, 0.00, 0.00, 0.00, 0.01, 1, 1, 15,  42.6262290, -88.1607596,   245.0, 2025,  8, 16, 17, 28,  6,        0,        0,   0,   0,   0.9,   0.5,   0.7,  0,  0, 33,  0,  0,  0,  0, 32,  0, 34,  0,  0, 37,  0, 45,  0,  0, 43,  0,  0,  0,  0, 37, 41,  0,  0, 38,  0,  0,  0,  0, 39
6, 16162, 2,N0CALL,     0.00, 3,   boost,  136.31,  98892.00,  204.53,    2.46,    5.18, 42.0, 4.05, 4.08, 4.05, 146.24,  -0.19,  -8.54,  71.35, -11.54,  -2.66,   1.87,   0.24,   0.48,   0.60, 4.07, 0.00, 0.00, 0.00, 0.01, 1, 1, 15,  42.6262290, -88.1607596,   245.0, 2025,  8, 16, 17, 28,  6,        0,        0,   0,   0,   0.9,   0.5,   0.7,  0,  0, 33,  0,  0,  0,  0, 32,  0, 34,  0,  0, 37,  0, 45,  0,  0, 43,  0,  0,  0,  0, 37, 41,  0,  0, 38,  0,  0,  0,  0, 39
6, 16162, 2,N0CALL,     0.00, 3,   boost,  136.31,  98892.00,  204.53,    2.46,    5.18, 42.0, 4.05, 4.08, 4.05, 146.24,  -0.19,  -8.54,  71.35, -11.54,  -2.66,   1.87,   0.24,   0.48,   0.60, 4.07, 0.00, 0.00, 0.00, 0.01, 1, 1, 15,  42.6262290, -88.1607596,   245.0, 2025,  8, 16, 17, 28,  6,        0,        0,   0,   0,   0.9,   0.5,   0.7,  0,  0, 33,  0,  0,  0,  0, 32,  0, 34,  0,  0, 37,  0, 45,  0,  0, 43,  0,  0,  0,  0, 37, 41,  0,  0, 38,  0,  0,  0,  0, 39
6, 16162, 2,N0CALL,     0.00, 3,   boost,  136.31,  98892.00,  204.53,    2.46,    5.18, 42.0, 4.05, 4.08, 4.05, 146.24,  -0.19,  -8.54,  71.35, -11.54,  -2.66,   1.87,   0.24,   0.48,   0.60, 4.07, 0.00, 0.00, 0.00, 0.01, 1, 1, 15,  42.6262290, -88.1607596,   245.0, 2025,  8, 16, 17, 28,  6,        0,        0,   0,   0,   0.9,   0.5,   0.7,  0,  0, 33,  0,  0,  0,  0, 32,  0, 34,  0,  0, 37,  0, 45,  0,  0, 43,  0,  0,  0,  0, 37, 41,  0,  0, 38,  0,  0,  0,  0, 39
6, 16162, 2,N0CALL,     0.00, 3,   boost,  136.31,  98892.00,  204.53,    2.46,    5.18, 42.0, 4.05, 4.08, 4.05, 146.24,  -0.19,  -8.54,  71.35, -11.54,  -2.66,   1.87,   0.24,   0.48,   0.59, 4.07, 0.00, 0.00, 0.00, 0.01, 1, 1, 15,  42.6262290, -88.1607596,   245.0, 2025,  8, 16, 17, 28,  6,        0,        0,   0,   0,   0.9,   0.5,   0.7,  0,  0, 33,  0,  0,  0,  0, 32,  0, 34,  0,  0, 37,  0, 45,  0,  0, 43,  0,  0,  0,  0, 37, 41,  0,  0, 38,  0,  0,  0,  0, 39
6, 16162, 2,N0CALL,     0.00, 3,   boost,  136.31,  98892.00,  204.53,    2.46,    5.18, 42.0, 4.05, 4.08, 4.05, 146.24,  -0.19,  -8.54,  71.35, -11.54,  -2.66,   1.87,   0.24,   0.48,   0.59, 4.07, 0.00, 0.00, 0.00, 0.01, 1, 1, 15,  42.6262290, -88.1607596,   245.0, 2025,  8, 16, 17, 28,  6,        0,        0,   0,   0,   0.9,   0.5,   0.7,  0,  0, 33,  0,  0,  0,  0, 32,  0, 34,  0,  0, 37,  0, 45,  0,  0, 43,  0,  0,  0,  0, 37, 41,  0,  0, 38,  0,  0,  0,  0, 39
6, 16162, 2,N0CALL,     0.00, 3,   boost,  136.31,  98892.00,  204.53,    2.46,    5.18, 42.0, 4.05, 4.08, 4.05, 146.24,  -0.19,  -8.54,  71.35, -11.54,  -2.66,   1.87,   0.24,   0.48,   0.59, 4.07, 0.00, 0.00, 0.00, 0.01, 1, 1, 15,  42.6262290, -88.1607596,   245.0, 2025,  8, 16, 17, 28,  6,        0,        0,   0,   0,   0.9,   0.5,   0.7,  0,  0, 33,  0,  0,  0,  0, 32,  0, 34,  0,  0, 37,  0, 45,  0,  0, 43,  0,  0,  0,  0, 37, 41,  0,  0, 38,  0,  0,  0,  0, 39
6, 16162, 2,N0CALL,     0.00, 3,   boost,  136.31,  98892.00,  204.53,    2.46,    5.18, 42.0, 4.05, 4.08, 4.05, 146.24,  -0.19,  -8.54,  71.35, -11.54,  -2.66,   1.87,   0.24,   0.48,   0.59, 4.07, 0.00, 0.00, 0.00, 0.01, 1, 1, 15,  42.6262290, -88.1607596,   245.0, 2025,  8, 16, 17, 28,  6,        0,        0,   0,   0,   0.9,   0.5,   0.7,  0,  0, 33,  0,  0,  0,  0, 32,  0, 34,  0,  0, 37,  0, 45,  0,  0, 43,  0,  0,  0,  0, 37, 41,  0,  0, 38,  0,  0,  0,  0, 39
6, 16162, 2,N0CALL,     0.00, 3,   boost,  136.31,  98892.00,  204.53,    2.46,    5.18, 42.0, 4.05, 4.08, 4.05, 146.24,  -0.19,  -8.54,  71.35, -11.54,  -2.66,   1.87,   0.24,   0.48,   0.60, 4.07, 0.00, 0.00, 0.00, 0.01, 1, 1, 15,  42.6262290, -88.1607596,   245.0, 2025,  8, 16, 17, 28,  6,        0,        0,   0,   0,   0.9,   0.5,   0.7,  0,  0, 33,  0,  0,  0,  0, 32,  0, 34,  0,  0, 37,  0, 45,  0,  0, 43,  0,  0,  0,  0, 37, 41,  0,  0, 38,  0,  0,  0,  0, 39
6, 16162, 2,N0CALL,     0.00, 3,   boost,  136.31,  98892.00,  204.53,    2.46,    5.18, 42.0, 4.05, 4.08, 4.05, 146.24,  -0.19,  -8.54,  71.35, -11.54,  -2.66,   1.87,   0.24,   0.48,   0.59, 4.07, 0.00, 0.00, 0.00, 0.01, 1, 1, 15,  42.6262290, -88.1607596,   245.0, 2025,  8, 16, 17, 28,  6,        0,        0,   0,   0,   0.9,   0.5,   0.7,  0,  0, 33,  0,  0,  0,  0, 32,  0, 34,  0,  0, 37,  0, 45,  0,  0, 43,  0,  0,  0,  0, 37, 41,  0,  0, 38,  0,  0,  0,  0, 39
6, 16162, 2,N0CALL,     0.00, 3,   boost,  136.31,  98892.00,  204.53,    2.46,    5.18, 42.0, 4.05, 4.08, 4.05, 146.24,  -0.19,  -8.54,  71.35, -11.54,  -2.66,   1.87,   0.24,   0.48,   0.59, 4.07, 0.00, 0.00, 0.00, 0.01, 1, 1, 15,  42.6262290, -88.1607596,   245.0, 2025,  8, 16, 17, 28,  6,        0,        0,   0,   0,   0.9,   0.5,   0.7,  0,  0, 33,  0,  0,  0,  0, 32,  0, 34,  0,  0, 37,  0, 45,  0,  0, 43,  0,  0,  0,  0, 37, 41,  0,  0, 38,  0,  0,  0,  0, 39
6, 16162, 2,N0CALL,     0.00, 3,   boost,  136.31,  98892.00,  204.53,    2.46,    5.18, 42.0, 4.05, 4.08, 4.05, 146.24,  -0.19,  -8.54,  71.35, -11.54,  -2.66,   1.87,   0.24,   0.48,   0.59, 4.07, 0.00, 0.00, 0.00, 0.01, 1, 1, 15,  42.6262290, -88.1607596,   245.0, 2025,  8, 16, 17, 28,  6,        0,        0,   0,   0,   0.9,   0.5,   0.7,  0,  0, 33,  0,  0,  0,  0, 32,  0, 34,  0,  0, 37,  0, 45,  0,  0, 43,  0,  0,  0,  0, 37, 41,  0,  0, 38,  0,  0,  0,  0, 39
6, 16162, 2,N0CALL,     0.00, 3,   boost,  136.31,  98892.00,  204.53,    2.46,    5.18, 42.0, 4.05, 4.08, 4.05, 146.24,  -0.19,  -8.54,  71.35, -11.54,  -2.66,   1.87,   0.24,   0.48,   0.59, 4.07, 0.00, 0.00, 0.00, 0.01, 1, 1, 15,  42.6262290, -88.1607596,   245.0, 2025,  8, 16, 17, 28,  6,        0,        0,   0,   0,   0.9,   0.5,   0.7,  0,  0, 33,  0,  0,  0,  0, 32,  0, 34,  0,  0, 37,  0, 45,  0,  0, 43,  0,  0,  0,  0, 37, 41,  0,  0, 38,  0,  0,  0,  0, 39
6, 16162, 2,N0CALL,     0.00, 3,   boost,  136.31,  98892.00,  204.53,    2.46,    5.18, 42.0, 4.05, 4.08, 4.05, 146.24,  -0.19,  -8.54,  71.35, -11.54,  -2.66,   1.87,   0.24,   0.48,   0.59, 4.07, 0.00, 0.00, 0.00, 0.01, 1, 1, 15,  42.6262290, -88.1607596,   245.0, 2025,  8, 16, 17, 28,  6,        0,        0,   0,   0,   0.9,   0.5,   0.7,  0,  0, 33,  0,  0,  0,  0, 32,  0, 34,  0,  0, 37,  0, 45,  0,  0, 43,  0,  0,  0,  0, 37, 41,  0,  0, 38,  0,  0,  0,  0, 39
6, 16162, 2,N0CALL,     0.00, 3,   boost,  136.31,  98892.00,  204.53,    2.46,    5.18, 42.0, 4.05, 4.08, 4.05, 146.24,  -0.19,  -8.54,  71.35, -11.54,  -2.66,   1.87,   0.24,   0.48,   0.59, 4.07, 0.00, 0.00, 0.00, 0.01, 1, 1, 15,  42.6262290, -88.1607596,   245.0, 2025,  8, 16, 17, 28,  6,        0,        0,   0,   0,   0.9,   0.5,   0.7,  0,  0, 33,  0,  0,  0,  0, 32,  0, 34,  0,  0, 37,  0, 45,  0,  0, 43,  0,  0,  0,  0, 37, 41,  0,  0, 38,  0,  0,  0,  0, 39
6, 16162, 2,N0CALL,     0.00, 3,   boost,  136.31,  98892.00,  204.53,    2.46,    5.18, 42.0, 4.05, 4.08, 4.05, 146.24,  -0.19,  -8.54,  71.35, -11.54,  -2.66,   1.87,   0.24,   0.48,   0.59, 4.07, 0.00, 0.00, 0.00, 0.01, 1, 1, 15,  42.6262290, -88.1607596,   245.0, 2025,  8, 16, 17, 28,  6,        0,        0,   0,   0,   0.9,   0.5,   0.7,  0,  0, 33,  0,  0,  0,  0, 32,  0, 34,  0,  0, 37,  0, 45,  0,  0, 43,  0,  0,  0,  0, 37, 41,  0,  0, 38,  0,  0,  0,  0, 39
6, 16162, 2,N0CALL,     0.00, 3,   boost,  136.31,  98892.00,  204.53,    2.46,    5.18, 42.0, 4.05, 4.08, 4.05, 146.24,  -0.19,  -8.54,  71.35, -11.54,  -2.66,   1.87,   0.24,   0.48,   0.59, 4.07, 0.00, 0.00, 0.00, 0.01, 1, 1, 15,  42.6262290, -88.1607596,   245.0, 2025,  8, 16, 17, 28,  6,        0,        0,   0,   0,   0.9,   0.5,   0.7,  0,  0, 33,  0,  0,  0,  0, 32,  0, 34,  0,  0, 37,  0, 45,  0,  0, 43,  0,  0,  0,  0, 37, 41,  0,  0, 38,  0,  0,  0,  0, 39
6, 16162, 2,N0CALL,     0.00, 3,   boost,  136.31,  98892.00,  204.53,    2.46,    5.18, 42.0, 4.05, 4.08, 4.05, 146.24,  -0.19,  -8.54,  71.35, -11.54,  -2.66,   1.87,   0.24,   0.48,   0.59, 4.07, 0.00, 0.00, 0.00, 0.01, 1, 1, 15,  42.6262290, -88.1607596,   245.0, 2025,  8, 16, 17, 28,  6,        0,        0,   0,   0,   0.9,   0.5,   0.7,  0,  0, 33,  0,  0,  0,  0, 32,  0, 34,  0,  0, 37,  0, 45,  0,  0, 43,  0,  0,  0,  0, 37, 41,  0,  0, 38,  0,  0,  0,  0, 39
6, 16162, 2,N0CALL,     0.00, 3,   boost,  136.31,  98892.00,  204.53,    2.46,    5.18, 42.0, 4.05, 4.08, 4.05, 146.24,  -0.19,  -8.54,  71.35, -11.54,  -2.66,   1.87,   0.24,   0.48,   0.58, 4.07, 0.00, 0.00, 0.00, 0.01, 1, 1, 15,  42.6262290, -88.1607596,   245.0, 2025,  8, 16, 17, 28,  6,        0,        0,   0,   0,   0.9,   0.5,   0.7,  0,  0, 33,  0,  0,  0,  0, 32,  0, 34,  0,  0, 37,  0, 45,  0,  0, 43,  0,  0,  0,  0, 37, 41,  0,  0, 38,  0,  0,  0,  0, 39
6, 16162, 2,N0CALL,     0.00, 3,   boost,  136.31,  98892.00,  204.53,    2.46,    5.18, 42.0, 4.05, 4.08, 4.05, 146.24,  -0.19,  -8.54,  71.35, -11.54,  -2.66,   1.87,   0.24,   0.48,   0.58, 4.07, 0.00, 0.00, 0.00, 0.01, 1, 1, 15,  42.6262290, -88.1607596,   245.0, 2025,  8, 16, 17, 28,  6,        0,        0,   0,   0,   0.9,   0.5,   0.7,  0,  0, 33,  0,  0,  0,  0, 32,  0, 34,  0,  0, 37,  0, 45,  0,  0, 43,  0,  0,  0,  0, 37, 41,  0,  0, 38,  0,  0,  0,  0, 39
6, 16162, 2,N0CALL,     0.00, 3,   boost,  136.31,  98892.00,  204.53,    2.46,    5.18, 42.0, 4.05, 4.08, 4.05, 146.24,  -0.19,  -8.54,  71.35, -11.54,  -2.66,   1.87,   0.24,   0.48,   0.58, 4.07, 0.00, 0.00, 0.00, 0.01, 1, 1, 15,  42.6262290, -88.1607596,   245.0, 2025,  8, 16, 17, 28,  6,        0,        0,   0,   0,   0.9,   0.5,   0.7,  0,  0, 33,  0,  0,  0,  0, 32,  0, 34,  0,  0, 37,  0, 45,  0,  0, 43,  0,  0,  0,  0, 37, 41,  0,  0, 38,  0,  0,  0,  0, 39
6, 16162, 2,N0CALL,     0.00, 3,   boost,  136.31,  98892.00,  204.53,    2.46,    5.18, 42.0, 4.05, 4.08, 4.05, 146.24,  -0.19,  -8.54,  71.35, -11.54,  -2.66,   1.87,   0.24,   0.48,   0.58, 4.07, 0.00, 0.00, 0.00, 0.01, 1, 1, 15,  42.6262290, -88.1607596,   245.0, 2025,  8, 16, 17, 28,  6,        0,        0,   0,   0,   0.9,   0.5,   0.7,  0,  0, 33,  0,  0,  0,  0, 32,  0, 34,  0,  0, 37,  0, 45,  0,  0, 43,  0,  0,  0,  0, 37, 41,  0,  0, 38,  0,  0,  0,  0, 39
6, 16162, 2,N0CALL,     0.00, 3,   boost,  136.31,  98892.00,  204.53,    2.46,    5.18, 42.0, 4.05, 4.08, 4.05, 146.24,  -0.19,  -8.54,  71.35, -11.54,  -2.66,   1.87,   0.24,   0.48,   0.58, 4.07, 0.00, 0.00, 0.00, 0.01, 1, 1, 15,  42.6262290, -88.1607596,   245.0, 2025,  8, 16, 17, 28,  6,        0,        0,   0,   0,   0.9,   0.5,   0.7,  0,  0, 33,  0,  0,  0,  0, 32,  0, 34,  0,  0, 37,  0, 45,  0,  0, 43,  0,  0,  0,  0, 37, 41,  0,  0, 38,  0,  0,  0,  0, 39
6, 16162, 2,N0CALL,     0.00, 3,   boost,  136.31,  98892.00,  204.53,    2.46,    5.18, 42.0, 4.05, 4.08, 4.05, 146.24,  -0.19,  -8.54,  71.35, -11.54,  -2.66,   1.87,   0.24,   0.48,   0.58, 4.07, 0.00, 0.00, 0.00, 0.01, 1, 1, 15,  42.6262290, -88.1607596,   245.0, 2025,  8, 16, 17, 28,  6,        0,        0,   0,   0,   0.9,   0.5,   0.7,  0,  0, 33,  0,  0,  0,  0, 32,  0, 34,  0,  0, 37,  0, 45,  0,  0, 43,  0,  0,  0,  0, 37, 41,  0,  0, 38,  0,  0,  0,  0, 39
6, 16162, 2,N0CALL,     0.00, 3,   boost,  136.31,  98892.00,  204.53,    2.46,    5.18, 42.0, 4.05, 4.08, 4.05, 146.24,  -0.19,  -8.54,  71.35, -11.54,  -2.66,   1.87,   0.24,   0.48,   0.58, 4.07, 0.00, 0.00, 0.00, 0.01, 1, 1, 15,  42.6262290, -88.1607596,   245.0, 2025,  8, 16, 17, 28,  6,        0,        0,   0,   0,   0.9,   0.5,   0.7,  0,  0, 33,  0,  0,  0,  0, 32,  0, 34,  0,  0, 37,  0, 45,  0,  0, 43,  0,  0,  0,  0, 37, 41,  0,  0, 38,  0,  0,  0,  0, 39
6, 16162, 2,N0CALL,     0.00, 3,   boost,  136.31,  98892.00,  204.53,    2.46,    5.18, 42.0, 4.05, 4.08, 4.05, 146.24,  -0.19,  -8.54,  71.35, -11.54,  -2.66,   1.87,   0.24,   0.48,   0.58, 4.07, 0.00, 0.00, 0.00, 0.01, 1, 1, 15,  42.6262290, -88.1607596,   245.0, 2025,  8, 16, 17, 28,  6,        0,        0,   0,   0,   0.9,   0.5,   0.7,  0,  0, 33,  0,  0,  0,  0, 32,  0, 34,  0,  0, 37,  0, 45,  0,  0, 43,  0,  0,  0,  0, 37, 41,  0,  0, 38,  0,  0,  0,  0, 39
6, 16162, 2,N0CALL,     0.00, 3,   boost,  136.31,  98892.00,  204.53,    2.46,    5.18, 42.0, 4.05, 4.08, 4.05, 146.24,  -0.19,  -8.54,  71.35, -11.54,  -2.66,   1.87,   0.24,   0.48,   0.57, 4.07, 0.00, 0.00, 0.00, 0.01, 1, 1, 15,  42.6262290, -88.1607596,   245.0, 2025,  8, 16, 17, 28,  6,        0,        0,   0,   0,   0.9,   0.5,   0.7,  0,  0, 33,  0,  0,  0,  0, 32,  0, 34,  0,  0, 37,  0, 45,  0,  0, 43,  0,  0,  0,  0, 37, 41,  0,  0, 38,  0,  0,  0,  0, 39
6, 16162, 2,N0CALL,     0.00, 3,   boost,  136.31,  98892.00,  204.53,    2.46,    5.18, 42.0, 4.05, 4.08, 4.05, 146.24,  -0.19,  -8.54,  71.35, -11.54,  -2.66,   1.87,   0.24,   0.48,   0.57, 4.07, 0.00, 0.00, 0.00, 0.01, 1, 1, 15,  42.6262290, -88.1607596,   245.0, 2025,  8, 16, 17, 28,  6,        0,        0,   0,   0,   0.9,   0.5,   0.7,  0,  0, 33,  0,  0,  0,  0, 32,  0, 34,  0,  0, 37,  0, 45,  0,  0, 43,  0,  0,  0,  0, 37, 41,  0,  0, 38,  0,  0,  0,  0, 39
6, 16162, 2,N0CALL,     0.00, 3,   boost,  136.31,  98892.00,  204.53,    2.46,    5.18, 42.0, 4.05, 4.08, 4.05, 146.24,  -0.19,  -8.54,  71.35, -11.54,  -2.66,   1.87,   0.24,   0.48,   0.54, 4.07, 0.00, 0.00, 0.00, 0.01, 1, 1, 15,  42.6262290, -88.1607596,   245.0, 2025,  8, 16, 17, 28,  6,        0,        0,   0,   0,   0.9,   0.5,   0.7,  0,  0, 33,  0,  0,  0,  0, 32,  0, 34,  0,  0, 37,  0, 45,  0,  0, 43,  0,  0,  0,  0, 37, 41,  0,  0, 38,  0,  0,  0,  0, 39
6, 16162, 2,N0CALL,     0.00, 3,   boost,  136.31,  98892.00,  204.53,    2.46,    5.18, 42.0, 4.05, 4.08, 4.05, 146.24,  -0.19,  -8.54,  71.35, -11.54,  -2.66,   1.87,   0.24,   0.48,   0.58, 4.07, 0.00, 0.00, 0.00, 0.01, 1, 1, 15,  42.6262290, -88.1607596,   245.0, 2025,  8, 16, 17, 28,  6,        0,        0,   0,   0,   0.9,   0.5,   0.7,  0,  0, 33,  0,  0,  0,  0, 32,  0, 34,  0,  0, 37,  0, 45,  0,  0, 43,  0,  0,  0,  0, 37, 41,  0,  0, 38,  0,  0,  0,  0, 39
6, 16162, 2,N0CALL,     0.00, 3,   boost,  136.31,  98892.00,  204.53,    2.46,    5.18, 42.0, 4.05, 4.08, 4.05, 146.24,  -0.19,  -8.54,  71.35, -11.54,  -2.66,   1.87,   0.24,   0.48,   0.67, 4.07, 0.00, 0.00, 0.00, 0.01, 1, 1, 15,  42.6262290, -88.1607596,   245.0, 2025,  8, 16, 17, 28,  6,        0,        0,   0,   0,   0.9,   0.5,   0.7,  0,  0, 33,  0,  0,  0,  0, 32,  0, 34,  0,  0, 37,  0, 45,  0,  0, 43,  0,  0,  0,  0, 37, 41,  0,  0, 38,  0,  0,  0,  0, 39
6, 16162, 2,N0CALL,     0.01, 3,   boost,  129.94,  98892.00,  204.53,    2.46,    6.49, 42.0, 4.05, 4.08, 4.05, 141.37,  -6.39,  -4.42, 125.24, -24.36,  -2.30,   1.87,   0.24,   0.48,   0.89, 4.07, 0.00, 0.00, 0.00, 0.01, 1, 1, 15,  42.6262290, -88.1607596,   245.0, 2025,  8, 16, 17, 28,  6,        0,        0,   0,   0,   0.9,   0.5,   0.7,  0,  0, 33,  0,  0,  0,  0, 32,  0, 34,  0,  0, 37,  0, 45,  0,  0, 43,  0,  0,  0,  0, 37, 41,  0,  0, 38,  0,  0,  0,  0, 39
6, 16162, 2,N0CALL,     0.01, 3,   boost,  129.94,  98892.00,  204.53,    2.46,    6.49, 42.0, 4.05, 4.08, 4.05, 141.37,  -6.39,  -4.42, 125.24, -24.36,  -2.30,   1.87,   0.24,   0.48,   0.89, 4.07, 0.00, 0.00, 0.00, 0.01, 1, 1, 15,  42.6262290, -88.1607596,   245.0, 2025,  8, 16, 17, 28,  6,        0,        0,   0,   0,   0.9,   0.5,   0.7,  0,  0, 33,  0,  0,  0,  0, 32,  0, 34,  0,  0, 37,  0, 45,  0,  0, 43,  0,  0,  0,  0, 37, 41,  0,  0, 38,  0,  0,  0,  0, 39
6, 16162, 2,N0CALL,     0.02, 3,   boost,  129.45,  98900.00,  203.85,    1.78,    7.81, 42.0, 4.07, 4.07, 4.05, 147.49,  -3.91,  11.71, 166.44, -24.23,   6.55,   1.87,   0.23,   0.50,   1.14, 4.05, 0.00, 0.01, 0.00, 0.00, 1, 1, 15,  42.6262290, -88.1607596,   245.0, 2025,  8, 16, 17, 28,  6,        0,        0,   0,   0,   0.9,   0.5,   0.7,  0,  0, 33,  0,  0,  0,  0, 32,  0, 34,  0,  0, 37,  0, 45,  0,  0, 43,  0,  0,  0,  0, 37, 41,  0,  0, 38,  0,  0,  0,  0, 39
6, 16162, 2,N0CALL,     0.02, 3,   boost,  129.45,  98900.00,  203.85,    1.78,    7.81, 42.0, 4.07, 4.07, 4.05, 147.49,  -3.91,  11.71, 166.44, -24.23,   6.55,   1.87,   0.23,   0.50,   1.14, 4.05, 0.00, 0.01, 0.00, 0.00, 1, 1, 15,  42.6262290, -88.1607596,   245.0, 2025,  8, 16, 17, 28,  6,        0,        0,   0,   0,   0.9,   0.5,   0.7,  0,  0, 33,  0,  0,  0,  0, 32,  0, 34,  0,  0, 37,  0, 45,  0,  0, 43,  0,  0,  0,  0, 37, 41,  0,  0, 38,  0,  0,  0,  0, 39
6, 16162, 2,N0CALL,     0.03, 3,   boost,  133.86,  98900.00,  203.85,    1.78,    9.13, 42.0, 4.07, 4.07, 4.05, 143.34,   1.57,  13.26, 182.74,   3.11,   6.00,   1.87,   0.23,   0.50,   1.12, 4.05, 0.00, 0.01, 0.00, 0.00, 1, 1, 15,  42.6262290, -88.1607596,   245.0, 2025,  8, 16, 17, 28,  6,        0,        0,   0,   0,   0.9,   0.5,   0.7,  0,  0, 33,  0,  0,  0,  0, 32,  0, 34,  0,  0, 37,  0, 45,  0,  0, 43,  0,  0,  0,  0, 37, 41,  0,  0, 38,  0,  0,  0,  0, 39
6, 16162, 2,N0CALL,     0.04, 3,   boost,  132.88,  98912.00,  202.83,    0.76,   10.46, 42.0, 4.07, 4.07, 4.05, 145.73,   2.41,   4.86, 150.70,  15.68,   1.61,   1.87,   0.23,   0.50,   0.98, 4.05, 0.00, 0.01, 0.00, 0.00, 1, 1, 15,  42.6262290, -88.1607596,   245.0, 2025,  8, 16, 17, 28,  6,        0,        0,   0,   0,   0.9,   0.5,   0.7,  0,  0, 33,  0,  0,  0,  0, 32,  0, 34,  0,  0, 37,  0, 45,  0,  0, 43,  0,  0,  0,  0, 37, 41,  0,  0, 38,  0,  0,  0,  0, 39
6, 16162, 2,N0CALL,     0.05, 3,   boost,  134.84,  98912.00,  202.83,    0.76,   11.79, 42.0, 4.07, 4.07, 4.05, 148.23,   2.06,   0.65, 103.03,  18.80,  -4.13,   1.87,   0.23,   0.50,   0.79, 4.05, 0.00, 0.01, 0.00, 0.00, 1, 1, 15,  42.6262290, -88.1607596,   245.0, 2025,  8, 16, 17, 28,  6,        0,        0,   0,   0,   0.9,   0.5,   0.7,  0,  0, 33,  0,  0,  0,  0, 32,  0, 34,  0,  0, 37,  0, 45,  0,  0, 43,  0,  0,  0,  0, 37, 41,  0,  0, 38,  0,  0,  0,  0, 39
6, 16162, 2,N0CALL,     0.06, 3,   boost,  133.86,  98907.00,  203.25,    1.19,   13.13, 42.0, 4.07, 4.07, 4.05, 148.70,   0.47,  -0.09, 111.51,  17.58,  -3.58,   1.87,   0.23,   0.51,   0.61, 4.05, 0.00, 0.01, 0.00, 0.00, 1, 1, 15,  42.6262290, -88.1607596,   245.0, 2025,  8, 16, 17, 28,  6,        0,        0,   0,   0,   0.9,   0.5,   0.7,  0,  0, 33,  0,  0,  0,  0, 32,  0, 34,  0,  0, 37,  0, 45,  0,  0, 43,  0,  0,  0,  0, 37, 41,  0,  0, 38,  0,  0,  0,  0, 39
6, 16162, 2,N0CALL,     0.07, 3,   boost,  131.41,  98907.00,  203.25,    1.19,   14.48, 42.0, 4.07, 4.07, 4.05, 150.02,   0.63,   0.65, 169.31,   7.93,  -5.78,   1.87,   0.23,   0.52,   0.52, 4.05, 0.00, 0.01, 0.00, 0.00, 1, 1, 15,  42.6262290, -88.1607596,   245.0, 2025,  8, 16, 17, 28,  6,        0,        0,   0,   0,   0.9,   0.5,   0.7,  0,  0, 33,  0,  0,  0,  0, 32,  0, 34,  0,  0, 37,  0, 45,  0,  0, 43,  0,  0,  0,  0, 37, 41,  0,  0, 38,  0,  0,  0,  0, 39
6, 16162, 2,N0CALL,     0.08, 3,   boost,  140.24,  98893.00,  204.44,    2.38,   15.84, 42.0, 4.07, 4.07, 4.05, 151.12,  -0.53,  -4.57, 226.68,  10.13,  -9.13,   1.87,   0.23,   0.52,   0.40, 4.05, 0.00, 0.01, 0.00, 0.00, 1, 1, 15,  42.6262290, -88.1607596,   245.0, 2025,  8, 16, 17, 28,  6,        0,        0,   0,   0,   0.9,   0.5,   0.7,  0,  0, 33,  0,  0,  0,  0, 32,  0, 34,  0,  0, 37,  0, 45,  0,  0, 43,  0,  0,  0,  0, 37, 41,  0,  0, 38,  0,  0,  0,  0, 39
6, 16162, 2,N0CALL,     0.09, 3,   boost,  136.31,  98893.00,  204.44,    2.38,   17.20, 42.0, 4.07, 4.07, 4.05, 151.09,  -4.75, -15.36, 235.66,  -7.94,  -9.32,   1.87,   0.23,   0.53,   0.49, 4.05, 0.00, 0.01, 0.00, 0.00, 1, 1, 15,  42.6262290, -88.1607596,   245.0, 2025,  8, 16, 17, 28,  6,        0,        0,   0,   0,   0.9,   0.5,   0.7,  0,  0, 33,  0,  0,  0,  0, 32,  0, 34,  0,  0, 37,  0, 45,  0,  0, 43,  0,  0,  0,  0, 37, 41,  0,  0, 38,  0,  0,  0,  0, 39
6, 16162, 2,N0CALL,     0.10, 3,   boost,  137.78,  98918.00,  202.32,    0.25,   18.58, 42.0, 4.07, 4.07, 4.05, 151.82,  -3.74,  -1.06, 209.90,  -7.39,   5.94,   1.87,   0.23,   0.54,   0.55, 4.05, 0.00, 0.01, 0.00, 0.00, 1, 1, 15,  42.6262290, -88.1607596,   245.0, 2025,  8, 16, 17, 28,  6,        0,        0,   0,   0,   0.9,   0.5,   0.7,  0,  0, 33,  0,  0,  0,  0, 32,  0, 34,  0,  0, 37,  0, 45,  0,  0, 43,  0,  0,  0,  0, 37, 41,  0,  0, 38,  0,  0,  0,  0, 39
6, 16162, 2,N0CALL,     0.11, 3,   boost,  137.78,  98918.00,  202.32,    0.25,   19.96, 42.0, 4.07, 4.07, 4.05, 151.85,   0.83,  -0.09, 252.87,  -9.28,  -7.43,   1.87,   0.23,   0.55,   0.65, 4.05, 0.00, 0.01, 0.00, 0.00, 1, 1, 15,  42.6262290, -88.1607596,   245.0, 2025,  8, 16, 17, 28,  6,        0,        0,   0,   0,   0.9,   0.5,   0.7,  0,  0, 33,  0,  0,  0,  0, 32,  0, 34,  0,  0, 37,  0, 45,  0,  0, 43,  0,  0,  0,  0, 37, 41,  0,  0, 38,  0,  0,  0,  0, 39
6, 16162, 2,N0CALL,     0.12, 3,   boost,  140.73,  98903.00,  203.59,    1.53,   21.34, 42.0, 4.07, 4.07, 4.05, 153.34,   5.93,  -4.94, 231.57,  -2.57,  11.74,   1.87,   0.23,   0.55,   0.66, 4.05, 0.00, 0.01, 0.00, 0.00, 1, 1, 15,  42.6262290, -88.1607596,   245.0, 2025,  8, 16, 17, 28,  6,        0,        0,   0,   0,   0.9,   0.5,   0.7,  0,  0, 33,  0,  0,  0,  0, 32,  0, 34,  0,  0, 37,  0, 45,  0,  0, 43,  0,  0,  0,  0, 37, 41,  0,  0, 38,  0,  0,  0,  0, 39
6, 16162, 2,N0CALL,     0.13, 3,   boost,  138.76,  98903.00,  203.59,    1.53,   22.73, 42.0, 4.07, 4.07, 4.05, 152.27,  -0.22,   2.60, 227.05, -14.77, -12.31,   1.87,   0.23,   0.57,   0.83, 4.05, 0.00, 0.01, 0.00, 0.00, 1, 1, 15,  42.6262290, -88.1607596,   245.0, 2025,  8, 16, 17, 28,  6,        0,        0,   0,   0,   0.9,   0.5,   0.7,  0,  0, 33,  0,  0,  0,  0, 32,  0, 34,  0,  0, 37,  0, 45,  0,  0, 43,  0,  0,  0,  0, 37, 41,  0,  0, 38,  0,  0,  0,  0, 39
6, 16162, 2,N0CALL,     0.14, 3,   boost,  138.27,  98888.00,  204.87,    2.80,   24.13, 42.0, 4.07, 4.07, 4.05, 150.80,  -2.74,   3.64, 208.98, -15.08, -11.45,   1.87,   0.23,   0.57,   1.01, 4.05, 0.00, 0.01, 0.00, 0.00, 1, 1, 15,  42.6262290, -88.1607596,   245.0, 2025,  8, 16, 17, 28,  6,        0,        0,   0,   0,   0.9,   0.5,   0.7,  0,  0, 33,  0,  0,  0,  0, 32,  0, 34,  0,  0, 37,  0, 45,  0,  0, 43,  0,  0,  0,  0, 37, 41,  0,  0, 38,  0,  0,  0,  0, 39
6, 16162, 2,N0CALL,     0.15, 3,   boost,  141.22,  98888.00,  204.87,    2.80,   25.52, 42.0, 4.07, 4.07, 4.05, 152.44,   0.91,  -0.50, 205.57,  -7.39,  -7.67,   1.88,   0.23,   0.58,   1.11, 4.05, 0.00, 0.01, 0.00, 0.00, 1, 1, 15,  42.6262290, -88.1607596,   245.0, 2025,  8, 16, 17, 28,  6,        0,        0,   0,   0,   0.9,   0.5,   0.7,  0,  0, 33,  0,  0,  0,  0, 32,  0, 34,  0,  0, 37,  0, 45,  0,  0, 43,  0,  0,  0,  0, 37, 41,  0,  0, 38,  0,  0,  0,  0, 39
6, 16162, 2,N0CALL,     0.16, 3,   boost,  139.74,  98876.00,  205.88,    3.82,   26.91, 42.0, 4.07, 4.07, 4.05, 153.43,   1.30,  -0.46, 200.62, -10.38, -13.83,   1.88,   0.24,   0.59,   1.26, 4.05, 0.00, 0.01, 0.00, 0.00, 1, 1, 15,  42.6262290, -88.1607596,   245.0, 2025,  8, 16, 17, 28,  6,        0,        0,   0,   0,   0.9,   0.5,   0.7,  0,  0, 33,  0,  0,  0,  0, 32,  0, 34,  0,  0, 37,  0, 45,  0,  0, 43,  0,  0,  0,  0, 37, 41,  0,  0, 38,  0,  0,  0,  0, 39
6, 16162, 2,N0CALL,     0.17, 3,   boost,  138.76,  98876.00,  205.88,    3.82,   28.31, 42.0, 4.07, 4.07, 4.05, 153.10,   1.26,   0.11, 196.78, -11.23, -13.35,   1.88,   0.24,   0.59,   1.43, 4.05, 0.00, 0.01, 0.00, 0.00, 1, 1, 15,  42.6262290, -88.1607596,   245.0, 2025,  8, 16, 17, 28,  6,        0,        0,   0,   0,   0.9,   0.5,   0.7,  0,  0, 33,  0,  0,  0,  0, 32,  0, 34,  0,  0, 37,  0, 45,  0,  0, 43,  0,  0,  0,  0, 37, 41,  0,  0, 38,  0,  0,  0,  0, 39
6, 16162, 2,N0CALL,     0.18, 3,   boost,  137.78,  98886.00,  205.04,    2.97,   29.70, 42.0, 4.07, 4.07, 4.05, 153.17,   1.11,  -0.11, 192.57,  -6.78, -14.75,   1.88,   0.24,   0.60,   1.57, 4.05, 0.00, 0.01, 0.00, 0.00, 1, 1, 15,  42.6262290, -88.1607596,   245.0, 2025,  8, 16, 17, 28,  6,        0,        0,   0,   0,   0.9,   0.5,   0.7,  0,  0, 33,  0,  0,  0,  0, 32,  0, 34,  0,  0, 37,  0, 45,  0,  0, 43,  0,  0,  0,  0, 37, 41,  0,  0, 38,  0,  0,  0,  0, 39
6, 16162, 2,N0CALL,     0.19, 3,   boost,  141.71,  98886.00,  205.04,    2.97,   31.10, 42.0, 4.07, 4.07, 4.05, 153.74,   1.10,  -0.44, 187.50,  -6.41, -18.17,   1.88,   0.25,   0.61,   1.74, 4.05, 0.00, 0.01, 0.00, 0.00, 1, 1, 15,  42.6262290, -88.1607596,   245.0, 2025,  8, 16, 17, 28,  6,        0,        0,   0,   0,   0.9,   0.5,   0.7,  0,  0, 33,  0,  0,  0,  0, 32,  0, 34,  0,  0, 37,  0, 45,  0,  0, 43,  0,  0,  0,  0, 37, 41,  0,  0, 38,  0,  0,  0,  0, 39
6, 16162, 2,N0CALL,     0.20, 3,   boost,  139.25,  98902.00,  203.68,    1.61,   32.50, 42.0, 4.07, 4.07, 4.05, 153.59,   0.78,   0.22, 184.26,  -6.78, -18.29,   1.88,   0.25,   0.61,   1.92, 4.05, 0.00, 0.01, 0.00, 0.00, 1, 1, 15,  42.6262290, -88.1607596,   245.0, 2025,  8, 16, 17, 28,  6,        0,        0,   0,   0,   0.9,   0.5,   0.7,  0,  0, 33,  0,  0,  0,  0, 32,  0, 34,  0,  0, 37,  0, 45,  0,  0, 43,  0,  0,  0,  0, 37, 41,  0,  0, 38,  0,  0,  0,  0, 39
6, 16162, 2,N0CALL,     0.21, 3,   boost,  139.74,  98902.00,  203.68,    1.61,   33.90, 42.0, 4.07, 4.07, 4.05, 154.55,   1.28,  -0.11, 179.75,  -3.12, -18.66,   1.88,   0.26,   0.62,   2.09, 4.05, 0.00, 0.01, 0.00, 0.00, 1, 1, 15,  42.6262290, -88.1607596,   245.0, 2025,  8, 16, 17, 28,  6,        0,        0,   0,   0,   0.9,   0.5,   0.7,  0,  0, 33,  0,  0,  0,  0, 32,  0, 34,  0,  0, 37,  0, 45,  0,  0, 43,  0,  0,  0,  0, 37, 41,  0,  0, 38,  0,  0,  0,  0, 39
6, 16162, 2,N0CALL,     0.22, 3,   boost,  141.71,  98889.00,  204.78,    2.72,   35.31, 42.0, 4.07, 4.07, 4.05, 155.23,   1.05,  -0.40, 175.23,  -2.38, -21.40,   1.88,   0.26,   0.62,   2.28, 4.05, 0.00, 0.01, 0.00, 0.00, 1, 1, 15,  42.6262290, -88.1607596,   245.0, 2025,  8, 16, 17, 28,  6,        0,        0,   0,   0,   0.9,   0.5,   0.7,  0,  0, 33,  0,  0,  0,  0, 32,  0, 34,  0,  0, 37,  0, 45,  0,  0, 43,  0,  0,  0,  0, 37, 41,  0,  0, 38,  0,  0,  0,  0, 39
6, 16162, 2,N0CALL,     0.23, 3,   boost,  142.69,  98889.00,  204.78,    2.72,   36.72, 42.0, 4.07, 4.07, 4.05, 154.64,   1.29,   0.12, 171.69,  -2.02, -21.77,   1.88,   0.26,   0.62,   2.47, 4.05, 0.00, 0.01, 0.00, 0.00, 1, 1, 15,  42.6262290, -88.1607596,   245.0, 2025,  8, 16, 17, 28,  6,        0,        0,   0,   0,   0.9,   0.5,   0.7,  0,  0, 33,  0,  0,  0,  0, 32,  0, 34,  0,  0, 37,  0, 45,  0,  0, 43,  0,  0,  0,  0, 37, 41,  0,  0, 38,  0,  0,  0,  0, 39
6, 16162, 2,N0CALL,     0.24, 3,   boost,  141.71,  98879.00,  205.63,    3.57,   38.13, 42.0, 4.07, 4.07, 4.05, 155.41,   1.41,   0.08, 167.72,   0.36, -22.62,   1.88,   0.27,   0.63,   2.67, 4.05, 0.00, 0.01, 0.00, 0.00, 1, 1, 15,  42.6262290, -88.1607596,   245.0, 2025,  8, 16, 17, 28,  6,        0,        0,   0,   0,   0.9,   0.5,   0.7,  0,  0, 33,  0,  0,  0,  0, 32,  0, 34,  0,  0, 37,  0, 45,  0,  0, 43,  0,  0,  0,  0, 37, 41,  0,  0, 38,  0,  0,  0,  0, 39
6, 16162, 2,N0CALL,     0.25, 3,   boost,  140.73,  98879.00,  205.63,    3.57,   39.55, 42.0, 4.07, 4.07, 4.05, 155.43,   1.54,  -0.24, 163.27,   2.56, -25.25,   1.88,   0.27,   0.64,   2.90, 4.05, 0.00, 0.01, 0.00, 0.00, 1, 1, 15,  42.6262290, -88.1607596,   245.0, 2025,  8, 16, 17, 28,  6,        0,        0,   0,   0,   0.9,   0.5,   0.7,  0,  0, 33,  0,  0,  0,  0, 32,  0, 34,  0,  0, 37,  0, 45,  0,  0, 43,  0,  0,  0,  0, 37, 41,  0,  0, 38,  0,  0,  0,  0, 39
6, 16162, 2,N0CALL,     0.26, 3,   boost,  140.24,  98894.00,  204.36,    2.29,   40.96, 42.0, 4.07, 4.07, 4.05, 156.12,   1.26,  -0.37, 159.55,   2.32, -25.25,   1.88,   0.28,   0.64,   3.13, 4.05, 0.00, 0.01, 0.00, 0.00, 1, 1, 15,  42.6262290, -88.1607596,   245.0, 2025,  8, 16, 17, 28,  6,        0,        0,   0,   0,   0.9,   0.5,   0.7,  0,  0, 33,  0,  0,  0,  0, 32,  0, 34,  0,  0, 37,  0, 45,  0,  0, 43,  0,  0,  0,  0, 37, 41,  0,  0, 38,  0,  0,  0,  0, 39
6, 16162, 2,N0CALL,     0.27, 3,   boost,  143.18,  98894.00,  204.36,    2.29,   42.38, 42.0, 4.07, 4.07, 4.05, 155.45,   1.47,  -0.24, 155.09,   5.19, -24.27,   1.89,   0.28,   0.64,   3.35, 4.05, 0.00, 0.01, 0.00, 0.00, 1, 1, 15,  42.6262290, -88.1607596,   245.0, 2025,  8, 16, 17, 28,  6,        0,        0,   0,   0,   0.9,   0.5,   0.7,  0,  0, 33,  0,  0,  0,  0, 32,  0, 34,  0,  0, 37,  0, 45,  0,  0, 43,  0,  0,  0,  0, 37, 41,  0,  0, 38,  0,  0,  0,  0, 39
6, 16162, 2,N0CALL,     0.28, 3,   boost,  143.67,  98882.00,  205.38,    3.31,   43.80, 42.0, 4.07, 4.07, 4.05, 156.27,   1.59,  -0.42, 149.29,   6.53, -24.76,   1.89,   0.29,   0.65,   3.58, 4.05, 0.00, 0.01, 0.00, 0.00, 1, 1, 15,  42.6262290, -88.1607596,   245.0, 2025,  8, 16, 17, 28,  6,        0,        0,   0,   0,   0.9,   0.5,   0.7,  0,  0, 33,  0,  0,  0,  0, 32,  0, 34,  0,  0, 37,  0, 45,  0,  0, 43,  0,  0,  0,  0, 37, 41,  0,  0, 38,  0,  0,  0,  0, 39
6, 16162, 2,N0CALL,     0.29, 3,   boost,  142.69,  98882.00,  205.38,    3.31,   45.21, 42.0, 4.07, 4.07, 4.05, 156.64,   1.48,  -0.19, 144.59,   7.02, -25.19,   1.89,   0.29,   0.65,   3.82, 4.05, 0.00, 0.01, 0.00, 0.00, 1, 1, 15,  42.6262290, -88.1607596,   245.0, 2025,  8, 16, 17, 28,  6,        0,        0,   0,   0,   0.9,   0.5,   0.7,  0,  0, 33,  0,  0,  0,  0, 32,  0, 34,  0,  0, 37,  0, 45,  0,  0, 43,  0,  0,  0,  0, 37, 41,  0,  0, 38,  0,  0,  0,  0, 39
6, 16162, 2,N0CALL,     0.30, 3,   boost,  140.24,  98884.00,  205.21,    3.14,   46.63, 42.0, 4.07, 4.07, 4.05, 156.25,   1.88,  -0.16, 138.18,   8.91, -24.09,   1.89,   0.30,   0.65,   4.05, 4.05, 0.00, 0.01, 0.00, 0.00, 1, 1, 15,  42.6262290, -88.1607596,   245.0, 2025,  8, 16, 17, 28,  6,        0,        0,   0,   0,   0.9,   0.5,   0.7,  0,  0, 33,  0,  0,  0,  0, 32,  0, 34,  0,  0, 37,  0, 45,  0,  0, 43,  0,  0,  0,  0, 37, 41,  0,  0, 38,  0,  0,  0,  0, 39
6, 16162, 2,N0CALL,     0.31, 3,   boost,  142.69,  98884.00,  205.21,    3.14,   48.04, 42.0, 4.07, 4.07, 4.05, 157.33,   2.00,  -0.29, 131.71,  10.19, -24.33,   1.89,   0.30,   0.65,   4.29, 4.05, 0.00, 0.01, 0.00, 0.00, 1, 1, 15,  42.6262290, -88.1607596,   245.0, 2025,  8, 16, 17, 28,  6,        0,        0,   0,   0,   0.9,   0.5,   0.7,  0,  0, 33,  0,  0,  0,  0, 32,  0, 34,  0,  0, 37,  0, 45,  0,  0, 43,  0,  0,  0,  0, 37, 41,  0,  0, 38,  0,  0,  0,  0, 39
6, 16162, 2,N0CALL,     0.32, 3,   boost,  140.73,  98884.00,  205.21,    3.14,   49.46, 42.0, 4.07, 4.07, 4.05, 156.64,   2.42,  -0.04, 125.98,  12.20, -24.58,   1.89,   0.31,   0.65,   4.54, 4.05, 0.00, 0.01, 0.00, 0.00, 1, 1, 15,  42.6262290, -88.1607596,   245.0, 2025,  8, 16, 17, 28,  6,        0,        0,   0,   0,   0.9,   0.5,   0.7,  0,  0, 33,  0,  0,  0,  0, 32,  0, 34,  0,  0, 37,  0, 45,  0,  0, 43,  0,  0,  0,  0, 37, 41,  0,  0, 38,  0,  0,  0,  0, 39
6, 16162, 2,N0CALL,     0.33, 3,   boost,  141.22,  98884.00,  205.21,    3.14,   50.87, 42.0, 4.07, 4.07, 4.05, 156.55,   2.31,   0.04, 118.41,  12.69, -24.15,   1.89,   0.31,   0.66,   4.79, 4.05, 0.00, 0.01, 0.00, 0.00, 1, 1, 15,  42.6262290, -88.1607596,   245.0, 2025,  8, 16, 17, 28,  6,        0,        0,   0,   0,   0.9,   0.5,   0.7,  0,  0, 33,  0,  0,  0,  0, 32,  0, 34,  0,  0, 37,  0, 45,  0,  0, 43,  0,  0,  0,  0, 37, 41,  0,  0, 38,  0,  0,  0,  0, 39
6, 16162, 2,N0CALL,     0.34, 3,   boost,  142.20,  98862.00,  207.07,    5.01,   52.28, 42.0, 4.05, 4.08, 4.06, 156.51,   2.59,  -0.17, 109.44,  15.01, -23.78,   1.89,   0.31,   0.66,   5.04, 4.08, 0.00, 0.00, 0.00, 0.00, 1, 1, 15,  42.6262290, -88.1607596,   245.0, 2025,  8, 16, 17, 28,  6,        0,        0,   0,   0,   0.9,   0.5,   0.7,  0,  0, 33,  0,  0,  0,  0, 32,  0, 34,  0,  0, 37,  0, 45,  0,  0, 43,  0,  0,  0,  0, 37, 41,  0,  0, 38,  0,  0,  0,  0, 39
6, 16162, 2,N0CALL,     0.34, 3,   boost,  142.20,  98862.00,  207.07,    5.01,   52.28, 42.0, 4.05, 4.08, 4.06, 156.51,   2.59,  -0.17, 109.44,  15.01, -23.78,   1.89,   0.31,   0.66,   5.04, 4.08, 0.00, 0.00, 0.00, 0.00, 1, 1, 15,  42.6262290, -88.1607596,   245.0, 2025,  8, 16, 17, 28,  6,        0,        0,   0,   0,   0.9,   0.5,   0.7,  0,  0, 33,  0,  0,  0,  0, 32,  0, 34,  0,  0, 37,  0, 45,  0,  0, 43,  0,  0,  0,  0, 37, 41,  0,  0, 38,  0,  0,  0,  0, 39
6, 16162, 2,N0CALL,     0.35, 3,   boost,  142.69,  98862.00,  207.07,    5.01,   53.69, 42.0, 4.05, 4.08, 4.06, 156.57,   2.64,  -0.09, 100.83,  15.07, -23.05,   1.89,   0.32,   0.66,   5.29, 4.08, 0.00, 0.00, 0.00, 0.00, 1, 1, 15,  42.6262290, -88.1607596,   245.0, 2025,  8, 16, 17, 28,  6,        0,        0,   0,   0,   0.9,   0.5,   0.7,  0,  0, 33,  0,  0,  0,  0, 32,  0, 34,  0,  0, 37,  0, 45,  0,  0, 43,  0,  0,  0,  0, 37, 41,  0,  0, 38,  0,  0,  0,  0, 39
6, 16162, 2,N0CALL,     0.36, 3,   boost,  141.71,  98866.00,  206.73,    4.67,   55.10, 42.0, 4.05, 4.08, 4.06, 156.65,   2.68,   0.31,  91.06,  14.89, -21.59,   1.89,   0.32,   0.66,   5.53, 4.08, 0.00, 0.00, 0.00, 0.00, 1, 1, 15,  42.6262290, -88.1607596,   245.0, 2025,  8, 16, 17, 28,  6,        0,        0,   0,   0,   0.9,   0.5,   0.7,  0,  0, 33,  0,  0,  0,  0, 32,  0, 34,  0,  0, 37,  0, 45,  0,  0, 43,  0,  0,  0,  0, 37, 41,  0,  0, 38,  0,  0,  0,  0, 39
6, 16162, 2,N0CALL,     0.37, 3,   boost,  140.73,  98866.00,  206.73,    4.67,   56.52, 42.0, 4.05, 4.08, 4.06, 156.37,   2.77,   0.36,  81.30,  17.21, -20.30,   1.89,   0.32,   0.66,   5.77, 4.08, 0.00, 0.00, 0.00, 0.00, 1, 1, 15,  42.6262290, -88.1607596,   245.0, 2025,  8, 16, 17, 28,  6,        0,        0,   0,   0,   0.9,   0.5,   0.7,  0,  0, 33,  0,  0,  0,  0, 32,  0, 34,  0,  0, 37,  0, 45,  0,  0, 43,  0,  0,  0,  0, 37, 41,  0,  0, 38,  0,  0,  0,  0, 39
6, 16162, 2,N0CALL,     0.38, 3,   boost,  142.69,  98870.00,  206.39,    4.33,   57.93, 42.0, 4.05, 4.08, 4.06, 156.55,   2.82,   0.21,  70.50,  17.76, -19.21,   1.89,   0.33,   0.66,   6.00, 4.08, 0.00, 0.00, 0.00, 0.00, 1, 1, 15,  42.6262290, -88.1607596,   245.0, 2025,  8, 16, 17, 28,  6,        0,        0,   0,   0,   0.9,   0.5,   0.7,  0,  0, 33,  0,  0,  0,  0, 32,  0, 34,  0,  0, 37,  0, 45,  0,  0, 43,  0,  0,  0,  0, 37, 41,  0,  0, 38,  0,  0,  0,  0, 39
6, 16162, 2,N0CALL,     0.39, 3,   boost,  143.67,  98870.00,  206.39,    4.33,   59.35, 42.0, 4.05, 4.08, 4.06, 156.66,   2.81,   0.57,  59.20,  17.09, -17.31,   1.89,   0.33,   0.66,   6.21, 4.08, 0.00, 0.00, 0.00, 0.00, 1, 1, 15,  42.6262290, -88.1607596,   245.0, 2025,  8, 16, 17, 28,  6,        0,        0,   0,   0,   0.9,   0.5,   0.7,  0,  0, 33,  0,  0,  0,  0, 32,  0, 34,  0,  0, 37,  0, 45,  0,  0, 43,  0,  0,  0,  0, 37, 41,  0,  0, 38,  0,  0,  0,  0, 39
6, 16162, 2,N0CALL,     0.40, 3,   boost,  142.20,  98864.00,  206.90,    4.84,   60.76, 42.0, 4.05, 4.08, 4.06, 156.64,   2.80,   0.60,  48.58,  17.82, -15.42,   1.89,   0.33,   0.65,   6.42, 4.08, 0.00, 0.00, 0.00, 0.00, 1, 1, 15,  42.6262290, -88.1607596,   245.0, 2025,  8, 16, 17, 28,  6,        0,        0,   0,   0,   0.9,   0.5,   0.7,  0,  0, 33,  0,  0,  0,  0, 32,  0, 34,  0,  0, 37,  0, 45,  0,  0, 43,  0,  0,  0,  0, 37, 41,  0,  0, 38,  0,  0,  0,  0, 39
6, 16162, 2,N0CALL,     0.41, 3,   boost,  142.20,  98864.00,  206.90,    4.84,   62.18, 42.0, 4.05, 4.08, 4.06, 157.03,   2.83,   0.34,  36.93,  18.74, -13.65,   1.89,   0.33,   0.65,   6.61, 4.08, 0.00, 0.00, 0.00, 0.00, 1, 1, 15,  42.6262290, -88.1607596,   245.0, 2025,  8, 16, 17, 28,  6,        0,        0,   0,   0,   0.9,   0.5,   0.7,  0,  0, 33,  0,  0,  0,  0, 32,  0, 34,  0,  0, 37,  0, 45,  0,  0, 43,  0,  0,  0,  0, 37, 41,  0,  0, 38,  0,  0,  0,  0, 39
6, 16162, 2,N0CALL,     0.42, 3,   boost,  143.67,  98861.00,  207.16,    5.09,   63.60, 42.0, 4.05, 4.08, 4.06, 156.73,   2.87,   0.59,  25.27,  16.78, -11.27,   1.89,   0.33,   0.65,   6.77, 4.08, 0.00, 0.00, 0.00, 0.00, 1, 1, 15,  42.6262290, -88.1607596,   245.0, 2025,  8, 16, 17, 28,  6,        0,        0,   0,   0,   0.9,   0.5,   0.7,  0,  0, 33,  0,  0,  0,  0, 32,  0, 34,  0,  0, 37,  0, 45,  0,  0, 43,  0,  0,  0,  0, 37, 41,  0,  0, 38,  0,  0,  0,  0, 39
6, 16162, 2,N0CALL,     0.43, 3,   boost,  142.69,  98861.00,  207.16,    5.09,   65.01, 42.0, 4.05, 4.08, 4.06, 157.02,   2.99,   0.68,  13.73,  16.84,  -9.01,   1.90,   0.33,   0.65,   6.92, 4.08, 0.00, 0.00, 0.00, 0.00, 1, 1, 15,  42.6262290, -88.1607596,   245.0, 2025,  8, 16, 17, 28,  6,        0,        0,   0,   0,   0.9,   0.5,   0.7,  0,  0, 33,  0,  0,  0,  0, 32,  0, 34,  0,  0, 37,  0, 45,  0,  0, 43,  0,  0,  0,  0, 37, 41,  0,  0, 38,  0,  0,  0,  0, 39
6, 16162, 2,N0CALL,     0.44, 3,   boost,  142.20,  98873.00,  206.14,    4.07,   66.43, 42.0, 4.05, 4.08, 4.06, 157.20,   3.08,   0.53,   2.07,  16.42,  -7.12,   1.90,   0.34,   0.65,   7.05, 4.08, 0.00, 0.00, 0.00, 0.00, 1, 1, 15,  42.6262290, -88.1607596,   245.0, 2025,  8, 16, 17, 28,  6,        0,        0,   0,   0,   0.9,   0.5,   0.7,  0,  0, 33,  0,  0,  0,  0, 32,  0, 34,  0,  0, 37,  0, 45,  0,  0, 43,  0,  0,  0,  0, 37, 41,  0,  0, 38,  0,  0,  0,  0, 39
6, 16162, 2,N0CALL,     0.45, 3,   boost,  142.69,  98873.00,  206.14,    4.07,   67.85, 42.0, 4.05, 4.08, 4.06, 156.98,   2.99,   0.66, -10.01,  14.34,  -4.86,   1.90,   0.34,   0.65,   7.16, 4.08, 0.00, 0.00, 0.00, 0.00, 1, 1, 15,  42.6262290, -88.1607596,   245.0, 2025,  8, 16, 17, 28,  6,        0,        0,   0,   0,   0.9,   0.5,   0.7,  0,  0, 33,  0,  0,  0,  0, 32,  0, 34,  0,  0, 37,  0, 45,  0,  0, 43,  0,  0,  0,  0, 37, 41,  0,  0, 38,  0,  0,  0,  0, 39
6, 16162, 2,N0CALL,     0.46, 3,   boost,  143.67,  98858.00,  207.41,    5.35,   69.27, 42.0, 4.05, 4.08, 4.06, 157.01,   3.17,   0.92, -19.96,  13.00,  -2.54,   1.90,   0.34,   0.65,   7.24, 4.08, 0.00, 0.00, 0.00, 0.00, 1, 1, 15,  42.6262290, -88.1607596,   245.0, 2025,  8, 16, 17, 28,  6,        0,        0,   0,   0,   0.9,   0.5,   0.7,  0,  0, 33,  0,  0,  0,  0, 32,  0, 34,  0,  0, 37,  0, 45,  0,  0, 43,  0,  0,  0,  0, 37, 41,  0,  0, 38,  0,  0,  0,  0, 39
6, 16162, 2,N0CALL,     0.47, 3,   boost,  144.16,  98858.00,  207.41,    5.35,   70.69, 42.0, 4.05, 4.08, 4.06, 157.37,   3.20,   0.71, -31.74,  13.36,  -0.89,   1.90,   0.33,   0.64,   7.30, 4.08, 0.00, 0.00, 0.00, 0.00, 1, 1, 15,  42.6262290, -88.1607596,   245.0, 2025,  8, 16, 17, 28,  6,        0,        0,   0,   0,   0.9,   0.5,   0.7,  0,  0, 33,  0,  0,  0,  0, 32,  0, 34,  0,  0, 37,  0, 45,  0,  0, 43,  0,  0,  0,  0, 37, 41,  0,  0, 38,  0,  0,  0,  0, 39
6, 16162, 2,N0CALL,     0.48, 3,   boost,  142.69,  98857.00,  207.50,    5.43,   72.11, 42.0, 4.05, 4.08, 4.06, 157.24,   3.22,   0.83, -44.13,  10.86,   1.73,   1.90,   0.33,   0.64,   7.34, 4.08, 0.00, 0.00, 0.00, 0.00, 1, 1, 15,  42.6262290, -88.1607596,   245.0, 2025,  8, 16, 17, 28,  6,        0,        0,   0,   0,   0.9,   0.5,   0.7,  0,  0, 33,  0,  0,  0,  0, 32,  0, 34,  0,  0, 37,  0, 45,  0,  0, 43,  0,  0,  0,  0, 37, 41,  0,  0, 38,  0,  0,  0,  0, 39
6, 16162, 2,N0CALL,     0.49, 3,   boost,  144.16,  98857.00,  207.50,    5.43,   73.53, 42.0, 4.05, 4.08, 4.06, 157.27,   3.16,   1.01, -53.35,  10.01,   3.99,   1.90,   0.33,   0.64,   7.35, 4.08, 0.00, 0.00, 0.00, 0.00, 1, 1, 15,  42.6262290, -88.1607596,   245.0, 2025,  8, 16, 17, 28,  6,        0,        0,   0,   0,   0.9,   0.5,   0.7,  0,  0, 33,  0,  0,  0,  0, 32,  0, 34,  0,  0, 37,  0, 45,  0,  0, 43,  0,  0,  0,  0, 37, 41,  0,  0, 38,  0,  0,  0,  0, 39
6, 16162, 2,N0CALL,     0.50, 3,   boost,  142.20,  98829.00,  209.88,    7.81,   74.95, 42.0, 4.05, 4.08, 4.06, 157.29,   3.15,   0.96, -62.68,   9.09,   6.25,   1.90,   0.33,   0.64,   7.33, 4.08, 0.00, 0.00, 0.00, 0.00, 1, 1, 15,  42.6262290, -88.1607596,   245.0, 2025,  8, 16, 17, 28,  6,        0,        0,   0,   0,   0.9,   0.5,   0.7,  0,  0, 33,  0,  0,  0,  0, 32,  0, 34,  0,  0, 37,  0, 45,  0,  0, 43,  0,  0,  0,  0, 37, 41,  0,  0, 38,  0,  0,  0,  0, 39
6, 16162, 2,N0CALL,     0.51, 3,   boost,  143.18,  98829.00,  209.88,    7.81,   76.37, 42.0, 4.05, 4.08, 4.06, 157.50,   3.17,   1.03, -74.28,   7.26,   8.38,   1.90,   0.33,   0.64,   7.29, 4.08, 0.00, 0.00, 0.00, 0.00, 1, 1, 15,  42.6262290, -88.1607596,   245.0, 2025,  8, 16, 17, 28,  6,        0,        0,   0,   0,   0.9,   0.5,   0.7,  0,  0, 33,  0,  0,  0,  0, 32,  0, 34,  0,  0, 37,  0, 45,  0,  0, 43,  0,  0,  0,  0, 37, 41,  0,  0, 38,  0,  0,  0,  0, 39
6, 16162, 2,N0CALL,     0.52, 3,   boost,  144.65,  98811.00,  211.41,    9.34,   77.80, 42.0, 4.05, 4.08, 4.06, 157.40,   3.10,   1.18, -81.73,   5.80,  11.01,   1.90,   0.32,   0.63,   7.22, 4.08, 0.00, 0.00, 0.00, 0.00, 1, 1, 15,  42.6262290, -88.1607596,   245.0, 2025,  8, 16, 17, 28,  6,        0,        0,   0,   0,   0.9,   0.5,   0.7,  0,  0, 33,  0,  0,  0,  0, 32,  0, 34,  0,  0, 37,  0, 45,  0,  0, 43,  0,  0,  0,  0, 37, 41,  0,  0, 38,  0,  0,  0,  0, 39
6, 16162, 2,N0CALL,     0.53, 3,   boost,  144.16,  98811.00,  211.41,    9.34,   79.22, 42.0, 4.05, 4.08, 4.06, 157.99,   3.13,   0.99, -90.39,   6.10,  12.78,   1.90,   0.32,   0.63,   7.14, 4.08, 0.00, 0.00, 0.00, 0.00, 1, 1, 15,  42.6262290, -88.1607596,   245.0, 2025,  8, 16, 17, 28,  6,        0,        0,   0,   0,   0.9,   0.5,   0.7,  0,  0, 33,  0,  0,  0,  0, 32,  0, 34,  0,  0, 37,  0, 45,  0,  0, 43,  0,  0,  0,  0, 37, 41,  0,  0, 38,  0,  0,  0,  0, 39
6, 16162, 2,N0CALL,     0.54, 3,   boost,  142.20,  98790.00,  213.19,   11.12,   80.64, 42.0, 4.05, 4.08, 4.06, 157.37,   2.95,   0.92, -98.27,   4.45,  14.79,   1.89,   0.32,   0.63,   7.03, 4.08, 0.00, 0.00, 0.00, 0.00, 1, 1, 15,  42.6262290, -88.1607596,   245.0, 2025,  8, 16, 17, 28,  6,        0,        0,   0,   0,   0.9,   0.5,   0.7,  0,  0, 33,  0,  0,  0,  0, 32,  0, 34,  0,  0, 37,  0, 45,  0,  0, 43,  0,  0,  0,  0, 37, 41,  0,  0, 38,  0,  0,  0,  0, 39
6, 16162, 2,N0CALL,     0.55, 3,   boost,  142.20,  98790.00,  213.19,   11.12,   82.07, 42.0, 4.05, 4.08, 4.06, 157.47,   2.94,   1.05,-106.87,   2.44,  16.56,   1.89,   0.32,   0.63,   6.89, 4.08, 0.00, 0.00, 0.00, 0.00, 1, 1, 15,  42.6262290, -88.1607596,   245.0, 2025,  8, 16, 17, 28,  6,        0,        0,   0,   0,   0.9,   0.5,   0.7,  0,  0, 33,  0,  0,  0,  0, 32,  0, 34,  0,  0, 37,  0, 45,  0,  0, 43,  0,  0,  0,  0, 37, 41,  0,  0, 38,  0,  0,  0,  0, 39
